$GPGGA,200617.00,4346.9294984,N,07927.9633846,W,4,07,1.7,189.447,M,-37.20,M,01,0000*6D
$GPGGA,200617.25,4346.9294983,N,07927.9633813,W,4,07,1.7,189.442,M,-37.20,M,00,0000*69
$GPGGA,200617.50,4346.9295021,N,07927.9633859,W,4,07,1.7,189.433,M,-37.20,M,00,0000*63
$GPGGA,200617.75,4346.9295022,N,07927.9633840,W,4,07,1.7,189.433,M,-37.20,M,00,0000*6F
$GPGGA,200618.00,4346.9295026,N,07927.9633864,W,4,07,1.7,189.437,M,-37.20,M,01,0000*65
$GPGGA,200618.25,4346.9294993,N,07927.9633847,W,4,07,1.7,189.441,M,-37.20,M,00,0000*65
$GPGGA,200618.50,4346.9294999,N,07927.9633849,W,4,07,1.7,189.438,M,-37.20,M,00,0000*6D
$GPGGA,200618.75,4346.9294983,N,07927.9633839,W,4,07,1.7,189.443,M,-37.20,M,00,0000*6A
$GPGGA,200619.00,4346.9294964,N,07927.9633821,W,4,07,1.7,189.448,M,-37.20,M,01,0000*63
$GPGGA,200619.25,4346.9294984,N,07927.9633840,W,4,07,1.7,189.452,M,-37.20,M,00,0000*67
$GPGGA,200619.50,4346.9294994,N,07927.9633841,W,4,07,1.7,189.448,M,-37.20,M,00,0000*6E
$GPGGA,200619.75,4346.9295012,N,07927.9633856,W,4,07,1.7,189.443,M,-37.20,M,00,0000*62
$GPGGA,200620.00,4346.9294998,N,07927.9633842,W,4,07,1.7,189.451,M,-37.20,M,01,0000*67
$GPGGA,200620.25,4346.9294969,N,07927.9633806,W,4,07,1.7,189.454,M,-37.20,M,00,0000*6A
$GPGGA,200620.50,4346.9295005,N,07927.9633833,W,4,07,1.7,189.448,M,-37.20,M,00,0000*61
$GPGGA,200620.75,4346.9294990,N,07927.9633838,W,4,07,1.7,189.451,M,-37.20,M,00,0000*61
$GPGGA,200621.00,4346.9294973,N,07927.9633808,W,4,07,1.7,189.452,M,-37.20,M,01,0000*6E
$GPGGA,200621.25,4346.9294978,N,07927.9633793,W,4,07,1.7,189.444,M,-37.20,M,00,0000*69
$GPGGA,200621.50,4346.9294986,N,07927.9633794,W,4,07,1.7,189.448,M,-37.20,M,00,0000*61
$GPGGA,200621.75,4346.9294969,N,07927.9633806,W,4,07,1.7,189.449,M,-37.20,M,00,0000*62
$GPGGA,200622.00,4346.9294988,N,07927.9633836,W,4,07,1.7,189.447,M,-37.20,M,01,0000*60
$GPGGA,200622.25,4346.9294999,N,07927.9633834,W,4,07,1.7,189.441,M,-37.20,M,00,0000*62
$GPGGA,200622.50,4346.9294987,N,07927.9633803,W,4,07,1.7,189.447,M,-37.20,M,00,0000*6D
$GPGGA,200622.75,4346.9294969,N,07927.9633783,W,4,07,1.7,189.452,M,-37.20,M,00,0000*69
$GPGGA,200623.00,4346.9294968,N,07927.9633789,W,4,07,1.7,189.456,M,-37.20,M,01,0000*64
$GPGGA,200623.25,4346.9295015,N,07927.9633833,W,4,07,1.7,189.450,M,-37.20,M,00,0000*68
$GPGGA,200623.50,4346.9294983,N,07927.9633848,W,4,07,1.7,189.446,M,-37.20,M,00,0000*66
$GPGGA,200623.75,4346.9295024,N,07927.9633868,W,4,07,1.7,189.445,M,-37.20,M,00,0000*65
$GPGGA,200624.00,4346.9294985,N,07927.9633843,W,4,07,1.7,189.451,M,-37.20,M,01,0000*6E
$GPGGA,200624.25,4346.9294988,N,07927.9633787,W,4,07,1.7,189.460,M,-37.20,M,00,0000*60
$GPGGA,200624.50,4346.9294987,N,07927.9633842,W,4,07,1.7,189.450,M,-37.20,M,00,0000*68
$GPGGA,200624.75,4346.9294975,N,07927.9633824,W,4,07,1.7,189.453,M,-37.20,M,00,0000*61
$GPGGA,200625.00,4346.9294987,N,07927.9633839,W,4,07,1.7,189.449,M,-37.20,M,01,0000*69
$GPGGA,200625.25,4346.9294970,N,07927.9633808,W,4,07,1.7,189.461,M,-37.20,M,00,0000*6F
$GPGGA,200625.50,4346.9295011,N,07927.9633837,W,4,07,1.7,189.453,M,-37.20,M,00,0000*6F
$GPGGA,200625.75,4346.9294988,N,07927.9633838,W,4,07,1.7,189.458,M,-37.20,M,00,0000*64
$GPGGA,200626.00,4346.9294969,N,07927.9633802,W,4,07,1.7,189.460,M,-37.20,M,01,0000*69
$GPGGA,200626.25,4346.9294976,N,07927.9633826,W,4,07,1.7,189.450,M,-37.20,M,00,0000*64
$GPGGA,200626.50,4346.9295011,N,07927.9633881,W,4,07,1.7,189.442,M,-37.20,M,00,0000*61
$GPGGA,200626.75,4346.9295019,N,07927.9633895,W,4,07,1.7,189.439,M,-37.20,M,00,0000*67
$GPGGA,200627.00,4346.9295010,N,07927.9633881,W,4,07,1.7,189.444,M,-37.20,M,01,0000*63
$GPGGA,200627.25,4346.9294976,N,07927.9633826,W,4,07,1.7,189.449,M,-37.20,M,00,0000*6D
$GPGGA,200627.50,4346.9294977,N,07927.9633831,W,4,07,1.7,189.448,M,-37.20,M,00,0000*69
$GPGGA,200627.75,4346.9294996,N,07927.9633869,W,4,07,1.7,189.449,M,-37.20,M,00,0000*6D
$GPGGA,200628.00,4346.9295009,N,07927.9633878,W,4,07,1.7,189.447,M,-37.20,M,01,0000*61
$GPGGA,200628.25,4346.9295001,N,07927.9633817,W,4,07,1.7,189.449,M,-37.20,M,00,0000*68
$GPGGA,200628.50,4346.9295016,N,07927.9633861,W,4,07,1.7,189.444,M,-37.20,M,00,0000*60
$GPGGA,200628.75,4346.9295012,N,07927.9633858,W,4,07,1.7,189.443,M,-37.20,M,00,0000*6E
$GPGGA,200629.00,4346.9295012,N,07927.9633851,W,4,07,1.7,189.443,M,-37.20,M,01,0000*65
$GPGGA,200629.25,4346.9294990,N,07927.9633832,W,4,07,1.7,189.450,M,-37.20,M,00,0000*66
$GPGGA,200629.50,4346.9295001,N,07927.9633810,W,4,07,1.7,189.450,M,-37.20,M,00,0000*64
$GPGGA,200629.75,4346.9294987,N,07927.9633845,W,4,07,1.7,189.450,M,-37.20,M,00,0000*65
$GPGGA,200630.00,4346.9295018,N,07927.9633866,W,4,07,1.7,189.443,M,-37.20,M,01,0000*63
$GPGGA,200630.25,4346.9294984,N,07927.9633837,W,4,07,1.7,189.454,M,-37.20,M,00,0000*6A
$GPGGA,200630.50,4346.9294993,N,07927.9633861,W,4,07,1.7,189.449,M,-37.20,M,00,0000*61
$GPGGA,200630.75,4346.9295006,N,07927.9633857,W,4,07,1.7,189.448,M,-37.20,M,00,0000*66
$GPGGA,200631.00,4346.9295021,N,07927.9633856,W,4,07,1.7,189.441,M,-37.20,M,01,0000*69
$GPGGA,200631.25,4346.9295014,N,07927.9633860,W,4,07,1.7,189.446,M,-37.20,M,00,0000*6B
$GPGGA,200631.50,4346.9295005,N,07927.9633825,W,4,07,1.7,189.450,M,-37.20,M,00,0000*6F
$GPGGA,200631.75,4346.9295021,N,07927.9633836,W,4,07,1.7,189.445,M,-37.20,M,00,0000*68
$GPGGA,200632.00,4346.9295021,N,07927.9633845,W,4,07,1.7,189.442,M,-37.20,M,01,0000*6B
$GPGGA,200632.25,4346.9294983,N,07927.9633826,W,4,07,1.7,189.447,M,-37.20,M,00,0000*6D
$GPGGA,200632.50,4346.9294980,N,07927.9633835,W,4,07,1.7,189.450,M,-37.20,M,00,0000*68
$GPGGA,200632.75,4346.9295000,N,07927.9633856,W,4,07,1.7,189.449,M,-37.20,M,00,0000*62
$GPGGA,200633.00,4346.9294960,N,07927.9633831,W,4,07,1.7,189.454,M,-37.20,M,01,0000*63
$GPGGA,200633.25,4346.9294975,N,07927.9633806,W,4,07,1.7,189.450,M,-37.20,M,00,0000*61
$GPGGA,200633.50,4346.9294959,N,07927.9633861,W,4,07,1.7,189.452,M,-37.20,M,00,0000*6E
$GPGGA,200633.75,4346.9294993,N,07927.9633858,W,4,07,1.7,189.443,M,-37.20,M,00,0000*65
$GPGGA,200634.00,4346.9294987,N,07927.9633849,W,4,07,1.7,189.449,M,-37.20,M,01,0000*6E
$GPGGA,200634.25,4346.9294973,N,07927.9633803,W,4,07,1.7,189.453,M,-37.20,M,00,0000*66
$GPGGA,200634.50,4346.9294981,N,07927.9633826,W,4,07,1.7,189.455,M,-37.20,M,00,0000*68
$GPGGA,200634.75,4346.9294953,N,07927.9633804,W,4,07,1.7,189.455,M,-37.20,M,00,0000*60
$GPGGA,200635.00,4346.9294939,N,07927.9633812,W,4,07,1.7,189.453,M,-37.20,M,01,0000*6F
$GPGGA,200635.25,4346.9294992,N,07927.9633823,W,4,07,1.7,189.456,M,-37.20,M,00,0000*6F
$GPGGA,200635.50,4346.9294989,N,07927.9633844,W,4,07,1.7,189.457,M,-37.20,M,00,0000*67
$GPGGA,200635.75,4346.9295001,N,07927.9633836,W,4,07,1.7,189.451,M,-37.20,M,00,0000*6B
$GPGGA,200636.00,4346.9294983,N,07927.9633855,W,4,07,1.7,189.450,M,-37.20,M,01,0000*6D
$GPGGA,200636.25,4346.9294974,N,07927.9633838,W,4,07,1.7,189.455,M,-37.20,M,00,0000*6D
$GPGGA,200636.50,4346.9294980,N,07927.9633826,W,4,07,1.7,189.453,M,-37.20,M,00,0000*6D
$GPGGA,200636.75,4346.9294987,N,07927.9633803,W,4,07,1.7,189.451,M,-37.20,M,00,0000*68
$GPGGA,200637.00,4346.9295006,N,07927.9633815,W,4,07,1.7,189.450,M,-37.20,M,01,0000*6D
$GPGGA,200637.25,4346.9294992,N,07927.9633847,W,4,07,1.7,189.449,M,-37.20,M,00,0000*61
$GPGGA,200637.50,4346.9295001,N,07927.9633788,W,4,07,1.7,189.447,M,-37.20,M,00,0000*63
$GPGGA,200637.75,4346.9294978,N,07927.9633631,W,4,07,1.7,189.454,M,-37.20,M,00,0000*63
$GPGGA,200638.00,4346.9294952,N,07927.9633427,W,4,07,1.7,189.452,M,-37.20,M,01,0000*64
$GPGGA,200638.25,4346.9294956,N,07927.9633176,W,4,07,1.7,189.467,M,-37.20,M,00,0000*61
$GPGGA,200638.50,4346.9294974,N,07927.9632879,W,4,07,1.7,189.467,M,-37.20,M,00,0000*64
$GPGGA,200638.75,4346.9294913,N,07927.9632410,W,4,07,1.7,189.476,M,-37.20,M,00,0000*61
$GPGGA,200639.00,4346.9294851,N,07927.9631888,W,4,07,1.7,189.477,M,-37.20,M,01,0000*6B
$GPGGA,200639.25,4346.9294738,N,07927.9631431,W,4,07,1.7,189.469,M,-37.20,M,00,0000*6C
$GPGGA,200639.50,4346.9294635,N,07927.9630859,W,4,07,1.7,189.470,M,-37.20,M,00,0000*69
$GPGGA,200639.75,4346.9294613,N,07927.9630344,W,4,07,1.7,189.465,M,-37.20,M,00,0000*69
$GPGGA,200640.00,4346.9294573,N,07927.9629707,W,4,07,1.7,189.498,M,-37.20,M,01,0000*68
$GPGGA,200640.25,4346.9294470,N,07927.9628978,W,4,07,1.7,189.476,M,-37.20,M,00,0000*6B
$GPGGA,200640.50,4346.9294446,N,07927.9628438,W,4,07,1.7,189.476,M,-37.20,M,00,0000*65
$GPGGA,200640.75,4346.9294276,N,07927.9627734,W,4,07,1.7,189.484,M,-37.20,M,00,0000*6A
$GPGGA,200641.00,4346.9294243,N,07927.9627034,W,4,07,1.7,189.487,M,-37.20,M,01,0000*6A
$GPGGA,200641.25,4346.9294166,N,07927.9626257,W,4,07,1.7,189.470,M,-37.20,M,00,0000*66
$GPGGA,200641.50,4346.9294094,N,07927.9625389,W,4,07,1.7,189.472,M,-37.20,M,00,0000*6B
$GPGGA,200641.75,4346.9293906,N,07927.9624213,W,4,07,1.7,189.473,M,-37.20,M,00,0000*6B
$GPGGA,200642.00,4346.9293855,N,07927.9623187,W,4,07,1.7,189.463,M,-37.20,M,01,0000*64
$GPGGA,200642.25,4346.9293696,N,07927.9622134,W,4,07,1.7,189.452,M,-37.20,M,00,0000*68
$GPGGA,200642.50,4346.9293571,N,07927.9621000,W,4,07,1.7,189.458,M,-37.20,M,00,0000*6F
$GPGGA,200642.75,4346.9293466,N,07927.9619915,W,4,07,1.7,189.465,M,-37.20,M,00,0000*67
$GPGGA,200643.00,4346.9293353,N,07927.9618764,W,4,07,1.7,189.465,M,-37.20,M,01,0000*6D
$GPGGA,200643.25,4346.9293176,N,07927.9617517,W,4,07,1.7,189.491,M,-37.20,M,00,0000*6C
$GPGGA,200643.50,4346.9293109,N,07927.9616353,W,4,07,1.7,189.488,M,-37.20,M,00,0000*69
$GPGGA,200643.75,4346.9292952,N,07927.9615163,W,4,07,1.7,189.481,M,-37.20,M,00,0000*62
$GPGGA,200644.00,4346.9292777,N,07927.9613816,W,4,07,1.7,189.504,M,-37.20,M,01,0000*6E
$GPGGA,200644.25,4346.9292686,N,07927.9612478,W,4,07,1.7,189.498,M,-37.20,M,00,0000*66
$GPGGA,200644.50,4346.9292523,N,07927.9611063,W,4,07,1.7,189.505,M,-37.20,M,00,0000*60
$GPGGA,200644.75,4346.9292344,N,07927.9609621,W,4,07,1.7,189.500,M,-37.20,M,00,0000*6C
$GPGGA,200645.00,4346.9292199,N,07927.9608141,W,4,07,1.7,189.484,M,-37.20,M,01,0000*61
$GPGGA,200645.25,4346.9292050,N,07927.9606713,W,4,07,1.7,189.543,M,-37.20,M,00,0000*66
$GPGGA,200645.50,4346.9291872,N,07927.9605156,W,4,07,1.7,189.536,M,-37.20,M,00,0000*69
$GPGGA,200645.75,4346.9291734,N,07927.9603632,W,4,07,1.7,189.549,M,-37.20,M,00,0000*68
$GPGGA,200646.00,4346.9291564,N,07927.9602036,W,4,07,1.7,189.555,M,-37.20,M,01,0000*61
$GPGGA,200646.25,4346.9291434,N,07927.9600466,W,4,07,1.7,189.556,M,-37.20,M,00,0000*63
$GPGGA,200646.50,4346.9291277,N,07927.9598868,W,4,07,1.7,189.554,M,-37.20,M,00,0000*62
$GPGGA,200646.75,4346.9291091,N,07927.9597295,W,4,07,1.7,189.563,M,-37.20,M,00,0000*6C
$GPGGA,200647.00,4346.9290950,N,07927.9595674,W,4,07,1.7,189.552,M,-37.20,M,01,0000*60
$GPGGA,200647.25,4346.9290756,N,07927.9593976,W,4,07,1.7,189.569,M,-37.20,M,00,0000*6D
$GPGGA,200647.50,4346.9290636,N,07927.9592503,W,4,07,1.7,189.563,M,-37.20,M,00,0000*6D
$GPGGA,200647.75,4346.9290419,N,07927.9590774,W,4,07,1.7,189.573,M,-37.20,M,00,0000*64
$GPGGA,200648.00,4346.9290296,N,07927.9589148,W,4,07,1.7,189.575,M,-37.20,M,01,0000*6E
$GPGGA,200648.25,4346.9290052,N,07927.9587450,W,4,07,1.7,189.611,M,-37.20,M,00,0000*61
$GPGGA,200648.50,4346.9289926,N,07927.9585796,W,4,07,1.7,189.614,M,-37.20,M,00,0000*6F
$GPGGA,200648.75,4346.9289717,N,07927.9584207,W,4,07,1.7,189.605,M,-37.20,M,00,0000*68
$GPGGA,200649.00,4346.9289571,N,07927.9582570,W,4,07,1.7,189.607,M,-37.20,M,01,0000*6B
$GPGGA,200649.25,4346.9289356,N,07927.9580828,W,4,06,1.7,189.618,M,-37.20,M,00,0000*63
$GPGGA,200649.50,4346.9289274,N,07927.9579339,W,4,06,1.7,189.629,M,-37.20,M,00,0000*6F
$GPGGA,200649.75,4346.9289087,N,07927.9577612,W,4,06,1.7,189.629,M,-37.20,M,00,0000*64
$GPGGA,200650.00,4346.9288918,N,07927.9575963,W,4,06,1.7,189.647,M,-37.20,M,01,0000*62
$GPGGA,200650.25,4346.9288773,N,07927.9574296,W,4,06,1.7,189.662,M,-37.20,M,00,0000*60
$GPGGA,200650.50,4346.9288615,N,07927.9572608,W,4,06,1.7,189.668,M,-37.20,M,00,0000*6C
$GPGGA,200650.75,4346.9288484,N,07927.9570932,W,4,07,1.7,189.667,M,-37.20,M,00,0000*6B
$GPGGA,200651.00,4346.9288402,N,07927.9569261,W,4,07,1.7,189.686,M,-37.20,M,01,0000*6D
$GPGGA,200651.25,4346.9288310,N,07927.9567480,W,4,07,1.7,189.671,M,-37.20,M,00,0000*60
$GPGGA,200651.50,4346.9288371,N,07927.9565827,W,4,07,1.7,189.695,M,-37.20,M,00,0000*6C
$GPGGA,200651.75,4346.9288380,N,07927.9564062,W,4,07,1.1,189.683,M,-37.20,M,00,0000*6C
$GPGGA,200652.00,4346.9288467,N,07927.9562337,W,4,07,1.1,189.681,M,-37.20,M,01,0000*65
$GPGGA,200652.25,4346.9288577,N,07927.9560671,W,4,07,1.1,189.688,M,-37.20,M,00,0000*6F
$GPGGA,200652.50,4346.9288687,N,07927.9559093,W,4,07,1.1,189.689,M,-37.20,M,00,0000*60
$GPGGA,200652.75,4346.9288738,N,07927.9557523,W,4,07,1.1,189.715,M,-37.20,M,00,0000*66
$GPGGA,200653.00,4346.9288832,N,07927.9555880,W,4,07,1.1,189.726,M,-37.20,M,01,0000*67
$GPGGA,200653.25,4346.9288956,N,07927.9554302,W,4,07,1.1,189.737,M,-37.20,M,00,0000*62
$GPGGA,200653.50,4346.9289119,N,07927.9552587,W,4,07,1.1,189.736,M,-37.20,M,00,0000*6E
$GPGGA,200653.75,4346.9289222,N,07927.9550916,W,4,07,1.1,189.753,M,-37.20,M,00,0000*67
$GPGGA,200654.00,4346.9289387,N,07927.9549146,W,4,07,1.1,189.751,M,-37.20,M,01,0000*6A
$GPGGA,200654.25,4346.9289599,N,07927.9547564,W,4,07,1.1,189.755,M,-37.20,M,00,0000*6B
$GPGGA,200654.50,4346.9289734,N,07927.9545892,W,4,07,1.1,189.746,M,-37.20,M,00,0000*68
$GPGGA,200654.75,4346.9289882,N,07927.9544194,W,4,07,1.1,189.756,M,-37.20,M,00,0000*62
$GPGGA,200655.00,4346.9290046,N,07927.9542480,W,4,07,1.1,189.763,M,-37.20,M,01,0000*68
$GPGGA,200655.25,4346.9290203,N,07927.9540845,W,4,08,1.0,189.781,M,-37.20,M,00,0000*68
$GPGGA,200655.50,4346.9290447,N,07927.9539106,W,4,08,1.0,189.776,M,-37.20,M,00,0000*64
$GPGGA,200655.75,4346.9290584,N,07927.9537552,W,4,08,1.0,189.803,M,-37.20,M,00,0000*6B
$GPGGA,200656.00,4346.9290789,N,07927.9535867,W,4,08,1.0,189.806,M,-37.20,M,01,0000*68
$GPGGA,200656.25,4346.9290955,N,07927.9534165,W,4,08,1.0,189.832,M,-37.20,M,00,0000*6C
$GPGGA,200656.50,4346.9291141,N,07927.9532465,W,4,08,1.0,189.835,M,-37.20,M,00,0000*66
$GPGGA,200656.75,4346.9291355,N,07927.9530804,W,4,08,1.0,189.847,M,-37.20,M,00,0000*6A
$GPGGA,200657.00,4346.9291557,N,07927.9529097,W,4,08,1.0,189.846,M,-37.20,M,01,0000*67
$GPGGA,200657.25,4346.9291806,N,07927.9527506,W,4,08,1.0,189.858,M,-37.20,M,00,0000*64
$GPGGA,200657.50,4346.9291968,N,07927.9525803,W,4,08,1.0,189.862,M,-37.20,M,00,0000*6C
$GPGGA,200657.75,4346.9292225,N,07927.9524205,W,4,08,1.0,189.868,M,-37.20,M,00,0000*6D
$GPGGA,200658.00,4346.9292440,N,07927.9522534,W,4,08,1.0,189.877,M,-37.20,M,01,0000*69
$GPGGA,200658.25,4346.9292708,N,07927.9520819,W,4,08,1.0,189.882,M,-37.20,M,00,0000*6A
$GPGGA,200658.50,4346.9292935,N,07927.9519153,W,4,08,1.0,189.881,M,-37.20,M,00,0000*66
$GPGGA,200658.75,4346.9293155,N,07927.9517480,W,4,08,1.0,189.884,M,-37.20,M,00,0000*6E
$GPGGA,200659.00,4346.9293322,N,07927.9515787,W,4,08,1.0,189.889,M,-37.20,M,01,0000*65
$GPGGA,200659.25,4346.9293439,N,07927.9514138,W,4,08,1.0,189.891,M,-37.20,M,00,0000*64
$GPGGA,200659.50,4346.9293538,N,07927.9512448,W,4,08,1.0,189.893,M,-37.20,M,00,0000*60
$GPGGA,200659.75,4346.9293589,N,07927.9510829,W,4,08,1.0,189.905,M,-37.20,M,00,0000*6A
$GPGGA,200700.00,4346.9293598,N,07927.9509121,W,4,08,1.0,189.910,M,-37.20,M,01,0000*69
$GPGGA,200700.25,4346.9293594,N,07927.9507422,W,4,08,1.0,189.915,M,-37.20,M,00,0000*6E
$GPGGA,200700.50,4346.9293512,N,07927.9505737,W,4,08,1.0,189.921,M,-37.20,M,00,0000*60
$GPGGA,200700.75,4346.9293376,N,07927.9504057,W,4,08,1.0,189.933,M,-37.20,M,00,0000*60
$GPGGA,200701.00,4346.9293220,N,07927.9502387,W,4,08,1.0,189.948,M,-37.20,M,01,0000*64
$GPGGA,200701.25,4346.9292997,N,07927.9500683,W,4,08,1.0,189.953,M,-37.20,M,00,0000*6D
$GPGGA,200701.50,4346.9292874,N,07927.9499091,W,4,08,1.0,189.970,M,-37.20,M,00,0000*66
$GPGGA,200701.75,4346.9292720,N,07927.9497395,W,4,08,1.0,189.974,M,-37.20,M,00,0000*62
$GPGGA,200702.00,4346.9292585,N,07927.9495698,W,4,08,1.0,189.982,M,-37.20,M,01,0000*6C
$GPGGA,200702.25,4346.9292298,N,07927.9493987,W,4,08,1.0,189.976,M,-37.20,M,00,0000*6D
$GPGGA,200702.50,4346.9291980,N,07927.9492301,W,4,08,1.0,189.993,M,-37.20,M,00,0000*60
$GPGGA,200702.75,4346.9291641,N,07927.9490705,W,4,08,1.0,190.000,M,-37.20,M,00,0000*6C
$GPGGA,200703.00,4346.9291201,N,07927.9489106,W,4,08,1.0,189.997,M,-37.20,M,01,0000*6C
$GPGGA,200703.25,4346.9290781,N,07927.9487543,W,4,08,1.0,189.990,M,-37.20,M,00,0000*6A
$GPGGA,200703.50,4346.9290257,N,07927.9486022,W,4,08,1.0,189.987,M,-37.20,M,00,0000*63
$GPGGA,200703.75,4346.9289711,N,07927.9484507,W,4,08,1.0,189.994,M,-37.20,M,00,0000*69
$GPGGA,200704.00,4346.9289157,N,07927.9482944,W,4,07,1.0,189.997,M,-37.20,M,01,0000*68
$GPGGA,200704.25,4346.9288544,N,07927.9481313,W,4,07,1.1,189.989,M,-37.20,M,00,0000*6C
$GPGGA,200704.50,4346.9287942,N,07927.9479637,W,4,07,1.1,189.988,M,-37.20,M,00,0000*6E
$GPGGA,200704.75,4346.9287231,N,07927.9478033,W,4,07,1.1,189.986,M,-37.20,M,00,0000*6B
$GPGGA,200705.00,4346.9286476,N,07927.9476530,W,4,07,1.1,189.975,M,-37.20,M,01,0000*69
$GPGGA,200705.25,4346.9285743,N,07927.9475053,W,4,07,1.1,189.968,M,-37.20,M,00,0000*66
$GPGGA,200705.50,4346.9284945,N,07927.9473727,W,4,06,1.1,189.966,M,-37.20,M,00,0000*60
$GPGGA,200705.75,4346.9284130,N,07927.9472435,W,4,06,1.7,189.961,M,-37.20,M,00,0000*6D
$GPGGA,200706.00,4346.9283233,N,07927.9471184,W,4,06,1.7,189.959,M,-37.20,M,01,0000*6D
$GPGGA,200706.25,4346.9282363,N,07927.9469932,W,4,07,1.7,189.957,M,-37.20,M,00,0000*6D
$GPGGA,200706.50,4346.9281599,N,07927.9468788,W,4,07,1.7,189.974,M,-37.20,M,00,0000*60
$GPGGA,200706.75,4346.9280889,N,07927.9467623,W,4,07,1.7,189.989,M,-37.20,M,00,0000*67
$GPGGA,200707.00,4346.9280240,N,07927.9466580,W,4,07,1.7,189.996,M,-37.20,M,01,0000*6F
$GPGGA,200707.25,4346.9279503,N,07927.9465503,W,4,07,1.7,190.024,M,-37.20,M,00,0000*6F
$GPGGA,200707.50,4346.9278719,N,07927.9464485,W,4,07,1.7,190.039,M,-37.20,M,00,0000*67
$GPGGA,200707.75,4346.9277923,N,07927.9463300,W,4,07,1.7,190.033,M,-37.20,M,00,0000*6F
$GPGGA,200708.00,4346.9277081,N,07927.9462254,W,4,07,1.7,190.060,M,-37.20,M,01,0000*65
$GPGGA,200708.25,4346.9276137,N,07927.9461184,W,4,07,1.7,190.078,M,-37.20,M,00,0000*6A
$GPGGA,200708.50,4346.9275221,N,07927.9460177,W,4,07,1.7,190.087,M,-37.20,M,00,0000*62
$GPGGA,200708.75,4346.9274264,N,07927.9459151,W,4,07,1.0,190.081,M,-37.20,M,00,0000*6A
$GPGGA,200709.00,4346.9273194,N,07927.9458181,W,4,07,1.0,190.096,M,-37.20,M,01,0000*69
$GPGGA,200709.25,4346.9272173,N,07927.9457120,W,4,08,1.0,190.126,M,-37.20,M,00,0000*66
$GPGGA,200709.50,4346.9271170,N,07927.9456161,W,4,08,1.0,190.139,M,-37.20,M,00,0000*6E
$GPGGA,200709.75,4346.9270195,N,07927.9455175,W,4,08,1.0,190.147,M,-37.20,M,00,0000*6C
$GPGGA,200710.00,4346.9269186,N,07927.9454174,W,4,08,1.0,190.144,M,-37.20,M,01,0000*6E
$GPGGA,200710.25,4346.9268050,N,07927.9453095,W,4,08,1.0,190.140,M,-37.20,M,00,0000*6E
$GPGGA,200710.50,4346.9267059,N,07927.9452102,W,4,08,1.0,190.134,M,-37.20,M,00,0000*67
$GPGGA,200710.75,4346.9265971,N,07927.9451162,W,4,08,1.0,190.140,M,-37.20,M,00,0000*67
$GPGGA,200711.00,4346.9264956,N,07927.9450215,W,4,08,1.0,190.142,M,-37.20,M,01,0000*61
$GPGGA,200711.25,4346.9263996,N,07927.9449291,W,4,08,1.0,190.149,M,-37.20,M,00,0000*63
$GPGGA,200711.50,4346.9263022,N,07927.9448464,W,4,08,1.0,190.163,M,-37.20,M,00,0000*62
$GPGGA,200711.75,4346.9262014,N,07927.9447454,W,4,08,1.0,190.155,M,-37.20,M,00,0000*68
$GPGGA,200712.00,4346.9260992,N,07927.9446616,W,4,08,1.0,190.164,M,-37.20,M,01,0000*6A
$GPGGA,200712.25,4346.9259893,N,07927.9445557,W,4,08,1.0,190.167,M,-37.20,M,00,0000*60
$GPGGA,200712.50,4346.9258905,N,07927.9444728,W,4,08,1.0,190.160,M,-37.20,M,00,0000*61
$GPGGA,200712.75,4346.9257908,N,07927.9443759,W,4,08,1.0,190.158,M,-37.20,M,00,0000*6E
$GPGGA,200713.00,4346.9256880,N,07927.9442790,W,4,08,1.0,190.148,M,-37.20,M,01,0000*69
$GPGGA,200713.25,4346.9255813,N,07927.9441853,W,4,08,1.0,190.136,M,-37.20,M,00,0000*6C
$GPGGA,200713.50,4346.9254700,N,07927.9440858,W,4,08,1.0,190.133,M,-37.20,M,00,0000*6D
$GPGGA,200713.75,4346.9253648,N,07927.9439881,W,4,08,1.0,190.129,M,-37.20,M,00,0000*61
$GPGGA,200714.00,4346.9252630,N,07927.9438977,W,4,08,1.0,190.148,M,-37.20,M,01,0000*65
$GPGGA,200714.25,4346.9251571,N,07927.9438058,W,4,08,1.0,190.135,M,-37.20,M,00,0000*68
$GPGGA,200714.50,4346.9250611,N,07927.9437285,W,4,08,1.0,190.161,M,-37.20,M,00,0000*62
$GPGGA,200714.75,4346.9249579,N,07927.9436283,W,4,08,1.0,190.149,M,-37.20,M,00,0000*6D
$GPGGA,200715.00,4346.9248449,N,07927.9435354,W,4,08,1.0,190.148,M,-37.20,M,01,0000*65
$GPGGA,200715.25,4346.9247432,N,07927.9434453,W,4,08,1.0,190.148,M,-37.20,M,00,0000*61
$GPGGA,200715.50,4346.9246420,N,07927.9433596,W,4,08,1.0,190.152,M,-37.20,M,00,0000*65
$GPGGA,200715.75,4346.9245330,N,07927.9432587,W,4,08,1.0,190.143,M,-37.20,M,00,0000*66
$GPGGA,200716.00,4346.9244247,N,07927.9431743,W,4,08,1.0,190.144,M,-37.20,M,01,0000*68
$GPGGA,200716.25,4346.9243292,N,07927.9430807,W,4,08,1.0,190.120,M,-37.20,M,00,0000*6D
$GPGGA,200716.50,4346.9242310,N,07927.9429712,W,4,08,1.0,190.111,M,-37.20,M,00,0000*64
$GPGGA,200716.75,4346.9241280,N,07927.9428874,W,4,08,1.0,190.116,M,-37.20,M,00,0000*61
$GPGGA,200717.00,4346.9240286,N,07927.9427868,W,4,08,1.0,190.113,M,-37.20,M,01,0000*63
$GPGGA,200717.25,4346.9239189,N,07927.9426972,W,4,08,1.0,190.102,M,-37.20,M,00,0000*6C
$GPGGA,200717.50,4346.9238246,N,07927.9426001,W,4,08,1.0,190.107,M,-37.20,M,00,0000*67
$GPGGA,200717.75,4346.9237183,N,07927.9425152,W,4,08,1.0,190.113,M,-37.20,M,00,0000*64
$GPGGA,200718.00,4346.9236088,N,07927.9424152,W,4,08,1.0,190.099,M,-37.20,M,01,0000*61
$GPGGA,200718.25,4346.9235065,N,07927.9423238,W,4,08,1.0,190.089,M,-37.20,M,00,0000*6E
$GPGGA,200718.50,4346.9233955,N,07927.9422445,W,4,08,1.0,190.092,M,-37.20,M,00,0000*67
$GPGGA,200718.75,4346.9232826,N,07927.9421731,W,4,08,1.0,190.086,M,-37.20,M,00,0000*62
$GPGGA,200719.00,4346.9231707,N,07927.9421127,W,4,08,1.0,190.080,M,-37.20,M,01,0000*68
$GPGGA,200719.25,4346.9230509,N,07927.9420469,W,4,08,1.0,190.085,M,-37.20,M,00,0000*68
$GPGGA,200719.50,4346.9229376,N,07927.9419966,W,4,08,1.0,190.075,M,-37.20,M,00,0000*6B
$GPGGA,200719.75,4346.9228113,N,07927.9419485,W,4,08,1.0,190.061,M,-37.20,M,00,0000*69
$GPGGA,200720.00,4346.9226892,N,07927.9418964,W,4,08,1.0,190.057,M,-37.20,M,01,0000*68
$GPGGA,200720.25,4346.9225788,N,07927.9418368,W,4,08,1.0,190.056,M,-37.20,M,00,0000*6E
$GPGGA,200720.50,4346.9224569,N,07927.9417853,W,4,08,1.0,190.042,M,-37.20,M,00,0000*69
$GPGGA,200720.75,4346.9223448,N,07927.9417371,W,4,08,1.0,190.035,M,-37.20,M,00,0000*60
$GPGGA,200721.00,4346.9222274,N,07927.9416881,W,4,08,1.0,190.034,M,-37.20,M,01,0000*6E
$GPGGA,200721.25,4346.9221101,N,07927.9416293,W,4,08,1.0,190.022,M,-37.20,M,00,0000*64
$GPGGA,200721.50,4346.9219961,N,07927.9415722,W,4,08,1.0,190.025,M,-37.20,M,00,0000*68
$GPGGA,200721.75,4346.9218760,N,07927.9415150,W,4,08,1.0,190.019,M,-37.20,M,00,0000*6D
$GPGGA,200722.00,4346.9217533,N,07927.9414614,W,4,08,1.0,190.001,M,-37.20,M,01,0000*69
$GPGGA,200722.25,4346.9216461,N,07927.9414037,W,4,08,1.0,189.995,M,-37.20,M,00,0000*63
$GPGGA,200722.50,4346.9215251,N,07927.9413543,W,4,08,1.0,189.983,M,-37.20,M,00,0000*61
$GPGGA,200722.75,4346.9214105,N,07927.9413070,W,4,08,1.0,189.978,M,-37.20,M,00,0000*64
$GPGGA,200723.00,4346.9212959,N,07927.9412502,W,4,08,1.0,189.979,M,-37.20,M,01,0000*61
$GPGGA,200723.25,4346.9211858,N,07927.9411947,W,4,08,1.0,189.980,M,-37.20,M,00,0000*6C
$GPGGA,200723.50,4346.9210655,N,07927.9411432,W,4,08,1.0,189.969,M,-37.20,M,00,0000*64
$GPGGA,200723.75,4346.9209622,N,07927.9410768,W,4,08,1.0,189.975,M,-37.20,M,00,0000*6B
$GPGGA,200724.00,4346.9208476,N,07927.9409919,W,4,08,1.0,189.977,M,-37.20,M,01,0000*6F
$GPGGA,200724.25,4346.9207443,N,07927.9409154,W,4,08,1.0,189.977,M,-37.20,M,00,0000*61
$GPGGA,200724.50,4346.9206330,N,07927.9408333,W,4,08,1.0,189.963,M,-37.20,M,00,0000*66
$GPGGA,200724.75,4346.9205389,N,07927.9407460,W,4,08,1.0,189.990,M,-37.20,M,00,0000*62
$GPGGA,200725.00,4346.9204354,N,07927.9406520,W,4,07,1.0,189.988,M,-37.20,M,01,0000*63
$GPGGA,200725.25,4346.9203356,N,07927.9405582,W,4,07,1.2,189.963,M,-37.20,M,00,0000*6C
$GPGGA,200725.50,4346.9202287,N,07927.9404575,W,4,07,1.2,189.962,M,-37.20,M,00,0000*6A
$GPGGA,200725.75,4346.9201224,N,07927.9403589,W,4,07,1.2,189.955,M,-37.20,M,00,0000*67
$GPGGA,200726.00,4346.9200250,N,07927.9402589,W,4,07,1.2,189.950,M,-37.20,M,01,0000*61
$GPGGA,200726.25,4346.9199242,N,07927.9401586,W,4,07,1.2,189.946,M,-37.20,M,00,0000*6C
$GPGGA,200726.50,4346.9198317,N,07927.9400594,W,4,07,1.2,189.958,M,-37.20,M,00,0000*63
$GPGGA,200726.75,4346.9197370,N,07927.9399594,W,4,07,1.2,189.973,M,-37.20,M,00,0000*64
$GPGGA,200727.00,4346.9196453,N,07927.9398572,W,4,07,1.2,189.975,M,-37.20,M,01,0000*6E
$GPGGA,200727.25,4346.9195452,N,07927.9397422,W,4,07,1.2,189.974,M,-37.20,M,00,0000*60
$GPGGA,200727.50,4346.9194524,N,07927.9396217,W,4,07,1.2,189.969,M,-37.20,M,00,0000*6E
$GPGGA,200727.75,4346.9193577,N,07927.9395079,W,4,06,1.2,189.952,M,-37.20,M,00,0000*68
$GPGGA,200728.00,4346.9192709,N,07927.9393821,W,4,06,1.2,189.947,M,-37.20,M,01,0000*69
$GPGGA,200728.25,4346.9191837,N,07927.9392606,W,4,06,2.0,189.954,M,-37.20,M,00,0000*67
$GPGGA,200728.50,4346.9191069,N,07927.9391318,W,4,06,2.0,189.962,M,-37.20,M,00,0000*6A
$GPGGA,200728.75,4346.9190286,N,07927.9390016,W,4,06,1.7,189.964,M,-37.20,M,00,0000*61
$GPGGA,200729.00,4346.9189525,N,07927.9388750,W,4,06,1.7,189.968,M,-37.20,M,01,0000*65
$GPGGA,200729.25,4346.9188825,N,07927.9387494,W,4,06,2.0,189.955,M,-37.20,M,00,0000*61
$GPGGA,200729.50,4346.9188054,N,07927.9386205,W,4,06,2.0,189.965,M,-37.20,M,00,0000*61
$GPGGA,200729.75,4346.9187280,N,07927.9384911,W,4,06,2.0,189.972,M,-37.20,M,00,0000*68
$GPGGA,200730.00,4346.9186507,N,07927.9383609,W,4,06,2.0,189.968,M,-37.20,M,01,0000*60
$GPGGA,200730.25,4346.9185808,N,07927.9382353,W,4,06,2.0,189.965,M,-37.20,M,00,0000*61
$GPGGA,200730.50,4346.9185049,N,07927.9381066,W,4,06,2.0,189.975,M,-37.20,M,00,0000*69
$GPGGA,200730.75,4346.9184337,N,07927.9379678,W,4,06,2.0,189.983,M,-37.20,M,00,0000*62
$GPGGA,200731.00,4346.9183649,N,07927.9378349,W,4,07,2.0,189.985,M,-37.20,M,01,0000*6A
$GPGGA,200731.25,4346.9182970,N,07927.9376915,W,4,07,1.7,189.962,M,-37.20,M,00,0000*68
$GPGGA,200731.50,4346.9182272,N,07927.9375413,W,4,07,1.7,189.956,M,-37.20,M,00,0000*6C
$GPGGA,200731.75,4346.9181610,N,07927.9373885,W,4,07,1.7,189.939,M,-37.20,M,00,0000*64
$GPGGA,200732.00,4346.9180927,N,07927.9372478,W,4,07,1.7,189.941,M,-37.20,M,01,0000*6E
$GPGGA,200732.25,4346.9180290,N,07927.9370990,W,4,07,1.7,189.950,M,-37.20,M,00,0000*66
$GPGGA,200732.50,4346.9179699,N,07927.9369614,W,4,07,1.7,189.967,M,-37.20,M,00,0000*60
$GPGGA,200732.75,4346.9179124,N,07927.9368275,W,4,07,1.7,189.948,M,-37.20,M,00,0000*69
$GPGGA,200733.00,4346.9178565,N,07927.9366854,W,4,07,1.7,189.960,M,-37.20,M,01,0000*66
$GPGGA,200733.25,4346.9177894,N,07927.9365383,W,4,07,1.7,189.951,M,-37.20,M,00,0000*6C
$GPGGA,200733.50,4346.9177329,N,07927.9363949,W,4,07,1.7,189.958,M,-37.20,M,00,0000*60
$GPGGA,200733.75,4346.9176644,N,07927.9362542,W,4,07,1.7,189.978,M,-37.20,M,00,0000*6C
$GPGGA,200734.00,4346.9176047,N,07927.9361104,W,4,07,1.7,189.974,M,-37.20,M,01,0000*64
$GPGGA,200734.25,4346.9175514,N,07927.9359711,W,4,07,1.7,189.955,M,-37.20,M,00,0000*68
$GPGGA,200734.50,4346.9174961,N,07927.9358163,W,4,07,1.7,189.957,M,-37.20,M,00,0000*65
$GPGGA,200734.75,4346.9174414,N,07927.9356664,W,4,07,1.7,189.936,M,-37.20,M,00,0000*64
$GPGGA,200735.00,4346.9173838,N,07927.9355295,W,4,07,1.7,189.950,M,-37.20,M,01,0000*6A
$GPGGA,200735.25,4346.9173123,N,07927.9353688,W,4,07,1.7,189.962,M,-37.20,M,00,0000*60
$GPGGA,200735.50,4346.9172614,N,07927.9352222,W,4,07,1.7,189.948,M,-37.20,M,00,0000*6D
$GPGGA,200735.75,4346.9171982,N,07927.9350711,W,4,07,1.7,189.965,M,-37.20,M,00,0000*61
$GPGGA,200736.00,4346.9171496,N,07927.9349390,W,4,07,1.7,189.968,M,-37.20,M,01,0000*61
$GPGGA,200736.25,4346.9170883,N,07927.9347833,W,4,06,1.7,189.990,M,-37.20,M,00,0000*64
$GPGGA,200736.50,4346.9170456,N,07927.9346422,W,4,06,1.7,190.015,M,-37.20,M,00,0000*63
$GPGGA,200736.75,4346.9169963,N,07927.9344949,W,4,06,1.7,190.003,M,-37.20,M,00,0000*62
$GPGGA,200737.00,4346.9169479,N,07927.9343492,W,4,06,1.7,190.014,M,-37.20,M,01,0000*6C
$GPGGA,200737.25,4346.9168936,N,07927.9341921,W,4,06,1.7,190.025,M,-37.20,M,00,0000*68
$GPGGA,200737.50,4346.9168449,N,07927.9340390,W,4,06,1.7,190.024,M,-37.20,M,00,0000*6F
$GPGGA,200737.75,4346.9167849,N,07927.9338817,W,4,06,1.7,190.030,M,-37.20,M,00,0000*65
$GPGGA,200738.00,4346.9167416,N,07927.9337355,W,4,05,1.7,190.035,M,-37.20,M,01,0000*6B
$GPGGA,200738.25,4346.9166874,N,07927.9335684,W,4,05,2.0,190.017,M,-37.20,M,00,0000*6B
$GPGGA,200738.50,4346.9166310,N,07927.9334094,W,4,05,2.0,190.034,M,-37.20,M,00,0000*67
$GPGGA,200738.75,4346.9165831,N,07927.9332606,W,4,05,2.0,190.038,M,-37.20,M,00,0000*6C
$GPGGA,200739.00,4346.9165315,N,07927.9331110,W,4,06,2.0,190.042,M,-37.20,M,01,0000*6E
$GPGGA,200739.25,4346.9164740,N,07927.9329616,W,4,06,1.3,190.059,M,-37.20,M,00,0000*6F
$GPGGA,200739.50,4346.9164236,N,07927.9328134,W,4,06,1.3,190.071,M,-37.20,M,00,0000*65
$GPGGA,200739.75,4346.9163710,N,07927.9326512,W,4,06,1.3,190.059,M,-37.20,M,00,0000*60
$GPGGA,200740.00,4346.9163271,N,07927.9325117,W,4,06,1.3,190.065,M,-37.20,M,01,0000*62
$GPGGA,200740.25,4346.9162660,N,07927.9323549,W,4,06,1.3,190.080,M,-37.20,M,00,0000*63
$GPGGA,200740.50,4346.9162177,N,07927.9322003,W,4,06,1.3,190.089,M,-37.20,M,00,0000*63
$GPGGA,200740.75,4346.9161708,N,07927.9320423,W,4,06,1.3,190.091,M,-37.20,M,00,0000*64
$GPGGA,200741.00,4346.9161240,N,07927.9318940,W,4,05,1.3,190.096,M,-37.20,M,01,0000*68
$GPGGA,200741.25,4346.9160670,N,07927.9317479,W,4,05,2.0,190.128,M,-37.20,M,00,0000*64
$GPGGA,200741.50,4346.9160060,N,07927.9315875,W,4,06,2.0,190.105,M,-37.20,M,00,0000*6F
$GPGGA,200741.75,4346.9159398,N,07927.9314480,W,4,06,1.3,190.124,M,-37.20,M,00,0000*62
$GPGGA,200742.00,4346.9158767,N,07927.9312954,W,4,06,1.3,190.131,M,-37.20,M,01,0000*61
$GPGGA,200742.25,4346.9158189,N,07927.9311558,W,4,06,1.3,190.114,M,-37.20,M,00,0000*65
$GPGGA,200742.50,4346.9157499,N,07927.9310257,W,4,06,1.3,190.131,M,-37.20,M,00,0000*62
$GPGGA,200742.75,4346.9156809,N,07927.9308785,W,4,06,1.3,190.161,M,-37.20,M,00,0000*67
$GPGGA,200743.00,4346.9156255,N,07927.9307372,W,4,06,1.3,190.151,M,-37.20,M,01,0000*66
$GPGGA,200743.25,4346.9155619,N,07927.9305913,W,4,05,1.3,190.146,M,-37.20,M,00,0000*65
$GPGGA,200743.50,4346.9154847,N,07927.9304270,W,4,05,1.3,190.187,M,-37.20,M,00,0000*61
$GPGGA,200743.75,4346.9154198,N,07927.9302743,W,4,05,2.0,190.190,M,-37.20,M,00,0000*68
$GPGGA,200744.00,4346.9153640,N,07927.9301358,W,4,05,2.0,190.165,M,-37.20,M,01,0000*6E
$GPGGA,200744.25,4346.9153037,N,07927.9299980,W,4,05,2.0,190.150,M,-37.20,M,00,0000*67
$GPGGA,200744.50,4346.9152309,N,07927.9298514,W,4,05,2.0,190.194,M,-37.20,M,00,0000*62
$GPGGA,200744.75,4346.9151800,N,07927.9297121,W,4,06,2.0,190.156,M,-37.20,M,00,0000*64
$GPGGA,200745.00,4346.9151198,N,07927.9295734,W,4,06,2.0,190.165,M,-37.20,M,01,0000*6E
$GPGGA,200745.25,4346.9150508,N,07927.9294215,W,4,06,2.0,190.200,M,-37.20,M,00,0000*63
$GPGGA,200745.50,4346.9149842,N,07927.9292760,W,4,06,2.0,190.216,M,-37.20,M,00,0000*6C
$GPGGA,200745.75,4346.9149312,N,07927.9291389,W,4,06,2.0,190.177,M,-37.20,M,00,0000*61
$GPGGA,200746.00,4346.9148564,N,07927.9289847,W,4,06,2.0,190.199,M,-37.20,M,01,0000*67
$GPGGA,200746.25,4346.9147911,N,07927.9288478,W,4,06,2.0,190.210,M,-37.20,M,00,0000*63
$GPGGA,200746.50,4346.9147204,N,07927.9287198,W,4,06,2.0,190.190,M,-37.20,M,00,0000*61
$GPGGA,200746.75,4346.9146363,N,07927.9286006,W,4,06,2.0,190.232,M,-37.20,M,00,0000*6B
$GPGGA,200747.00,4346.9145630,N,07927.9284699,W,4,06,2.0,190.230,M,-37.20,M,01,0000*69
$GPGGA,200747.25,4346.9144826,N,07927.9283466,W,4,06,2.0,190.219,M,-37.20,M,00,0000*69
$GPGGA,200747.50,4346.9143913,N,07927.9282263,W,4,06,2.0,190.234,M,-37.20,M,00,0000*66
$GPGGA,200747.75,4346.9142865,N,07927.9280968,W,4,06,2.0,190.226,M,-37.20,M,00,0000*61
$GPGGA,200748.00,4346.9141996,N,07927.9279723,W,4,06,2.0,190.213,M,-37.20,M,01,0000*62
$GPGGA,200748.25,4346.9140936,N,07927.9278516,W,4,06,2.0,190.232,M,-37.20,M,00,0000*69
$GPGGA,200748.50,4346.9140028,N,07927.9277379,W,4,06,2.0,190.193,M,-37.20,M,00,0000*65
$GPGGA,200748.75,4346.9139089,N,07927.9276361,W,4,06,2.0,190.183,M,-37.20,M,00,0000*6E
$GPGGA,200749.00,4346.9138280,N,07927.9275440,W,4,06,2.0,190.192,M,-37.20,M,01,0000*61
$GPGGA,200749.25,4346.9137328,N,07927.9274213,W,4,06,2.0,190.202,M,-37.20,M,00,0000*60
$GPGGA,200749.50,4346.9136513,N,07927.9273074,W,4,06,2.0,190.182,M,-37.20,M,00,0000*62
$GPGGA,200749.75,4346.9135551,N,07927.9272074,W,4,06,2.0,190.185,M,-37.20,M,00,0000*66
$GPGGA,200750.00,4346.9134557,N,07927.9270895,W,4,06,2.0,190.181,M,-37.20,M,01,0000*6B
$GPGGA,200750.25,4346.9133647,N,07927.9269954,W,4,06,2.0,190.162,M,-37.20,M,00,0000*61
$GPGGA,200750.50,4346.9132663,N,07927.9268936,W,4,06,2.0,190.169,M,-37.20,M,00,0000*6A
$GPGGA,200750.75,4346.9131672,N,07927.9267971,W,4,06,2.0,190.183,M,-37.20,M,00,0000*66
$GPGGA,200751.00,4346.9130624,N,07927.9266884,W,4,07,2.0,190.182,M,-37.20,M,01,0000*6C
$GPGGA,200751.25,4346.9129616,N,07927.9265926,W,4,07,1.2,190.175,M,-37.20,M,00,0000*60
$GPGGA,200751.50,4346.9128576,N,07927.9264911,W,4,06,1.2,190.177,M,-37.20,M,00,0000*60
$GPGGA,200751.75,4346.9127580,N,07927.9263911,W,4,06,2.0,190.172,M,-37.20,M,00,0000*62
$GPGGA,200752.00,4346.9126573,N,07927.9262800,W,4,07,2.0,190.155,M,-37.20,M,01,0000*6B
$GPGGA,200752.25,4346.9125506,N,07927.9261809,W,4,07,1.2,190.182,M,-37.20,M,00,0000*6D
$GPGGA,200752.50,4346.9124600,N,07927.9260910,W,4,07,1.2,190.171,M,-37.20,M,00,0000*6F
$GPGGA,200752.75,4346.9123590,N,07927.9259837,W,4,07,1.2,190.174,M,-37.20,M,00,0000*6E
$GPGGA,200753.00,4346.9122666,N,07927.9258853,W,4,07,1.2,190.169,M,-37.20,M,01,0000*68
$GPGGA,200753.25,4346.9121566,N,07927.9257889,W,4,07,1.2,190.160,M,-37.20,M,00,0000*6F
$GPGGA,200753.50,4346.9120566,N,07927.9256911,W,4,07,1.2,190.147,M,-37.20,M,00,0000*68
$GPGGA,200753.75,4346.9119608,N,07927.9255840,W,4,07,1.2,190.150,M,-37.20,M,00,0000*6E
$GPGGA,200754.00,4346.9118579,N,07927.9254765,W,4,07,1.2,190.134,M,-37.20,M,01,0000*65
$GPGGA,200754.25,4346.9117639,N,07927.9253816,W,4,07,1.2,190.147,M,-37.20,M,00,0000*63
$GPGGA,200754.50,4346.9116691,N,07927.9252797,W,4,07,1.2,190.132,M,-37.20,M,00,0000*67
$GPGGA,200754.75,4346.9115658,N,07927.9251874,W,4,07,1.2,190.143,M,-37.20,M,00,0000*61
$GPGGA,200755.00,4346.9114702,N,07927.9250854,W,4,07,1.2,190.144,M,-37.20,M,01,0000*68
$GPGGA,200755.25,4346.9113736,N,07927.9249857,W,4,07,1.2,190.136,M,-37.20,M,00,0000*60
$GPGGA,200755.50,4346.9112752,N,07927.9248914,W,4,07,1.2,190.136,M,-37.20,M,00,0000*66
$GPGGA,200755.75,4346.9111788,N,07927.9247958,W,4,07,1.2,190.125,M,-37.20,M,00,0000*60
$GPGGA,200756.00,4346.9110749,N,07927.9246939,W,4,07,1.2,190.134,M,-37.20,M,01,0000*6A
$GPGGA,200756.25,4346.9109776,N,07927.9245885,W,4,07,1.2,190.123,M,-37.20,M,00,0000*6B
$GPGGA,200756.50,4346.9108817,N,07927.9244998,W,4,07,1.2,190.113,M,-37.20,M,00,0000*6F
$GPGGA,200756.75,4346.9107812,N,07927.9243951,W,4,07,1.2,190.111,M,-37.20,M,00,0000*62
$GPGGA,200757.00,4346.9106781,N,07927.9242893,W,4,07,1.2,190.107,M,-37.20,M,01,0000*6D
$GPGGA,200757.25,4346.9105856,N,07927.9241904,W,4,07,1.2,190.104,M,-37.20,M,00,0000*62
$GPGGA,200757.50,4346.9104762,N,07927.9240811,W,4,07,1.2,190.093,M,-37.20,M,00,0000*62
$GPGGA,200757.75,4346.9103834,N,07927.9239865,W,4,07,1.2,190.084,M,-37.20,M,00,0000*65
$GPGGA,200758.00,4346.9102860,N,07927.9238821,W,4,07,1.2,190.090,M,-37.20,M,01,0000*6D
$GPGGA,200758.25,4346.9101844,N,07927.9237860,W,4,07,1.2,190.076,M,-37.20,M,00,0000*6C
$GPGGA,200758.50,4346.9100893,N,07927.9236884,W,4,07,1.2,190.082,M,-37.20,M,00,0000*65
$GPGGA,200758.75,4346.9099908,N,07927.9235798,W,4,07,1.2,190.086,M,-37.20,M,00,0000*65
$GPGGA,200759.00,4346.9098974,N,07927.9234837,W,4,07,1.2,190.078,M,-37.20,M,01,0000*67
$GPGGA,200759.25,4346.9098054,N,07927.9233763,W,4,07,1.2,190.066,M,-37.20,M,00,0000*6C
$GPGGA,200759.50,4346.9096986,N,07927.9232665,W,4,07,1.2,190.086,M,-37.20,M,00,0000*6E
$GPGGA,200759.75,4346.9096057,N,07927.9231506,W,4,07,1.2,190.058,M,-37.20,M,00,0000*6A
$GPGGA,200800.00,4346.9095056,N,07927.9230551,W,4,07,1.2,190.060,M,-37.20,M,01,0000*60
$GPGGA,200800.25,4346.9094025,N,07927.9229413,W,4,07,1.2,190.034,M,-37.20,M,00,0000*6D
$GPGGA,200800.50,4346.9093090,N,07927.9228385,W,4,07,1.2,190.033,M,-37.20,M,00,0000*68
$GPGGA,200800.75,4346.9092161,N,07927.9227393,W,4,07,1.2,190.034,M,-37.20,M,00,0000*6E
$GPGGA,200801.00,4346.9091185,N,07927.9226272,W,4,07,1.2,190.034,M,-37.20,M,01,0000*6A
$GPGGA,200801.25,4346.9090302,N,07927.9225282,W,4,07,1.2,190.028,M,-37.20,M,00,0000*61
$GPGGA,200801.50,4346.9089336,N,07927.9224318,W,4,07,1.2,190.033,M,-37.20,M,00,0000*65
$GPGGA,200801.75,4346.9088380,N,07927.9223245,W,4,07,1.2,190.046,M,-37.20,M,00,0000*62
$GPGGA,200802.00,4346.9087434,N,07927.9222196,W,4,07,1.2,190.034,M,-37.20,M,01,0000*6C
$GPGGA,200802.25,4346.9086530,N,07927.9221169,W,4,07,1.2,190.022,M,-37.20,M,00,0000*6A
$GPGGA,200802.50,4346.9085530,N,07927.9220065,W,4,07,1.2,190.016,M,-37.20,M,00,0000*60
$GPGGA,200802.75,4346.9084594,N,07927.9219013,W,4,07,1.2,190.010,M,-37.20,M,00,0000*65
$GPGGA,200803.00,4346.9083656,N,07927.9217942,W,4,07,1.2,190.010,M,-37.20,M,01,0000*6E
$GPGGA,200803.25,4346.9082688,N,07927.9216773,W,4,07,1.2,189.984,M,-37.20,M,00,0000*6B
$GPGGA,200803.50,4346.9081787,N,07927.9215725,W,4,07,1.2,189.990,M,-37.20,M,00,0000*61
$GPGGA,200803.75,4346.9080845,N,07927.9214658,W,4,07,1.2,189.985,M,-37.20,M,00,0000*68
$GPGGA,200804.00,4346.9079933,N,07927.9213564,W,4,07,1.2,189.991,M,-37.20,M,01,0000*64
$GPGGA,200804.25,4346.9079022,N,07927.9212394,W,4,07,1.2,189.965,M,-37.20,M,00,0000*68
$GPGGA,200804.50,4346.9078173,N,07927.9211324,W,4,07,1.2,189.963,M,-37.20,M,00,0000*60
$GPGGA,200804.75,4346.9077228,N,07927.9210174,W,4,07,1.2,189.983,M,-37.20,M,00,0000*6D
$GPGGA,200805.00,4346.9076297,N,07927.9209003,W,4,07,1.2,189.982,M,-37.20,M,01,0000*62
$GPGGA,200805.25,4346.9075519,N,07927.9207904,W,4,07,1.2,189.972,M,-37.20,M,00,0000*69
$GPGGA,200805.50,4346.9074605,N,07927.9206681,W,4,07,1.2,189.980,M,-37.20,M,00,0000*6A
$GPGGA,200805.75,4346.9073789,N,07927.9205564,W,4,06,1.2,189.971,M,-37.20,M,00,0000*6B
$GPGGA,200806.00,4346.9072922,N,07927.9204314,W,4,06,1.2,189.971,M,-37.20,M,01,0000*65
$GPGGA,200806.25,4346.9072067,N,07927.9203016,W,4,06,2.0,189.983,M,-37.20,M,00,0000*61
$GPGGA,200806.50,4346.9071344,N,07927.9201839,W,4,06,2.0,189.983,M,-37.20,M,00,0000*65
$GPGGA,200806.75,4346.9070430,N,07927.9200606,W,4,06,2.0,189.988,M,-37.20,M,00,0000*6F
$GPGGA,200807.00,4346.9069586,N,07927.9199338,W,4,06,2.0,189.994,M,-37.20,M,01,0000*6F
$GPGGA,200807.25,4346.9068886,N,07927.9198055,W,4,06,2.0,189.991,M,-37.20,M,00,0000*69
$GPGGA,200807.50,4346.9068072,N,07927.9196835,W,4,06,2.0,189.994,M,-37.20,M,00,0000*6D
$GPGGA,200807.75,4346.9067260,N,07927.9195514,W,4,06,2.0,189.989,M,-37.20,M,00,0000*65
$GPGGA,200808.00,4346.9066434,N,07927.9194251,W,4,06,2.0,189.992,M,-37.20,M,01,0000*62
$GPGGA,200808.25,4346.9065652,N,07927.9192976,W,4,06,2.0,189.977,M,-37.20,M,00,0000*66
$GPGGA,200808.50,4346.9064948,N,07927.9191726,W,4,06,2.0,189.963,M,-37.20,M,00,0000*6C
$GPGGA,200808.75,4346.9064223,N,07927.9190418,W,4,06,2.0,189.964,M,-37.20,M,00,0000*65
$GPGGA,200809.00,4346.9063371,N,07927.9188938,W,4,06,2.0,189.970,M,-37.20,M,01,0000*65
$GPGGA,200809.25,4346.9062625,N,07927.9187666,W,4,06,2.0,189.982,M,-37.20,M,00,0000*60
$GPGGA,200809.50,4346.9061921,N,07927.9186373,W,4,06,2.0,189.991,M,-37.20,M,00,0000*68
$GPGGA,200809.75,4346.9061200,N,07927.9185085,W,4,06,2.0,189.992,M,-37.20,M,00,0000*6D
$GPGGA,200810.00,4346.9060490,N,07927.9183634,W,4,06,2.0,189.995,M,-37.20,M,01,0000*65
$GPGGA,200810.25,4346.9059769,N,07927.9182179,W,4,06,2.0,189.982,M,-37.20,M,00,0000*65
$GPGGA,200810.50,4346.9059203,N,07927.9180815,W,4,06,2.0,189.981,M,-37.20,M,00,0000*6C
$GPGGA,200810.75,4346.9058569,N,07927.9179391,W,4,06,2.0,189.974,M,-37.20,M,00,0000*6A
$GPGGA,200811.00,4346.9057933,N,07927.9177921,W,4,06,2.0,189.965,M,-37.20,M,01,0000*6B
$GPGGA,200811.25,4346.9057314,N,07927.9176581,W,4,06,2.0,189.983,M,-37.20,M,00,0000*6D
$GPGGA,200811.50,4346.9056683,N,07927.9175067,W,4,06,2.0,189.988,M,-37.20,M,00,0000*60
$GPGGA,200811.75,4346.9056137,N,07927.9173729,W,4,06,2.0,189.991,M,-37.20,M,00,0000*6C
$GPGGA,200812.00,4346.9055528,N,07927.9172196,W,4,06,2.0,189.970,M,-37.20,M,01,0000*69
$GPGGA,200812.25,4346.9054955,N,07927.9170885,W,4,06,2.0,189.973,M,-37.20,M,00,0000*62
$GPGGA,200812.50,4346.9054356,N,07927.9169290,W,4,06,2.0,189.976,M,-37.20,M,00,0000*6A
$GPGGA,200812.75,4346.9053827,N,07927.9167762,W,4,06,2.0,189.969,M,-37.20,M,00,0000*6F
$GPGGA,200813.00,4346.9053256,N,07927.9166285,W,4,06,2.0,189.968,M,-37.20,M,01,0000*6D
$GPGGA,200813.25,4346.9052684,N,07927.9164777,W,4,06,2.0,189.961,M,-37.20,M,00,0000*62
$GPGGA,200813.50,4346.9052221,N,07927.9163280,W,4,06,2.0,189.961,M,-37.20,M,00,0000*61
$GPGGA,200813.75,4346.9051613,N,07927.9161659,W,4,06,2.0,189.969,M,-37.20,M,00,0000*6A
$GPGGA,200814.00,4346.9051111,N,07927.9160195,W,4,06,2.0,189.944,M,-37.20,M,01,0000*62
$GPGGA,200814.25,4346.9050453,N,07927.9158568,W,4,05,2.0,189.958,M,-37.20,M,00,0000*65
$GPGGA,200814.50,4346.9049845,N,07927.9157019,W,4,05,2.0,189.947,M,-37.20,M,00,0000*66
$GPGGA,200814.75,4346.9049335,N,07927.9155418,W,4,05,2.0,189.918,M,-37.20,M,00,0000*60
$GPGGA,200815.00,4346.9048729,N,07927.9153975,W,4,05,2.0,189.938,M,-37.20,M,01,0000*68
$GPGGA,200815.25,4346.9048289,N,07927.9152683,W,4,05,2.0,189.938,M,-37.20,M,00,0000*66
$GPGGA,200815.50,4346.9047713,N,07927.9151287,W,4,05,2.0,189.962,M,-37.20,M,00,0000*61
$GPGGA,200815.75,4346.9047132,N,07927.9149899,W,4,05,2.0,189.963,M,-37.20,M,00,0000*6E
$GPGGA,200816.00,4346.9046738,N,07927.9148429,W,4,05,2.0,189.963,M,-37.20,M,01,0000*65
$GPGGA,200816.25,4346.9046308,N,07927.9146954,W,4,05,2.0,189.969,M,-37.20,M,00,0000*67
$GPGGA,200816.50,4346.9045718,N,07927.9145352,W,4,05,2.0,189.968,M,-37.20,M,00,0000*6D
$GPGGA,200816.75,4346.9045166,N,07927.9143770,W,4,05,2.0,189.951,M,-37.20,M,00,0000*6D
$GPGGA,200817.00,4346.9044615,N,07927.9142292,W,4,05,2.0,189.959,M,-37.20,M,01,0000*6D
$GPGGA,200817.25,4346.9044065,N,07927.9140627,W,4,05,2.0,189.981,M,-37.20,M,00,0000*67
$GPGGA,200817.50,4346.9043558,N,07927.9139154,W,4,05,2.0,189.974,M,-37.20,M,00,0000*6E
$GPGGA,200817.75,4346.9043037,N,07927.9137642,W,4,05,2.0,189.989,M,-37.20,M,00,0000*69
$GPGGA,200818.00,4346.9042515,N,07927.9136055,W,4,05,2.0,189.982,M,-37.20,M,01,0000*6B
$GPGGA,200818.25,4346.9042127,N,07927.9134617,W,4,05,2.0,189.993,M,-37.20,M,00,0000*6A
$GPGGA,200818.50,4346.9041636,N,07927.9133066,W,4,05,2.0,190.012,M,-37.20,M,00,0000*63
$GPGGA,200818.75,4346.9041285,N,07927.9131548,W,4,05,2.0,190.007,M,-37.20,M,00,0000*67
$GPGGA,200819.00,4346.9040875,N,07927.9129971,W,4,05,2.0,190.005,M,-37.20,M,01,0000*6C
$GPGGA,200819.25,4346.9040480,N,07927.9128297,W,4,06,1.3,190.016,M,-37.20,M,00,0000*6F
$GPGGA,200819.50,4346.9040029,N,07927.9126629,W,4,05,1.3,190.009,M,-37.20,M,00,0000*68
$GPGGA,200819.75,4346.9039685,N,07927.9125014,W,4,06,1.7,190.031,M,-37.20,M,00,0000*66
$GPGGA,200820.00,4346.9039480,N,07927.9123632,W,4,07,1.7,190.018,M,-37.20,M,01,0000*66
$GPGGA,200820.25,4346.9039059,N,07927.9121821,W,4,07,1.1,190.004,M,-37.20,M,00,0000*65
$GPGGA,200820.50,4346.9038786,N,07927.9120228,W,4,07,1.1,190.010,M,-37.20,M,00,0000*64
$GPGGA,200820.75,4346.9038420,N,07927.9118504,W,4,07,1.1,190.004,M,-37.20,M,00,0000*6B
$GPGGA,200821.00,4346.9038145,N,07927.9116968,W,4,07,1.1,190.032,M,-37.20,M,01,0000*62
$GPGGA,200821.25,4346.9037899,N,07927.9115386,W,4,07,1.1,190.028,M,-37.20,M,00,0000*61
$GPGGA,200821.50,4346.9037530,N,07927.9113676,W,4,07,1.1,190.043,M,-37.20,M,00,0000*6C
$GPGGA,200821.75,4346.9037232,N,07927.9112069,W,4,07,1.1,190.015,M,-37.20,M,00,0000*64
$GPGGA,200822.00,4346.9036961,N,07927.9110413,W,4,07,1.1,190.052,M,-37.20,M,01,0000*60
$GPGGA,200822.25,4346.9036798,N,07927.9108877,W,4,07,1.1,190.045,M,-37.20,M,00,0000*6F
$GPGGA,200822.50,4346.9036563,N,07927.9107189,W,4,07,1.1,190.082,M,-37.20,M,00,0000*67
$GPGGA,200822.75,4346.9036358,N,07927.9105535,W,4,07,1.1,190.062,M,-37.20,M,00,0000*61
$GPGGA,200823.00,4346.9036208,N,07927.9103861,W,4,07,1.1,190.069,M,-37.20,M,01,0000*66
$GPGGA,200823.25,4346.9035977,N,07927.9102215,W,4,07,1.1,190.067,M,-37.20,M,00,0000*66
$GPGGA,200823.50,4346.9035750,N,07927.9100486,W,4,07,1.1,190.052,M,-37.20,M,00,0000*67
$GPGGA,200823.75,4346.9035545,N,07927.9098856,W,4,07,1.1,190.055,M,-37.20,M,00,0000*60
$GPGGA,200824.00,4346.9035381,N,07927.9097239,W,4,07,1.1,190.056,M,-37.20,M,01,0000*65
$GPGGA,200824.25,4346.9035304,N,07927.9095515,W,4,07,1.1,190.027,M,-37.20,M,00,0000*63
$GPGGA,200824.50,4346.9035058,N,07927.9093828,W,4,07,1.1,190.039,M,-37.20,M,00,0000*61
$GPGGA,200824.75,4346.9034890,N,07927.9092127,W,4,07,1.1,190.031,M,-37.20,M,00,0000*64
$GPGGA,200825.00,4346.9034725,N,07927.9090454,W,4,07,1.1,190.046,M,-37.20,M,01,0000*64
$GPGGA,200825.25,4346.9034592,N,07927.9088985,W,4,07,1.1,190.062,M,-37.20,M,00,0000*62
$GPGGA,200825.50,4346.9034407,N,07927.9087149,W,4,06,1.1,190.028,M,-37.20,M,00,0000*65
$GPGGA,200825.75,4346.9034291,N,07927.9085604,W,4,06,1.3,190.036,M,-37.20,M,00,0000*6A
$GPGGA,200826.00,4346.9033970,N,07927.9083655,W,4,06,1.3,190.070,M,-37.20,M,01,0000*69
$GPGGA,200826.25,4346.9033956,N,07927.9082180,W,4,06,1.3,190.071,M,-37.20,M,00,0000*64
$GPGGA,200826.50,4346.9033791,N,07927.9080400,W,4,06,1.3,190.034,M,-37.20,M,00,0000*6D
$GPGGA,200826.75,4346.9033766,N,07927.9078733,W,4,07,1.2,190.024,M,-37.20,M,00,0000*67
$GPGGA,200827.00,4346.9033651,N,07927.9077058,W,4,07,1.2,190.032,M,-37.20,M,01,0000*62
$GPGGA,200827.25,4346.9033445,N,07927.9075359,W,4,07,1.2,190.062,M,-37.20,M,00,0000*66
$GPGGA,200827.50,4346.9033349,N,07927.9073719,W,4,07,1.2,190.066,M,-37.20,M,00,0000*6D
$GPGGA,200827.75,4346.9033179,N,07927.9072038,W,4,07,1.2,190.068,M,-37.20,M,00,0000*60
$GPGGA,200828.00,4346.9033157,N,07927.9070291,W,4,07,1.2,190.029,M,-37.20,M,01,0000*66
$GPGGA,200828.25,4346.9033050,N,07927.9068633,W,4,07,1.2,190.036,M,-37.20,M,00,0000*6D
$GPGGA,200828.50,4346.9033030,N,07927.9066958,W,4,07,1.2,190.054,M,-37.20,M,00,0000*61
$GPGGA,200828.75,4346.9032865,N,07927.9065250,W,4,07,1.2,190.050,M,-37.20,M,00,0000*6B
$GPGGA,200829.00,4346.9032881,N,07927.9063562,W,4,07,1.2,190.035,M,-37.20,M,01,0000*60
$GPGGA,200829.25,4346.9032775,N,07927.9061889,W,4,07,1.2,190.028,M,-37.20,M,00,0000*64
$GPGGA,200829.50,4346.9032677,N,07927.9060156,W,4,07,1.2,190.038,M,-37.20,M,00,0000*6E
$GPGGA,200829.75,4346.9032581,N,07927.9058492,W,4,07,1.2,190.005,M,-37.20,M,00,0000*6B
$GPGGA,200830.00,4346.9032452,N,07927.9056809,W,4,07,1.2,190.057,M,-37.20,M,01,0000*68
$GPGGA,200830.25,4346.9032483,N,07927.9055283,W,4,06,1.2,190.048,M,-37.20,M,00,0000*66
$GPGGA,200830.50,4346.9032333,N,07927.9053557,W,4,06,1.2,190.062,M,-37.20,M,00,0000*68
$GPGGA,200830.75,4346.9032284,N,07927.9051912,W,4,06,1.2,190.048,M,-37.20,M,00,0000*65
$GPGGA,200831.00,4346.9032205,N,07927.9050212,W,4,06,1.2,190.042,M,-37.20,M,01,0000*6E
$GPGGA,200831.25,4346.9032141,N,07927.9048561,W,4,06,1.2,190.059,M,-37.20,M,00,0000*6B
$GPGGA,200831.50,4346.9032046,N,07927.9046874,W,4,07,1.2,190.074,M,-37.20,M,00,0000*66
$GPGGA,200831.75,4346.9031980,N,07927.9045193,W,4,07,1.1,190.057,M,-37.20,M,00,0000*60
$GPGGA,200832.00,4346.9031879,N,07927.9043550,W,4,07,1.1,190.063,M,-37.20,M,01,0000*6D
$GPGGA,200832.25,4346.9031721,N,07927.9041721,W,4,07,1.1,190.058,M,-37.20,M,00,0000*67
$GPGGA,200832.50,4346.9031745,N,07927.9040188,W,4,07,1.1,190.067,M,-37.20,M,00,0000*6F
$GPGGA,200832.75,4346.9031749,N,07927.9038501,W,4,07,1.1,190.033,M,-37.20,M,00,0000*6F
$GPGGA,200833.00,4346.9031647,N,07927.9036731,W,4,07,1.1,190.030,M,-37.20,M,01,0000*6E
$GPGGA,200833.25,4346.9031527,N,07927.9034993,W,4,07,1.1,190.017,M,-37.20,M,00,0000*6C
$GPGGA,200833.50,4346.9031496,N,07927.9033387,W,4,06,1.1,190.019,M,-37.20,M,00,0000*62
$GPGGA,200833.75,4346.9031408,N,07927.9031625,W,4,06,1.3,190.014,M,-37.20,M,00,0000*62
$GPGGA,200834.00,4346.9031317,N,07927.9030062,W,4,06,1.3,190.036,M,-37.20,M,01,0000*6B
$GPGGA,200834.25,4346.9031256,N,07927.9028364,W,4,06,1.3,190.022,M,-37.20,M,00,0000*60
$GPGGA,200834.50,4346.9031198,N,07927.9026650,W,4,06,1.3,190.037,M,-37.20,M,00,0000*6B
$GPGGA,200834.75,4346.9031150,N,07927.9025019,W,4,06,1.3,190.041,M,-37.20,M,00,0000*61
$GPGGA,200835.00,4346.9031114,N,07927.9023342,W,4,06,1.3,190.060,M,-37.20,M,01,0000*6B
$GPGGA,200835.25,4346.9031064,N,07927.9021722,W,4,06,1.3,190.085,M,-37.20,M,00,0000*60
$GPGGA,200835.50,4346.9031080,N,07927.9020060,W,4,06,1.3,190.070,M,-37.20,M,00,0000*62
$GPGGA,200835.75,4346.9031025,N,07927.9018293,W,4,06,1.3,190.059,M,-37.20,M,00,0000*64
$GPGGA,200836.00,4346.9030925,N,07927.9016562,W,4,07,1.3,190.081,M,-37.20,M,01,0000*6F
$GPGGA,200836.25,4346.9030974,N,07927.9014896,W,4,07,1.1,190.060,M,-37.20,M,00,0000*64
$GPGGA,200836.50,4346.9030897,N,07927.9013270,W,4,07,1.1,190.070,M,-37.20,M,00,0000*6E
$GPGGA,200836.75,4346.9030637,N,07927.9011614,W,4,07,1.1,190.071,M,-37.20,M,00,0000*68
$GPGGA,200837.00,4346.9030445,N,07927.9009869,W,4,07,1.1,190.066,M,-37.20,M,01,0000*66
$GPGGA,200837.25,4346.9030268,N,07927.9008250,W,4,07,1.1,190.086,M,-37.20,M,00,0000*66
$GPGGA,200837.50,4346.9029971,N,07927.9006490,W,4,07,1.1,190.057,M,-37.20,M,00,0000*67
$GPGGA,200837.75,4346.9029690,N,07927.9004908,W,4,07,1.1,190.080,M,-37.20,M,00,0000*64
$GPGGA,200838.00,4346.9029230,N,07927.9003338,W,4,07,1.1,190.065,M,-37.20,M,01,0000*63
$GPGGA,200838.25,4346.9028754,N,07927.9001755,W,4,07,1.1,190.108,M,-37.20,M,00,0000*64
$GPGGA,200838.50,4346.9028140,N,07927.9000281,W,4,07,1.1,190.085,M,-37.20,M,00,0000*6C
$GPGGA,200838.75,4346.9027480,N,07927.8998781,W,4,07,1.1,190.085,M,-37.20,M,00,0000*61
$GPGGA,200839.00,4346.9026845,N,07927.8997502,W,4,06,1.1,190.066,M,-37.20,M,01,0000*6D
$GPGGA,200839.25,4346.9026038,N,07927.8996177,W,4,06,1.7,190.060,M,-37.20,M,00,0000*6E
$GPGGA,200839.50,4346.9025194,N,07927.8995016,W,4,06,1.7,190.061,M,-37.20,M,00,0000*6C
$GPGGA,200839.75,4346.9024458,N,07927.8993741,W,4,06,1.7,190.085,M,-37.20,M,00,0000*66
$GPGGA,200840.00,4346.9023687,N,07927.8992534,W,4,06,1.7,190.080,M,-37.20,M,01,0000*68
$GPGGA,200840.25,4346.9022785,N,07927.8991328,W,4,06,1.7,190.086,M,-37.20,M,00,0000*62
$GPGGA,200840.50,4346.9021971,N,07927.8989942,W,4,06,1.7,190.104,M,-37.20,M,00,0000*62
$GPGGA,200840.75,4346.9021191,N,07927.8988849,W,4,06,1.7,190.121,M,-37.20,M,00,0000*6F
$GPGGA,200841.00,4346.9020220,N,07927.8987447,W,4,06,1.7,190.111,M,-37.20,M,01,0000*6B
$GPGGA,200841.25,4346.9019421,N,07927.8986359,W,4,06,1.7,190.092,M,-37.20,M,00,0000*63
$GPGGA,200841.50,4346.9018358,N,07927.8985269,W,4,06,1.7,190.117,M,-37.20,M,00,0000*64
$GPGGA,200841.75,4346.9017396,N,07927.8984345,W,4,06,1.7,190.145,M,-37.20,M,00,0000*67
$GPGGA,200842.00,4346.9016502,N,07927.8983449,W,4,06,1.7,190.175,M,-37.20,M,01,0000*62
$GPGGA,200842.25,4346.9015617,N,07927.8982627,W,4,06,1.7,190.195,M,-37.20,M,00,0000*65
$GPGGA,200842.50,4346.9014598,N,07927.8981687,W,4,06,1.7,190.201,M,-37.20,M,00,0000*65
$GPGGA,200842.75,4346.9013485,N,07927.8980808,W,4,06,1.7,190.217,M,-37.20,M,00,0000*67
$GPGGA,200843.00,4346.9012520,N,07927.8979881,W,4,06,1.7,190.237,M,-37.20,M,01,0000*6F
$GPGGA,200843.25,4346.9011379,N,07927.8978967,W,4,06,1.7,190.236,M,-37.20,M,00,0000*69
$GPGGA,200843.50,4346.9010490,N,07927.8978129,W,4,06,1.7,190.269,M,-37.20,M,00,0000*62
$GPGGA,200843.75,4346.9009417,N,07927.8977185,W,4,06,1.7,190.285,M,-37.20,M,00,0000*69
$GPGGA,200844.00,4346.9008300,N,07927.8976305,W,4,06,1.7,190.288,M,-37.20,M,01,0000*6B
$GPGGA,200844.25,4346.9007076,N,07927.8975359,W,4,07,1.1,190.271,M,-37.20,M,00,0000*6B
$GPGGA,200844.50,4346.9005964,N,07927.8974639,W,4,07,1.1,190.260,M,-37.20,M,00,0000*63
$GPGGA,200844.75,4346.9004785,N,07927.8973711,W,4,07,1.1,190.273,M,-37.20,M,00,0000*6A
$GPGGA,200845.00,4346.9003640,N,07927.8972992,W,4,07,1.1,190.284,M,-37.20,M,01,0000*6B
$GPGGA,200845.25,4346.9002608,N,07927.8972199,W,4,07,1.1,190.315,M,-37.20,M,00,0000*6A
$GPGGA,200845.50,4346.9001552,N,07927.8971472,W,4,07,1.1,190.305,M,-37.20,M,00,0000*65
$GPGGA,200845.75,4346.9000454,N,07927.8970711,W,4,07,1.0,190.311,M,-37.20,M,00,0000*67
$GPGGA,200846.00,4346.8999358,N,07927.8969966,W,4,06,1.0,190.320,M,-37.20,M,01,0000*61
$GPGGA,200846.25,4346.8998233,N,07927.8969306,W,4,06,1.2,190.331,M,-37.20,M,00,0000*64
$GPGGA,200846.50,4346.8997172,N,07927.8968545,W,4,06,1.2,190.339,M,-37.20,M,00,0000*67
$GPGGA,200846.75,4346.8996038,N,07927.8967831,W,4,06,1.3,190.358,M,-37.20,M,00,0000*69
$GPGGA,200847.00,4346.8995000,N,07927.8967132,W,4,06,1.3,190.359,M,-37.20,M,01,0000*68
$GPGGA,200847.25,4346.8993921,N,07927.8965992,W,4,06,1.3,190.335,M,-37.20,M,00,0000*68
$GPGGA,200847.50,4346.8993065,N,07927.8964929,W,4,06,1.3,190.346,M,-37.20,M,00,0000*66
$GPGGA,200847.75,4346.8992220,N,07927.8963786,W,4,06,1.3,190.343,M,-37.20,M,00,0000*6A
$GPGGA,200848.00,4346.8991407,N,07927.8962514,W,4,06,1.3,190.371,M,-37.20,M,01,0000*6F
$GPGGA,200848.25,4346.8990591,N,07927.8961435,W,4,05,1.3,190.339,M,-37.20,M,00,0000*68
$GPGGA,200848.50,4346.8989720,N,07927.8960275,W,4,05,1.3,190.341,M,-37.20,M,00,0000*66
$GPGGA,200848.75,4346.8988832,N,07927.8959143,W,4,05,1.3,190.368,M,-37.20,M,00,0000*6B
$GPGGA,200849.00,4346.8987971,N,07927.8957855,W,4,05,1.3,190.372,M,-37.20,M,01,0000*6B
$GPGGA,200849.25,4346.8987247,N,07927.8956709,W,4,05,2.0,190.355,M,-37.20,M,00,0000*61
$GPGGA,200849.50,4346.8986400,N,07927.8955478,W,4,06,2.0,190.357,M,-37.20,M,00,0000*60
$GPGGA,200849.75,4346.8985545,N,07927.8954189,W,4,06,1.3,190.388,M,-37.20,M,00,0000*6C
$GPGGA,200850.00,4346.8984766,N,07927.8952957,W,4,07,1.3,190.372,M,-37.20,M,01,0000*6C
$GPGGA,200850.25,4346.8984005,N,07927.8951652,W,4,07,1.2,190.391,M,-37.20,M,00,0000*6D
$GPGGA,200850.50,4346.8983161,N,07927.8950371,W,4,06,1.2,190.385,M,-37.20,M,00,0000*6A
$GPGGA,200850.75,4346.8982416,N,07927.8949102,W,4,05,2.0,190.395,M,-37.20,M,00,0000*64
$GPGGA,200851.00,4346.8981648,N,07927.8947826,W,4,06,2.0,190.392,M,-37.20,M,01,0000*69
$GPGGA,200851.25,4346.8980948,N,07927.8946564,W,4,07,1.1,190.411,M,-37.20,M,00,0000*64
$GPGGA,200851.50,4346.8980136,N,07927.8945100,W,4,07,1.1,190.422,M,-37.20,M,00,0000*62
$GPGGA,200851.75,4346.8979482,N,07927.8943651,W,4,07,1.1,190.418,M,-37.20,M,00,0000*65
$GPGGA,200852.00,4346.8978880,N,07927.8942215,W,4,07,1.1,190.417,M,-37.20,M,01,0000*60
$GPGGA,200852.25,4346.8978222,N,07927.8940682,W,4,07,1.1,190.389,M,-37.20,M,00,0000*6C
$GPGGA,200852.50,4346.8977658,N,07927.8939271,W,4,07,1.1,190.408,M,-37.20,M,00,0000*60
$GPGGA,200852.75,4346.8977034,N,07927.8937782,W,4,07,1.1,190.403,M,-37.20,M,00,0000*67
$GPGGA,200853.00,4346.8976489,N,07927.8936295,W,4,07,1.1,190.423,M,-37.20,M,01,0000*66
$GPGGA,200853.25,4346.8975897,N,07927.8934772,W,4,07,1.1,190.415,M,-37.20,M,00,0000*6B
$GPGGA,200853.50,4346.8975349,N,07927.8933214,W,4,07,1.1,190.405,M,-37.20,M,00,0000*62
$GPGGA,200853.75,4346.8974936,N,07927.8931666,W,4,07,1.1,190.404,M,-37.20,M,00,0000*64
$GPGGA,200854.00,4346.8974529,N,07927.8930119,W,4,07,1.1,190.394,M,-37.20,M,01,0000*62
$GPGGA,200854.25,4346.8974066,N,07927.8928438,W,4,07,1.1,190.412,M,-37.20,M,00,0000*6C
$GPGGA,200854.50,4346.8973793,N,07927.8926779,W,4,07,1.1,190.413,M,-37.20,M,00,0000*6D
$GPGGA,200854.75,4346.8973489,N,07927.8925066,W,4,07,1.1,190.414,M,-37.20,M,00,0000*6F
$GPGGA,200855.00,4346.8973292,N,07927.8923422,W,4,07,1.1,190.419,M,-37.20,M,01,0000*6E
$GPGGA,200855.25,4346.8973120,N,07927.8921737,W,4,07,1.1,190.419,M,-37.20,M,00,0000*67
$GPGGA,200855.50,4346.8972888,N,07927.8920063,W,4,07,1.1,190.421,M,-37.20,M,00,0000*63
$GPGGA,200855.75,4346.8972673,N,07927.8918395,W,4,07,1.1,190.411,M,-37.20,M,00,0000*6C
$GPGGA,200856.00,4346.8972553,N,07927.8916697,W,4,07,1.1,190.414,M,-37.20,M,01,0000*61
$GPGGA,200856.25,4346.8972422,N,07927.8915024,W,4,07,1.1,190.408,M,-37.20,M,00,0000*60
$GPGGA,200856.50,4346.8972382,N,07927.8913336,W,4,07,1.1,190.404,M,-37.20,M,00,0000*65
$GPGGA,200856.75,4346.8972280,N,07927.8911619,W,4,07,1.1,190.402,M,-37.20,M,00,0000*6D
$GPGGA,200857.00,4346.8972261,N,07927.8909960,W,4,07,1.1,190.410,M,-37.20,M,01,0000*6B
$GPGGA,200857.25,4346.8972252,N,07927.8908246,W,4,07,1.1,190.406,M,-37.20,M,00,0000*64
$GPGGA,200857.50,4346.8972208,N,07927.8906608,W,4,07,1.1,190.408,M,-37.20,M,00,0000*67
$GPGGA,200857.75,4346.8972186,N,07927.8904897,W,4,07,1.1,190.399,M,-37.20,M,00,0000*60
$GPGGA,200858.00,4346.8972244,N,07927.8903262,W,4,07,1.1,190.399,M,-37.20,M,01,0000*66
$GPGGA,200858.25,4346.8972294,N,07927.8901515,W,4,07,1.1,190.394,M,-37.20,M,00,0000*65
$GPGGA,200858.50,4346.8972454,N,07927.8899900,W,4,07,1.1,190.408,M,-37.20,M,00,0000*67
$GPGGA,200858.75,4346.8972687,N,07927.8898240,W,4,07,1.1,190.408,M,-37.20,M,00,0000*62
$GPGGA,200859.00,4346.8972951,N,07927.8896573,W,4,07,1.1,190.395,M,-37.20,M,01,0000*6E
$GPGGA,200859.25,4346.8973156,N,07927.8894905,W,4,07,1.1,190.371,M,-37.20,M,00,0000*63
$GPGGA,200859.50,4346.8973515,N,07927.8893262,W,4,07,1.1,190.361,M,-37.20,M,00,0000*6E
$GPGGA,200859.75,4346.8973814,N,07927.8891646,W,4,07,1.1,190.376,M,-37.20,M,00,0000*63
$GPGGA,200900.00,4346.8974158,N,07927.8890014,W,4,07,1.1,190.362,M,-37.20,M,01,0000*6E
$GPGGA,200900.25,4346.8974488,N,07927.8888370,W,4,08,1.0,190.348,M,-37.20,M,00,0000*6E
$GPGGA,200900.50,4346.8974838,N,07927.8886770,W,4,07,1.0,190.348,M,-37.20,M,00,0000*6E
$GPGGA,200900.75,4346.8975233,N,07927.8885147,W,4,07,1.1,190.343,M,-37.20,M,00,0000*62
$GPGGA,200901.00,4346.8975680,N,07927.8883568,W,4,07,1.1,190.336,M,-37.20,M,01,0000*61
$GPGGA,200901.25,4346.8976171,N,07927.8881945,W,4,08,1.0,190.319,M,-37.20,M,00,0000*6F
$GPGGA,200901.50,4346.8976679,N,07927.8880381,W,4,08,1.0,190.317,M,-37.20,M,00,0000*6F
$GPGGA,200901.75,4346.8977231,N,07927.8878913,W,4,08,1.0,190.310,M,-37.20,M,00,0000*60
$GPGGA,200902.00,4346.8977775,N,07927.8877384,W,4,08,1.0,190.308,M,-37.20,M,01,0000*67
$GPGGA,200902.25,4346.8978401,N,07927.8875918,W,4,08,1.0,190.323,M,-37.20,M,00,0000*6A
$GPGGA,200902.50,4346.8979006,N,07927.8874467,W,4,08,1.0,190.315,M,-37.20,M,00,0000*6B
$GPGGA,200902.75,4346.8979693,N,07927.8873046,W,4,08,1.0,190.313,M,-37.20,M,00,0000*60
$GPGGA,200903.00,4346.8980315,N,07927.8871597,W,4,08,1.0,190.307,M,-37.20,M,01,0000*61
$GPGGA,200903.25,4346.8980970,N,07927.8870131,W,4,08,1.0,190.306,M,-37.20,M,01,0000*67
$GPGGA,200903.50,4346.8981604,N,07927.8868764,W,4,08,1.0,190.290,M,-37.20,M,00,0000*68
$GPGGA,200903.75,4346.8982269,N,07927.8867366,W,4,08,1.0,190.293,M,-37.20,M,00,0000*69
$GPGGA,200904.00,4346.8982982,N,07927.8865954,W,4,08,1.0,190.289,M,-37.20,M,01,0000*61
$GPGGA,200904.25,4346.8983650,N,07927.8864609,W,4,08,1.0,190.286,M,-37.20,M,00,0000*6F
$GPGGA,200904.50,4346.8984387,N,07927.8863209,W,4,08,1.0,190.274,M,-37.20,M,00,0000*6B
$GPGGA,200904.75,4346.8985088,N,07927.8861827,W,4,08,1.0,190.264,M,-37.20,M,00,0000*64
$GPGGA,200905.00,4346.8985824,N,07927.8860474,W,4,08,1.0,190.266,M,-37.20,M,01,0000*61
$GPGGA,200905.25,4346.8986588,N,07927.8859091,W,4,08,1.0,190.266,M,-37.20,M,01,0000*6B
$GPGGA,200905.50,4346.8987271,N,07927.8857848,W,4,08,1.0,190.226,M,-37.20,M,00,0000*6E
$GPGGA,200905.75,4346.8988080,N,07927.8856523,W,4,08,1.0,190.233,M,-37.20,M,00,0000*6F
$GPGGA,200906.00,4346.8988849,N,07927.8855235,W,4,08,1.0,190.227,M,-37.20,M,01,0000*64
$GPGGA,200906.25,4346.8989641,N,07927.8853915,W,4,08,1.0,190.224,M,-37.20,M,00,0000*69
$GPGGA,200906.50,4346.8990380,N,07927.8852593,W,4,08,1.0,190.220,M,-37.20,M,00,0000*6C
$GPGGA,200906.75,4346.8991182,N,07927.8851356,W,4,08,1.0,190.225,M,-37.20,M,00,0000*63
$GPGGA,200907.00,4346.8991932,N,07927.8850034,W,4,08,1.0,190.215,M,-37.20,M,01,0000*67
$GPGGA,200907.25,4346.8992759,N,07927.8848736,W,4,08,1.0,190.216,M,-37.20,M,01,0000*6F
$GPGGA,200907.50,4346.8993562,N,07927.8847460,W,4,08,1.0,190.199,M,-37.20,M,01,0000*6D
$GPGGA,200907.75,4346.8994378,N,07927.8846311,W,4,08,1.0,190.193,M,-37.20,M,01,0000*6A
$GPGGA,200908.00,4346.8995278,N,07927.8845095,W,4,07,1.0,190.196,M,-37.20,M,02,0000*62
$GPGGA,200908.25,4346.8996196,N,07927.8843927,W,4,06,1.1,190.207,M,-37.20,M,00,0000*6A
$GPGGA,200908.50,4346.8997065,N,07927.8842742,W,4,06,1.1,190.205,M,-37.20,M,00,0000*6A
$GPGGA,200908.75,4346.8997962,N,07927.8841533,W,4,06,1.1,190.198,M,-37.20,M,00,0000*63
$GPGGA,200909.00,4346.8998757,N,07927.8840318,W,4,06,1.1,190.171,M,-37.20,M,01,0000*6F
