$GPGGA,172212.50,4346.9299763,N,07927.9670917,W,4,06,2.5,189.461,M,-37.20,M,00,0000*62
$GPGGA,172212.75,4346.9299744,N,07927.9670909,W,4,06,2.5,189.463,M,-37.20,M,00,0000*6D
$GPGGA,172213.00,4346.9299745,N,07927.9670900,W,4,06,2.5,189.465,M,-37.20,M,01,0000*61
$GPGGA,172213.25,4346.9299741,N,07927.9670867,W,4,06,2.5,189.468,M,-37.20,M,00,0000*6E
$GPGGA,172213.50,4346.9299755,N,07927.9670849,W,4,06,2.5,189.469,M,-37.20,M,00,0000*64
$GPGGA,172213.75,4346.9299780,N,07927.9670830,W,4,06,2.5,189.456,M,-37.20,M,00,0000*69
$GPGGA,172214.00,4346.9299747,N,07927.9670847,W,4,06,2.5,189.470,M,-37.20,M,01,0000*62
$GPGGA,172214.25,4346.9299764,N,07927.9670847,W,4,06,2.5,189.465,M,-37.20,M,01,0000*60
$GPGGA,172214.50,4346.9299699,N,07927.9670873,W,4,06,2.5,189.474,M,-37.20,M,00,0000*67
$GPGGA,172214.75,4346.9299728,N,07927.9670839,W,4,06,2.5,189.464,M,-37.20,M,00,0000*64
$GPGGA,172215.00,4346.9299718,N,07927.9670843,W,4,06,2.5,189.468,M,-37.20,M,01,0000*64
$GPGGA,172215.25,4346.9299751,N,07927.9670862,W,4,06,2.5,189.462,M,-37.20,M,00,0000*66
$GPGGA,172215.50,4346.9299758,N,07927.9670878,W,4,06,2.5,189.460,M,-37.20,M,00,0000*64
$GPGGA,172215.75,4346.9299750,N,07927.9670858,W,4,06,2.5,189.467,M,-37.20,M,00,0000*6E
$GPGGA,172216.00,4346.9299762,N,07927.9670872,W,4,06,2.5,189.461,M,-37.20,M,01,0000*61
$GPGGA,172216.25,4346.9299764,N,07927.9670884,W,4,06,2.5,189.462,M,-37.20,M,00,0000*6B
$GPGGA,172216.50,4346.9299736,N,07927.9670871,W,4,06,2.5,189.464,M,-37.20,M,00,0000*62
$GPGGA,172216.75,4346.9299740,N,07927.9670903,W,4,06,2.5,189.468,M,-37.20,M,00,0000*6C
$GPGGA,172217.00,4346.9299766,N,07927.9670914,W,4,06,2.5,189.460,M,-37.20,M,01,0000*64
$GPGGA,172217.25,4346.9299759,N,07927.9670913,W,4,06,2.5,189.460,M,-37.20,M,01,0000*68
$GPGGA,172217.50,4346.9299749,N,07927.9670910,W,4,06,2.5,189.464,M,-37.20,M,00,0000*6D
$GPGGA,172217.75,4346.9299777,N,07927.9670892,W,4,06,2.5,189.457,M,-37.20,M,00,0000*6C
$GPGGA,172218.00,4346.9299750,N,07927.9670914,W,4,06,2.5,189.461,M,-37.20,M,01,0000*6F
$GPGGA,172218.25,4346.9299761,N,07927.9670873,W,4,06,2.5,189.460,M,-37.20,M,01,0000*6B
$GPGGA,172218.50,4346.9299729,N,07927.9670890,W,4,06,2.5,189.476,M,-37.20,M,00,0000*6E
$GPGGA,172218.75,4346.9299781,N,07927.9670880,W,4,06,2.5,189.459,M,-37.20,M,00,0000*67
$GPGGA,172219.00,4346.9299739,N,07927.9670816,W,4,06,2.5,189.446,M,-37.20,M,01,0000*67
$GPGGA,172219.25,4346.9299789,N,07927.9670893,W,4,07,1.7,189.457,M,-37.20,M,00,0000*67
$GPGGA,172219.50,4346.9299803,N,07927.9670882,W,4,07,1.7,189.456,M,-37.20,M,00,0000*69
$GPGGA,172219.75,4346.9299812,N,07927.9670866,W,4,06,1.7,189.447,M,-37.20,M,00,0000*65
$GPGGA,172220.00,4346.9299835,N,07927.9670882,W,4,06,1.7,189.451,M,-37.20,M,01,0000*64
$GPGGA,172220.25,4346.9299748,N,07927.9670880,W,4,06,2.5,189.464,M,-37.20,M,00,0000*62
$GPGGA,172220.50,4346.9299758,N,07927.9670859,W,4,06,2.5,189.460,M,-37.20,M,00,0000*61
$GPGGA,172220.75,4346.9299761,N,07927.9670861,W,4,06,2.5,189.460,M,-37.20,M,00,0000*67
$GPGGA,172221.00,4346.9299718,N,07927.9670880,W,4,06,2.5,189.465,M,-37.20,M,01,0000*61
$GPGGA,172221.25,4346.9299742,N,07927.9670889,W,4,06,2.5,189.458,M,-37.20,M,01,0000*6E
$GPGGA,172221.50,4346.9299774,N,07927.9670892,W,4,06,2.5,189.463,M,-37.20,M,00,0000*6A
$GPGGA,172221.75,4346.9299754,N,07927.9670900,W,4,06,2.5,189.473,M,-37.20,M,00,0000*64
$GPGGA,172222.00,4346.9299752,N,07927.9670886,W,4,06,2.5,189.471,M,-37.20,M,01,0000*6F
$GPGGA,172222.25,4346.9299733,N,07927.9670860,W,4,06,2.5,189.473,M,-37.20,M,00,0000*64
$GPGGA,172222.50,4346.9299765,N,07927.9670856,W,4,06,2.5,189.470,M,-37.20,M,00,0000*63
$GPGGA,172222.75,4346.9299750,N,07927.9670883,W,4,06,2.5,189.464,M,-37.20,M,00,0000*6F
$GPGGA,172223.00,4346.9299742,N,07927.9670854,W,4,06,2.5,189.470,M,-37.20,M,01,0000*61
$GPGGA,172223.25,4346.9299738,N,07927.9670873,W,4,06,2.5,189.470,M,-37.20,M,00,0000*6F
$GPGGA,172223.50,4346.9299728,N,07927.9670900,W,4,06,2.5,189.475,M,-37.20,M,00,0000*6C
$GPGGA,172223.75,4346.9299731,N,07927.9670880,W,4,06,2.5,189.473,M,-37.20,M,00,0000*6C
$GPGGA,172224.00,4346.9299719,N,07927.9670905,W,4,06,2.5,189.472,M,-37.20,M,01,0000*6F
$GPGGA,172224.25,4346.9299740,N,07927.9670888,W,4,06,2.5,189.470,M,-37.20,M,00,0000*63
$GPGGA,172224.50,4346.9299779,N,07927.9670908,W,4,06,2.5,189.460,M,-37.20,M,00,0000*63
$GPGGA,172224.75,4346.9299809,N,07927.9670894,W,4,07,1.7,189.461,M,-37.20,M,00,0000*69
$GPGGA,172225.00,4346.9299769,N,07927.9670915,W,4,07,1.7,189.469,M,-37.20,M,01,0000*62
$GPGGA,172225.25,4346.9299719,N,07927.9670938,W,4,07,1.7,189.468,M,-37.20,M,00,0000*6D
$GPGGA,172225.50,4346.9299762,N,07927.9670932,W,4,07,1.7,189.461,M,-37.20,M,00,0000*60
$GPGGA,172225.75,4346.9299754,N,07927.9670952,W,4,07,1.7,189.459,M,-37.20,M,00,0000*6F
$GPGGA,172226.00,4346.9299758,N,07927.9670928,W,4,07,1.7,189.460,M,-37.20,M,01,0000*64
$GPGGA,172226.25,4346.9299762,N,07927.9670868,W,4,07,1.7,189.462,M,-37.20,M,00,0000*6C
$GPGGA,172226.50,4346.9299739,N,07927.9670891,W,4,07,1.7,189.467,M,-37.20,M,00,0000*63
$GPGGA,172226.75,4346.9299692,N,07927.9670866,W,4,07,1.7,189.478,M,-37.20,M,00,0000*62
$GPGGA,172227.00,4346.9299700,N,07927.9670883,W,4,07,1.7,189.479,M,-37.20,M,01,0000*60
$GPGGA,172227.25,4346.9299744,N,07927.9670861,W,4,07,1.7,189.467,M,-37.20,M,00,0000*65
$GPGGA,172227.50,4346.9299729,N,07927.9670864,W,4,07,1.7,189.471,M,-37.20,M,00,0000*6E
$GPGGA,172227.75,4346.9299755,N,07927.9670895,W,4,07,1.7,189.464,M,-37.20,M,00,0000*68
$GPGGA,172228.00,4346.9299712,N,07927.9670856,W,4,07,1.7,189.470,M,-37.20,M,01,0000*6D
$GPGGA,172228.25,4346.9299711,N,07927.9670849,W,4,07,1.7,189.471,M,-37.20,M,00,0000*67
$GPGGA,172228.50,4346.9299709,N,07927.9670841,W,4,07,1.7,189.469,M,-37.20,M,00,0000*6D
$GPGGA,172228.75,4346.9299718,N,07927.9670830,W,4,07,1.7,189.464,M,-37.20,M,00,0000*61
$GPGGA,172229.00,4346.9299736,N,07927.9670841,W,4,07,1.7,189.472,M,-37.20,M,01,0000*6E
$GPGGA,172229.25,4346.9299711,N,07927.9670850,W,4,07,1.7,189.476,M,-37.20,M,00,0000*69
$GPGGA,172229.50,4346.9299700,N,07927.9670881,W,4,07,1.7,189.472,M,-37.20,M,00,0000*63
$GPGGA,172229.75,4346.9299678,N,07927.9670895,W,4,07,1.7,189.474,M,-37.20,M,00,0000*69
$GPGGA,172230.00,4346.9299688,N,07927.9670873,W,4,07,1.7,189.474,M,-37.20,M,01,0000*65
$GPGGA,172230.25,4346.9299704,N,07927.9670854,W,4,07,1.7,189.465,M,-37.20,M,00,0000*63
$GPGGA,172230.50,4346.9299644,N,07927.9670885,W,4,07,1.7,189.484,M,-37.20,M,00,0000*67
$GPGGA,172230.75,4346.9299713,N,07927.9670880,W,4,07,1.7,189.465,M,-37.20,M,00,0000*69
$GPGGA,172231.00,4346.9299703,N,07927.9670881,W,4,07,1.7,189.468,M,-37.20,M,01,0000*66
$GPGGA,172231.25,4346.9299732,N,07927.9670854,W,4,07,1.7,189.469,M,-37.20,M,00,0000*6B
$GPGGA,172231.50,4346.9299763,N,07927.9670842,W,4,07,1.7,189.461,M,-37.20,M,00,0000*62
$GPGGA,172231.75,4346.9299728,N,07927.9670867,W,4,07,1.7,189.470,M,-37.20,M,00,0000*6D
$GPGGA,172232.00,4346.9299771,N,07927.9670839,W,4,07,1.7,189.465,M,-37.20,M,01,0000*6E
$GPGGA,172232.25,4346.9299714,N,07927.9670900,W,4,07,1.7,189.471,M,-37.20,M,00,0000*65
$GPGGA,172232.50,4346.9299766,N,07927.9670866,W,4,07,1.7,189.458,M,-37.20,M,00,0000*68
$GPGGA,172232.75,4346.9299734,N,07927.9670910,W,4,07,1.7,189.462,M,-37.20,M,00,0000*61
$GPGGA,172233.00,4346.9299777,N,07927.9670856,W,4,07,1.7,189.461,M,-37.20,M,01,0000*64
$GPGGA,172233.25,4346.9299647,N,07927.9670926,W,4,07,1.7,189.489,M,-37.20,M,00,0000*60
$GPGGA,172233.50,4346.9299729,N,07927.9670894,W,4,07,1.7,189.471,M,-37.20,M,00,0000*64
$GPGGA,172233.75,4346.9299680,N,07927.9670979,W,4,07,1.7,189.483,M,-37.20,M,00,0000*6E
$GPGGA,172234.00,4346.9299675,N,07927.9670943,W,4,07,1.7,189.481,M,-37.20,M,01,0000*6B
$GPGGA,172234.25,4346.9299691,N,07927.9670858,W,4,07,1.7,189.488,M,-37.20,M,00,0000*65
$GPGGA,172234.50,4346.9299713,N,07927.9670896,W,4,07,1.7,189.487,M,-37.20,M,00,0000*61
$GPGGA,172234.75,4346.9299724,N,07927.9670845,W,4,07,1.7,189.483,M,-37.20,M,00,0000*68
$GPGGA,172235.00,4346.9299695,N,07927.9670893,W,4,07,1.7,189.490,M,-37.20,M,01,0000*68
$GPGGA,172235.25,4346.9299722,N,07927.9670881,W,4,07,1.7,189.480,M,-37.20,M,01,0000*60
$GPGGA,172235.50,4346.9299728,N,07927.9670844,W,4,07,1.7,189.476,M,-37.20,M,01,0000*68
$GPGGA,172235.75,4346.9299717,N,07927.9670847,W,4,07,1.7,189.478,M,-37.20,M,00,0000*6F
$GPGGA,172236.00,4346.9299709,N,07927.9670913,W,4,07,1.7,189.477,M,-37.20,M,01,0000*6F
$GPGGA,172236.25,4346.9299648,N,07927.9671115,W,4,07,1.7,189.481,M,-37.20,M,01,0000*6A
$GPGGA,172236.50,4346.9299593,N,07927.9671380,W,4,07,1.7,189.489,M,-37.20,M,01,0000*6B
$GPGGA,172236.75,4346.9299439,N,07927.9671753,W,4,07,1.7,189.491,M,-37.20,M,01,0000*6E
$GPGGA,172237.00,4346.9299301,N,07927.9672304,W,4,07,1.7,189.498,M,-37.20,M,02,0000*6E
$GPGGA,172237.25,4346.9299160,N,07927.9672931,W,4,07,1.7,189.496,M,-37.20,M,02,0000*6E
$GPGGA,172237.50,4346.9298802,N,07927.9673531,W,4,07,1.7,189.528,M,-37.20,M,02,0000*69
$GPGGA,172237.75,4346.9298673,N,07927.9674252,W,4,07,1.7,189.500,M,-37.20,M,02,0000*69
$GPGGA,172238.00,4346.9298466,N,07927.9674967,W,4,07,1.7,189.483,M,-37.20,M,03,0000*64
$GPGGA,172238.25,4346.9298213,N,07927.9675678,W,4,07,1.7,189.468,M,-37.20,M,02,0000*63
$GPGGA,172238.50,4346.9298009,N,07927.9676443,W,4,06,1.7,189.450,M,-37.20,M,02,0000*6B
$GPGGA,172238.75,4346.9297669,N,07927.9677244,W,4,06,2.5,189.463,M,-37.20,M,02,0000*62
$GPGGA,172239.00,4346.9297369,N,07927.9678138,W,4,06,2.5,189.468,M,-37.20,M,03,0000*69
$GPGGA,172239.25,4346.9296965,N,07927.9678936,W,4,05,2.5,189.476,M,-37.20,M,03,0000*63
$GPGGA,172239.50,4346.9296563,N,07927.9679775,W,4,05,2.5,189.485,M,-37.20,M,03,0000*6F
$GPGGA,172239.75,4346.9296068,N,07927.9680611,W,4,05,2.5,189.490,M,-37.20,M,03,0000*67
$GPGGA,172240.00,4346.9295512,N,07927.9681421,W,4,05,2.5,189.482,M,-37.20,M,04,0000*64
$GPGGA,172240.25,4346.9295043,N,07927.9682194,W,4,05,3.0,189.475,M,-37.20,M,04,0000*66
$GPGGA,172240.50,4346.9294423,N,07927.9682896,W,4,05,3.0,189.472,M,-37.20,M,04,0000*6B
$GPGGA,172240.75,4346.9293874,N,07927.9683582,W,4,05,3.0,189.453,M,-37.20,M,04,0000*6F
$GPGGA,172241.00,4346.9293143,N,07927.9684131,W,4,05,3.0,189.458,M,-37.20,M,05,0000*60
$GPGGA,172241.25,4346.9292494,N,07927.9684746,W,4,05,3.0,189.454,M,-37.20,M,05,0000*63
$GPGGA,172241.50,4346.9291676,N,07927.9685198,W,4,05,3.0,189.457,M,-37.20,M,05,0000*6B
$GPGGA,172241.75,4346.9291098,N,07927.9685600,W,4,05,3.0,189.407,M,-37.20,M,04,0000*68
$GPGGA,172242.00,4346.9290332,N,07927.9685955,W,4,07,3.0,189.431,M,-37.20,M,05,0000*62
$GPGGA,172242.25,4346.9289492,N,07927.9686206,W,4,07,1.7,189.424,M,-37.20,M,05,0000*6F
$GPGGA,172242.50,4346.9288719,N,07927.9686478,W,4,07,1.7,189.393,M,-37.20,M,05,0000*68
$GPGGA,172242.75,4346.9287895,N,07927.9686650,W,4,07,1.7,189.423,M,-37.20,M,05,0000*6F
$GPGGA,172243.00,4346.9286966,N,07927.9686580,W,4,07,1.7,189.421,M,-37.20,M,06,0000*6F
$GPGGA,172243.25,4346.9286281,N,07927.9686581,W,4,07,1.7,189.432,M,-37.20,M,05,0000*6A
$GPGGA,172243.50,4346.9285406,N,07927.9686450,W,4,06,1.7,189.417,M,-37.20,M,05,0000*69
$GPGGA,172243.75,4346.9284524,N,07927.9686192,W,4,06,1.8,189.397,M,-37.20,M,05,0000*65
$GPGGA,172244.00,4346.9283818,N,07927.9686116,W,4,06,1.8,189.442,M,-37.20,M,05,0000*66
$GPGGA,172244.25,4346.9282992,N,07927.9685686,W,4,06,1.8,189.433,M,-37.20,M,05,0000*68
$GPGGA,172244.50,4346.9282327,N,07927.9685390,W,4,06,1.8,189.454,M,-37.20,M,05,0000*6D
$GPGGA,172244.75,4346.9281524,N,07927.9684850,W,4,06,1.8,189.444,M,-37.20,M,05,0000*6B
$GPGGA,172245.00,4346.9280833,N,07927.9684228,W,4,06,1.8,189.436,M,-37.20,M,06,0000*61
$GPGGA,172245.25,4346.9280230,N,07927.9683434,W,4,06,1.8,189.403,M,-37.20,M,02,0000*61
$GPGGA,172245.50,4346.9279591,N,07927.9682551,W,4,06,1.8,189.401,M,-37.20,M,02,0000*68
$GPGGA,172245.75,4346.9278962,N,07927.9681809,W,4,06,1.8,189.410,M,-37.20,M,01,0000*6E
$GPGGA,172246.00,4346.9278429,N,07927.9680789,W,4,06,1.8,189.391,M,-37.20,M,02,0000*66
$GPGGA,172246.25,4346.9277865,N,07927.9679991,W,4,07,1.7,189.395,M,-37.20,M,01,0000*62
$GPGGA,172246.50,4346.9277407,N,07927.9679057,W,4,07,1.7,189.380,M,-37.20,M,01,0000*6F
$GPGGA,172246.75,4346.9276951,N,07927.9678019,W,4,06,1.7,189.385,M,-37.20,M,01,0000*68
$GPGGA,172247.00,4346.9276667,N,07927.9677039,W,4,06,1.7,189.368,M,-37.20,M,01,0000*6F
$GPGGA,172247.25,4346.9276439,N,07927.9675724,W,4,07,1.7,189.354,M,-37.20,M,01,0000*66
$GPGGA,172247.50,4346.9276157,N,07927.9674837,W,4,06,1.7,189.368,M,-37.20,M,00,0000*6A
$GPGGA,172247.75,4346.9275905,N,07927.9673695,W,4,06,1.8,189.354,M,-37.20,M,00,0000*60
$GPGGA,172248.00,4346.9275846,N,07927.9672682,W,4,06,1.8,189.372,M,-37.20,M,01,0000*69
$GPGGA,172248.25,4346.9275614,N,07927.9671577,W,4,06,1.8,189.389,M,-37.20,M,00,0000*68
$GPGGA,172248.50,4346.9275407,N,07927.9670519,W,4,06,1.8,189.367,M,-37.20,M,00,0000*63
$GPGGA,172248.75,4346.9275295,N,07927.9669449,W,4,06,1.8,189.371,M,-37.20,M,00,0000*62
$GPGGA,172249.00,4346.9275289,N,07927.9668387,W,4,06,1.8,189.361,M,-37.20,M,01,0000*68
$GPGGA,172249.25,4346.9275227,N,07927.9667352,W,4,06,1.8,189.356,M,-37.20,M,00,0000*69
$GPGGA,172249.50,4346.9275177,N,07927.9666303,W,4,07,1.8,189.354,M,-37.20,M,00,0000*6B
$GPGGA,172249.75,4346.9275074,N,07927.9665152,W,4,07,1.7,189.386,M,-37.20,M,00,0000*6B
$GPGGA,172250.00,4346.9275052,N,07927.9664120,W,4,07,1.7,189.392,M,-37.20,M,01,0000*65
$GPGGA,172250.25,4346.9275048,N,07927.9663043,W,4,07,1.7,189.378,M,-37.20,M,00,0000*6F
$GPGGA,172250.50,4346.9275048,N,07927.9661998,W,4,07,1.7,189.381,M,-37.20,M,00,0000*66
$GPGGA,172250.75,4346.9274955,N,07927.9660870,W,4,07,1.7,189.388,M,-37.20,M,00,0000*6A
$GPGGA,172251.00,4346.9274912,N,07927.9659761,W,4,07,1.7,189.398,M,-37.20,M,01,0000*6F
$GPGGA,172251.25,4346.9274975,N,07927.9658692,W,4,07,1.7,189.382,M,-37.20,M,00,0000*6F
$GPGGA,172251.50,4346.9274990,N,07927.9657625,W,4,07,1.7,189.394,M,-37.20,M,00,0000*62
$GPGGA,172251.75,4346.9274969,N,07927.9656521,W,4,07,1.7,189.378,M,-37.20,M,00,0000*67
$GPGGA,172252.00,4346.9274986,N,07927.9655427,W,4,07,1.7,189.388,M,-37.20,M,01,0000*6D
$GPGGA,172252.25,4346.9274928,N,07927.9654138,W,4,08,1.7,189.394,M,-37.20,M,00,0000*67
$GPGGA,172252.50,4346.9274974,N,07927.9652953,W,4,08,1.7,189.396,M,-37.20,M,00,0000*6D
$GPGGA,172252.75,4346.9274941,N,07927.9651724,W,4,08,1.1,189.398,M,-37.20,M,00,0000*69
$GPGGA,172253.00,4346.9274970,N,07927.9650494,W,4,08,1.1,189.398,M,-37.20,M,01,0000*60
$GPGGA,172253.25,4346.9275021,N,07927.9649131,W,4,08,1.1,189.420,M,-37.20,M,00,0000*6C
$GPGGA,172253.50,4346.9275071,N,07927.9647758,W,4,08,1.1,189.422,M,-37.20,M,00,0000*6E
$GPGGA,172253.75,4346.9275067,N,07927.9646380,W,4,08,1.1,189.419,M,-37.20,M,00,0000*66
$GPGGA,172254.00,4346.9275083,N,07927.9644965,W,4,07,1.1,189.425,M,-37.20,M,01,0000*6B
$GPGGA,172254.25,4346.9275139,N,07927.9643501,W,4,07,1.1,189.423,M,-37.20,M,00,0000*62
$GPGGA,172254.50,4346.9275152,N,07927.9642076,W,4,07,1.1,189.418,M,-37.20,M,00,0000*61
$GPGGA,172254.75,4346.9275153,N,07927.9640614,W,4,07,1.1,189.416,M,-37.20,M,00,0000*69
$GPGGA,172255.00,4346.9275225,N,07927.9639158,W,4,07,1.1,189.415,M,-37.20,M,01,0000*6B
$GPGGA,172255.25,4346.9275163,N,07927.9637567,W,4,07,1.1,189.419,M,-37.20,M,00,0000*66
$GPGGA,172255.50,4346.9275219,N,07927.9636114,W,4,07,1.1,189.419,M,-37.20,M,00,0000*6B
$GPGGA,172255.75,4346.9275256,N,07927.9634592,W,4,07,1.1,189.424,M,-37.20,M,00,0000*61
$GPGGA,172256.00,4346.9275316,N,07927.9632971,W,4,06,1.1,189.419,M,-37.20,M,01,0000*6C
$GPGGA,172256.25,4346.9275445,N,07927.9631477,W,4,06,1.4,189.431,M,-37.20,M,00,0000*6C
$GPGGA,172256.50,4346.9275512,N,07927.9629934,W,4,06,1.4,189.434,M,-37.20,M,00,0000*6B
$GPGGA,172256.75,4346.9275612,N,07927.9628336,W,4,06,1.4,189.440,M,-37.20,M,00,0000*65
$GPGGA,172257.00,4346.9275645,N,07927.9626701,W,4,06,1.4,189.430,M,-37.20,M,01,0000*6C
$GPGGA,172257.25,4346.9275784,N,07927.9625170,W,4,06,1.4,189.443,M,-37.20,M,00,0000*61
$GPGGA,172257.50,4346.9275914,N,07927.9623512,W,4,06,1.4,189.455,M,-37.20,M,00,0000*65
$GPGGA,172257.75,4346.9276041,N,07927.9621897,W,4,07,1.2,189.463,M,-37.20,M,00,0000*68
$GPGGA,172258.00,4346.9276152,N,07927.9620300,W,4,07,1.2,189.455,M,-37.20,M,01,0000*66
$GPGGA,172258.25,4346.9276341,N,07927.9618664,W,4,09,1.1,189.458,M,-37.20,M,00,0000*6C
$GPGGA,172258.50,4346.9276472,N,07927.9617104,W,4,08,1.1,189.479,M,-37.20,M,00,0000*65
$GPGGA,172258.75,4346.9276564,N,07927.9615419,W,4,08,1.1,189.485,M,-37.20,M,00,0000*6C
$GPGGA,172259.00,4346.9276659,N,07927.9613807,W,4,08,1.1,189.479,M,-37.20,M,01,0000*65
$GPGGA,172259.25,4346.9276830,N,07927.9612224,W,4,09,0.9,189.509,M,-37.20,M,00,0000*66
$GPGGA,172259.50,4346.9276916,N,07927.9610578,W,4,09,0.9,189.512,M,-37.20,M,00,0000*67
$GPGGA,172259.75,4346.9277058,N,07927.9608997,W,4,09,0.9,189.516,M,-37.20,M,00,0000*62
$GPGGA,172300.00,4346.9277192,N,07927.9607305,W,4,08,0.9,189.515,M,-37.20,M,01,0000*67
$GPGGA,172300.25,4346.9277326,N,07927.9605607,W,4,08,1.1,189.519,M,-37.20,M,00,0000*6C
$GPGGA,172300.50,4346.9277519,N,07927.9604004,W,4,08,1.1,189.529,M,-37.20,M,00,0000*63
$GPGGA,172300.75,4346.9277618,N,07927.9602303,W,4,08,0.9,189.537,M,-37.20,M,00,0000*62
$GPGGA,172301.00,4346.9277729,N,07927.9600663,W,4,08,0.9,189.536,M,-37.20,M,01,0000*63
$GPGGA,172301.25,4346.9277845,N,07927.9599029,W,4,09,0.9,189.536,M,-37.20,M,00,0000*6A
$GPGGA,172301.50,4346.9277975,N,07927.9597426,W,4,09,0.9,189.544,M,-37.20,M,00,0000*6A
$GPGGA,172301.75,4346.9278141,N,07927.9595754,W,4,09,0.9,189.554,M,-37.20,M,00,0000*68
$GPGGA,172302.00,4346.9278287,N,07927.9594149,W,4,09,0.9,189.559,M,-37.20,M,01,0000*67
$GPGGA,172302.25,4346.9278433,N,07927.9592496,W,4,09,0.9,189.569,M,-37.20,M,00,0000*6A
$GPGGA,172302.50,4346.9278597,N,07927.9590840,W,4,08,0.9,189.575,M,-37.20,M,00,0000*6E
$GPGGA,172302.75,4346.9278775,N,07927.9589167,W,4,08,1.1,189.591,M,-37.20,M,00,0000*60
$GPGGA,172303.00,4346.9278886,N,07927.9587539,W,4,08,1.1,189.592,M,-37.20,M,01,0000*63
$GPGGA,172303.25,4346.9279060,N,07927.9585966,W,4,08,1.1,189.605,M,-37.20,M,00,0000*6D
$GPGGA,172303.50,4346.9279195,N,07927.9584332,W,4,08,1.1,189.604,M,-37.20,M,00,0000*6F
$GPGGA,172303.75,4346.9279341,N,07927.9582679,W,4,08,1.1,189.609,M,-37.20,M,00,0000*62
$GPGGA,172304.00,4346.9279477,N,07927.9581046,W,4,08,1.1,189.613,M,-37.20,M,01,0000*66
$GPGGA,172304.25,4346.9279570,N,07927.9579366,W,4,08,1.1,189.620,M,-37.20,M,00,0000*60
$GPGGA,172304.50,4346.9279758,N,07927.9577736,W,4,08,1.1,189.627,M,-37.20,M,00,0000*62
$GPGGA,172304.75,4346.9279813,N,07927.9576064,W,4,08,1.1,189.641,M,-37.20,M,00,0000*64
$GPGGA,172305.00,4346.9280074,N,07927.9574421,W,4,08,1.1,189.656,M,-37.20,M,01,0000*68
$GPGGA,172305.25,4346.9280222,N,07927.9572743,W,4,09,0.9,189.674,M,-37.20,M,00,0000*66
$GPGGA,172305.50,4346.9280401,N,07927.9571156,W,4,09,0.9,189.681,M,-37.20,M,00,0000*68
$GPGGA,172305.75,4346.9280558,N,07927.9569479,W,4,09,0.9,189.700,M,-37.20,M,00,0000*6B
$GPGGA,172306.00,4346.9280704,N,07927.9567781,W,4,09,0.9,189.705,M,-37.20,M,01,0000*6F
$GPGGA,172306.25,4346.9280881,N,07927.9566039,W,4,09,0.9,189.689,M,-37.20,M,00,0000*6B
$GPGGA,172306.50,4346.9281022,N,07927.9564432,W,4,09,0.9,189.706,M,-37.20,M,00,0000*62
$GPGGA,172306.75,4346.9281200,N,07927.9562733,W,4,09,0.9,189.702,M,-37.20,M,00,0000*67
$GPGGA,172307.00,4346.9281327,N,07927.9561028,W,4,09,0.9,189.710,M,-37.20,M,01,0000*6C
$GPGGA,172307.25,4346.9281485,N,07927.9559424,W,4,09,0.9,189.712,M,-37.20,M,00,0000*64
$GPGGA,172307.50,4346.9281668,N,07927.9557821,W,4,09,0.9,189.722,M,-37.20,M,00,0000*63
$GPGGA,172307.75,4346.9281781,N,07927.9556185,W,4,09,0.9,189.734,M,-37.20,M,00,0000*63
$GPGGA,172308.00,4346.9281938,N,07927.9554519,W,4,08,0.9,189.742,M,-37.20,M,01,0000*60
$GPGGA,172308.25,4346.9282141,N,07927.9552913,W,4,08,1.0,189.742,M,-37.20,M,00,0000*6B
$GPGGA,172308.50,4346.9282171,N,07927.9551341,W,4,08,1.0,189.754,M,-37.20,M,00,0000*63
$GPGGA,172308.75,4346.9282277,N,07927.9549517,W,4,08,1.0,189.763,M,-37.20,M,00,0000*69
$GPGGA,172309.00,4346.9282210,N,07927.9547890,W,4,08,1.0,189.774,M,-37.20,M,01,0000*60
$GPGGA,172309.25,4346.9282248,N,07927.9546038,W,4,08,1.0,189.787,M,-37.20,M,00,0000*6C
$GPGGA,172309.50,4346.9282290,N,07927.9544382,W,4,08,1.0,189.797,M,-37.20,M,00,0000*6A
$GPGGA,172309.75,4346.9282159,N,07927.9542655,W,4,08,1.0,189.802,M,-37.20,M,00,0000*61
$GPGGA,172310.00,4346.9281979,N,07927.9540945,W,4,08,1.0,189.814,M,-37.20,M,01,0000*68
$GPGGA,172310.25,4346.9281834,N,07927.9539192,W,4,09,0.9,189.845,M,-37.20,M,00,0000*67
$GPGGA,172310.50,4346.9281568,N,07927.9537545,W,4,09,0.9,189.858,M,-37.20,M,00,0000*6D
$GPGGA,172310.75,4346.9281337,N,07927.9535714,W,4,09,0.9,189.840,M,-37.20,M,00,0000*6B
$GPGGA,172311.00,4346.9280932,N,07927.9533953,W,4,09,0.9,189.848,M,-37.20,M,01,0000*64
$GPGGA,172311.25,4346.9280545,N,07927.9532360,W,4,09,0.9,189.847,M,-37.20,M,00,0000*6A
$GPGGA,172311.50,4346.9279968,N,07927.9530696,W,4,09,0.9,189.842,M,-37.20,M,00,0000*66
$GPGGA,172311.75,4346.9279382,N,07927.9529214,W,4,09,0.9,189.845,M,-37.20,M,00,0000*6E
$GPGGA,172312.00,4346.9278710,N,07927.9527818,W,4,09,0.9,189.852,M,-37.20,M,01,0000*6E
$GPGGA,172312.25,4346.9278004,N,07927.9526480,W,4,09,0.9,189.865,M,-37.20,M,01,0000*63
$GPGGA,172312.50,4346.9277208,N,07927.9525064,W,4,09,0.9,189.864,M,-37.20,M,00,0000*6D
$GPGGA,172312.75,4346.9276597,N,07927.9523483,W,4,09,0.9,189.855,M,-37.20,M,00,0000*63
$GPGGA,172313.00,4346.9276014,N,07927.9521984,W,4,09,0.9,189.858,M,-37.20,M,01,0000*6A
$GPGGA,172313.25,4346.9275371,N,07927.9520653,W,4,09,0.9,189.866,M,-37.20,M,01,0000*67
$GPGGA,172313.50,4346.9274670,N,07927.9519457,W,4,09,0.9,189.906,M,-37.20,M,00,0000*6A
$GPGGA,172313.75,4346.9274014,N,07927.9518276,W,4,09,0.9,189.929,M,-37.20,M,00,0000*60
$GPGGA,172314.00,4346.9273307,N,07927.9517184,W,4,08,0.9,189.944,M,-37.20,M,01,0000*69
$GPGGA,172314.25,4346.9272448,N,07927.9515897,W,4,08,1.1,189.965,M,-37.20,M,00,0000*61
$GPGGA,172314.50,4346.9271656,N,07927.9514649,W,4,08,1.1,189.989,M,-37.20,M,00,0000*63
$GPGGA,172314.75,4346.9270838,N,07927.9513388,W,4,08,1.1,189.991,M,-37.20,M,00,0000*65
$GPGGA,172315.00,4346.9269967,N,07927.9512117,W,4,08,1.1,189.999,M,-37.20,M,01,0000*69
$GPGGA,172315.25,4346.9269132,N,07927.9510888,W,4,08,1.1,189.993,M,-37.20,M,00,0000*60
$GPGGA,172315.50,4346.9268285,N,07927.9509637,W,4,08,1.1,189.991,M,-37.20,M,00,0000*6C
$GPGGA,172315.75,4346.9267367,N,07927.9508385,W,4,08,1.1,189.988,M,-37.20,M,00,0000*6C
$GPGGA,172316.00,4346.9266438,N,07927.9507148,W,4,08,1.1,189.978,M,-37.20,M,01,0000*63
$GPGGA,172316.25,4346.9265551,N,07927.9505921,W,4,08,1.1,189.977,M,-37.20,M,00,0000*62
$GPGGA,172316.50,4346.9264629,N,07927.9504648,W,4,08,1.1,189.957,M,-37.20,M,00,0000*6E
$GPGGA,172316.75,4346.9263710,N,07927.9503341,W,4,08,1.1,189.942,M,-37.20,M,00,0000*6A
$GPGGA,172317.00,4346.9262824,N,07927.9502070,W,4,08,1.1,189.930,M,-37.20,M,01,0000*64
$GPGGA,172317.25,4346.9261875,N,07927.9500788,W,4,08,1.1,189.932,M,-37.20,M,00,0000*65
$GPGGA,172317.50,4346.9261070,N,07927.9499665,W,4,08,1.1,189.940,M,-37.20,M,00,0000*6C
$GPGGA,172317.75,4346.9260285,N,07927.9498469,W,4,08,1.1,189.960,M,-37.20,M,00,0000*6F
$GPGGA,172318.00,4346.9259554,N,07927.9497280,W,4,08,1.1,189.963,M,-37.20,M,01,0000*6F
$GPGGA,172318.25,4346.9258769,N,07927.9496052,W,4,08,1.1,189.982,M,-37.20,M,00,0000*67
$GPGGA,172318.50,4346.9258035,N,07927.9494801,W,4,08,1.1,189.981,M,-37.20,M,00,0000*64
$GPGGA,172318.75,4346.9257359,N,07927.9493556,W,4,08,1.1,189.993,M,-37.20,M,00,0000*6E
$GPGGA,172319.00,4346.9256600,N,07927.9492297,W,4,08,1.1,190.005,M,-37.20,M,01,0000*61
$GPGGA,172319.25,4346.9255789,N,07927.9491143,W,4,08,1.1,190.031,M,-37.20,M,00,0000*6A
$GPGGA,172319.50,4346.9255016,N,07927.9489935,W,4,08,1.1,190.048,M,-37.20,M,00,0000*67
$GPGGA,172319.75,4346.9254144,N,07927.9488738,W,4,08,1.1,190.043,M,-37.20,M,00,0000*6E
$GPGGA,172320.00,4346.9253228,N,07927.9487336,W,4,08,1.1,190.027,M,-37.20,M,01,0000*6E
$GPGGA,172320.25,4346.9252437,N,07927.9486043,W,4,08,1.1,190.017,M,-37.20,M,00,0000*62
$GPGGA,172320.50,4346.9251567,N,07927.9484708,W,4,08,1.1,189.990,M,-37.20,M,00,0000*63
$GPGGA,172320.75,4346.9250747,N,07927.9483394,W,4,08,1.1,189.981,M,-37.20,M,00,0000*63
$GPGGA,172321.00,4346.9249917,N,07927.9482078,W,4,08,1.1,189.981,M,-37.20,M,01,0000*62
$GPGGA,172321.25,4346.9249055,N,07927.9480759,W,4,08,1.1,189.980,M,-37.20,M,00,0000*6C
$GPGGA,172321.50,4346.9248292,N,07927.9479531,W,4,08,1.1,189.979,M,-37.20,M,00,0000*6A
$GPGGA,172321.75,4346.9247463,N,07927.9478284,W,4,08,1.1,189.989,M,-37.20,M,00,0000*6D
$GPGGA,172322.00,4346.9246704,N,07927.9477010,W,4,08,1.1,189.966,M,-37.20,M,01,0000*6F
$GPGGA,172322.25,4346.9245782,N,07927.9475742,W,4,08,1.1,189.975,M,-37.20,M,00,0000*64
$GPGGA,172322.50,4346.9244968,N,07927.9474377,W,4,08,1.1,189.960,M,-37.20,M,00,0000*6A
$GPGGA,172322.75,4346.9244159,N,07927.9473163,W,4,08,1.1,189.966,M,-37.20,M,00,0000*61
$GPGGA,172323.00,4346.9243364,N,07927.9471819,W,4,08,1.1,189.962,M,-37.20,M,01,0000*6A
$GPGGA,172323.25,4346.9242636,N,07927.9470540,W,4,08,1.1,189.951,M,-37.20,M,00,0000*6F
$GPGGA,172323.50,4346.9241814,N,07927.9469267,W,4,08,1.1,189.956,M,-37.20,M,00,0000*6D
$GPGGA,172323.75,4346.9241089,N,07927.9468024,W,4,08,1.1,189.948,M,-37.20,M,00,0000*6D
$GPGGA,172324.00,4346.9240245,N,07927.9466697,W,4,08,1.1,189.935,M,-37.20,M,01,0000*60
$GPGGA,172324.25,4346.9239449,N,07927.9465367,W,4,08,1.1,189.941,M,-37.20,M,01,0000*69
$GPGGA,172324.50,4346.9238615,N,07927.9464046,W,4,08,1.1,189.951,M,-37.20,M,00,0000*60
$GPGGA,172324.75,4346.9237838,N,07927.9462840,W,4,08,1.1,189.975,M,-37.20,M,00,0000*67
$GPGGA,172325.00,4346.9237136,N,07927.9461554,W,4,08,1.1,189.969,M,-37.20,M,01,0000*64
$GPGGA,172325.25,4346.9236384,N,07927.9460281,W,4,08,1.1,189.954,M,-37.20,M,00,0000*68
$GPGGA,172325.50,4346.9235630,N,07927.9459022,W,4,08,1.1,189.965,M,-37.20,M,00,0000*60
$GPGGA,172325.75,4346.9234763,N,07927.9457763,W,4,08,1.1,189.978,M,-37.20,M,00,0000*61
$GPGGA,172326.00,4346.9233972,N,07927.9456512,W,4,08,1.1,189.975,M,-37.20,M,01,0000*60
$GPGGA,172326.25,4346.9233165,N,07927.9455247,W,4,08,1.1,190.002,M,-37.20,M,01,0000*6C
$GPGGA,172326.50,4346.9232435,N,07927.9453909,W,4,08,1.1,189.995,M,-37.20,M,00,0000*66
$GPGGA,172326.75,4346.9231670,N,07927.9452555,W,4,08,1.1,189.997,M,-37.20,M,00,0000*67
$GPGGA,172327.00,4346.9230904,N,07927.9451188,W,4,08,1.1,189.981,M,-37.20,M,01,0000*68
$GPGGA,172327.25,4346.9230060,N,07927.9449767,W,4,08,1.1,189.987,M,-37.20,M,01,0000*6C
$GPGGA,172327.50,4346.9229274,N,07927.9448497,W,4,08,1.1,189.990,M,-37.20,M,00,0000*6B
$GPGGA,172327.75,4346.9228564,N,07927.9447222,W,4,08,1.1,189.995,M,-37.20,M,00,0000*69
$GPGGA,172328.00,4346.9227745,N,07927.9445883,W,4,08,1.1,189.986,M,-37.20,M,01,0000*6A
$GPGGA,172328.25,4346.9226974,N,07927.9444571,W,4,08,1.1,189.990,M,-37.20,M,01,0000*66
$GPGGA,172328.50,4346.9226145,N,07927.9443258,W,4,08,1.1,189.990,M,-37.20,M,01,0000*65
$GPGGA,172328.75,4346.9225334,N,07927.9441899,W,4,08,1.1,189.993,M,-37.20,M,01,0000*63
$GPGGA,172329.00,4346.9224573,N,07927.9440486,W,4,08,1.1,189.985,M,-37.20,M,02,0000*63
$GPGGA,172329.25,4346.9223807,N,07927.9439117,W,4,08,1.1,189.967,M,-37.20,M,01,0000*61
$GPGGA,172329.50,4346.9223017,N,07927.9437734,W,4,08,1.1,189.941,M,-37.20,M,01,0000*67
$GPGGA,172329.75,4346.9222265,N,07927.9436353,W,4,08,1.1,189.939,M,-37.20,M,00,0000*6C
$GPGGA,172330.00,4346.9221437,N,07927.9434933,W,4,08,1.1,189.914,M,-37.20,M,01,0000*64
$GPGGA,172330.25,4346.9220672,N,07927.9433641,W,4,08,1.1,189.924,M,-37.20,M,01,0000*6F
$GPGGA,172330.50,4346.9219924,N,07927.9432419,W,4,08,1.1,189.931,M,-37.20,M,00,0000*60
$GPGGA,172330.75,4346.9219190,N,07927.9431217,W,4,08,0.9,189.931,M,-37.20,M,00,0000*62
$GPGGA,172331.00,4346.9218300,N,07927.9430105,W,4,08,0.9,189.951,M,-37.20,M,01,0000*6D
$GPGGA,172331.25,4346.9217415,N,07927.9428925,W,4,08,1.1,189.935,M,-37.20,M,00,0000*6F
$GPGGA,172331.50,4346.9216495,N,07927.9427789,W,4,08,1.1,189.935,M,-37.20,M,00,0000*63
$GPGGA,172331.75,4346.9215598,N,07927.9426628,W,4,08,1.1,189.944,M,-37.20,M,00,0000*66
$GPGGA,172332.00,4346.9214706,N,07927.9425432,W,4,08,1.1,189.933,M,-37.20,M,01,0000*68
$GPGGA,172332.25,4346.9213824,N,07927.9424336,W,4,08,0.9,189.951,M,-37.20,M,00,0000*69
$GPGGA,172332.50,4346.9212955,N,07927.9423106,W,4,08,0.9,189.946,M,-37.20,M,00,0000*6D
$GPGGA,172332.75,4346.9212090,N,07927.9422005,W,4,08,1.1,189.955,M,-37.20,M,00,0000*62
$GPGGA,172333.00,4346.9211216,N,07927.9420847,W,4,08,1.1,189.959,M,-37.20,M,01,0000*6F
$GPGGA,172333.25,4346.9210281,N,07927.9419666,W,4,09,1.1,189.956,M,-37.20,M,00,0000*6F
$GPGGA,172333.50,4346.9209328,N,07927.9418448,W,4,09,1.1,189.964,M,-37.20,M,00,0000*69
$GPGGA,172333.75,4346.9208458,N,07927.9417320,W,4,09,1.1,189.970,M,-37.20,M,00,0000*6C
$GPGGA,172334.00,4346.9207513,N,07927.9416180,W,4,09,1.1,189.953,M,-37.20,M,01,0000*61
$GPGGA,172334.25,4346.9206749,N,07927.9415089,W,4,09,1.1,189.948,M,-37.20,M,00,0000*6A
$GPGGA,172334.50,4346.9205837,N,07927.9413955,W,4,09,1.1,189.948,M,-37.20,M,00,0000*63
$GPGGA,172334.75,4346.9204919,N,07927.9412795,W,4,09,1.1,189.954,M,-37.20,M,00,0000*66
$GPGGA,172335.00,4346.9203907,N,07927.9411634,W,4,09,1.1,189.961,M,-37.20,M,01,0000*63
$GPGGA,172335.25,4346.9203043,N,07927.9410564,W,4,09,1.1,189.956,M,-37.20,M,00,0000*6F
$GPGGA,172335.50,4346.9202148,N,07927.9409391,W,4,09,1.1,189.953,M,-37.20,M,00,0000*67
$GPGGA,172335.75,4346.9201271,N,07927.9408278,W,4,09,1.1,189.955,M,-37.20,M,00,0000*6B
$GPGGA,172336.00,4346.9200237,N,07927.9407133,W,4,09,1.1,189.957,M,-37.20,M,01,0000*69
$GPGGA,172336.25,4346.9199356,N,07927.9405987,W,4,09,1.1,189.948,M,-37.20,M,00,0000*61
$GPGGA,172336.50,4346.9198451,N,07927.9404791,W,4,09,1.1,189.951,M,-37.20,M,00,0000*62
$GPGGA,172336.75,4346.9197574,N,07927.9403631,W,4,09,1.1,189.933,M,-37.20,M,00,0000*64
$GPGGA,172337.00,4346.9196755,N,07927.9402408,W,4,09,1.1,189.947,M,-37.20,M,01,0000*6C
$GPGGA,172337.25,4346.9195883,N,07927.9401165,W,4,09,1.1,189.949,M,-37.20,M,00,0000*6E
$GPGGA,172337.50,4346.9195067,N,07927.9399917,W,4,09,1.1,189.960,M,-37.20,M,00,0000*6E
$GPGGA,172337.75,4346.9194371,N,07927.9398640,W,4,08,1.1,189.944,M,-37.20,M,00,0000*67
$GPGGA,172338.00,4346.9193505,N,07927.9397308,W,4,07,1.1,189.956,M,-37.20,M,01,0000*63
$GPGGA,172338.25,4346.9192793,N,07927.9395959,W,4,07,1.7,189.951,M,-37.20,M,00,0000*64
$GPGGA,172338.50,4346.9192117,N,07927.9394605,W,4,07,1.7,189.950,M,-37.20,M,00,0000*6A
$GPGGA,172338.75,4346.9191328,N,07927.9393183,W,4,07,1.7,189.954,M,-37.20,M,00,0000*6A
$GPGGA,172339.00,4346.9190752,N,07927.9391782,W,4,07,1.7,189.939,M,-37.20,M,01,0000*6E
$GPGGA,172339.25,4346.9189964,N,07927.9390292,W,4,07,1.7,189.936,M,-37.20,M,00,0000*61
$GPGGA,172339.50,4346.9189325,N,07927.9388900,W,4,07,1.7,189.935,M,-37.20,M,00,0000*66
$GPGGA,172339.75,4346.9188528,N,07927.9387461,W,4,07,1.7,189.948,M,-37.20,M,00,0000*64
$GPGGA,172340.00,4346.9187926,N,07927.9386069,W,4,07,1.7,189.947,M,-37.20,M,01,0000*66
$GPGGA,172340.25,4346.9187280,N,07927.9384633,W,4,07,1.7,189.962,M,-37.20,M,00,0000*6B
$GPGGA,172340.50,4346.9186620,N,07927.9383244,W,4,07,1.7,189.967,M,-37.20,M,00,0000*60
$GPGGA,172340.75,4346.9185905,N,07927.9381835,W,4,07,1.7,189.976,M,-37.20,M,00,0000*62
$GPGGA,172341.00,4346.9185302,N,07927.9380465,W,4,07,1.7,189.973,M,-37.20,M,01,0000*60
$GPGGA,172341.25,4346.9184604,N,07927.9378929,W,4,07,1.7,189.968,M,-37.20,M,00,0000*6C
$GPGGA,172341.50,4346.9183923,N,07927.9377395,W,4,07,1.7,189.968,M,-37.20,M,00,0000*61
$GPGGA,172341.75,4346.9183407,N,07927.9375855,W,4,07,1.7,189.955,M,-37.20,M,00,0000*66
$GPGGA,172342.00,4346.9182776,N,07927.9374248,W,4,07,1.7,189.949,M,-37.20,M,01,0000*68
$GPGGA,172342.25,4346.9182269,N,07927.9372688,W,4,07,1.7,189.976,M,-37.20,M,00,0000*67
$GPGGA,172342.50,4346.9181820,N,07927.9371254,W,4,07,1.7,189.965,M,-37.20,M,00,0000*65
$GPGGA,172342.75,4346.9181208,N,07927.9369690,W,4,07,1.1,189.970,M,-37.20,M,00,0000*65
$GPGGA,172343.00,4346.9180691,N,07927.9368220,W,4,07,1.1,189.985,M,-37.20,M,01,0000*66
$GPGGA,172343.25,4346.9180115,N,07927.9366766,W,4,08,1.1,189.963,M,-37.20,M,00,0000*65
$GPGGA,172343.50,4346.9179569,N,07927.9365304,W,4,08,1.1,189.984,M,-37.20,M,00,0000*64
$GPGGA,172343.75,4346.9179010,N,07927.9363720,W,4,08,1.1,189.988,M,-37.20,M,00,0000*60
$GPGGA,172344.00,4346.9178534,N,07927.9362274,W,4,08,1.1,189.989,M,-37.20,M,01,0000*62
$GPGGA,172344.25,4346.9177994,N,07927.9360684,W,4,08,1.1,190.010,M,-37.20,M,00,0000*65
$GPGGA,172344.50,4346.9177504,N,07927.9359107,W,4,08,1.1,190.006,M,-37.20,M,00,0000*63
$GPGGA,172344.75,4346.9177056,N,07927.9357496,W,4,08,1.1,189.999,M,-37.20,M,00,0000*62
$GPGGA,172345.00,4346.9176623,N,07927.9355971,W,4,08,1.1,190.014,M,-37.20,M,01,0000*67
$GPGGA,172345.25,4346.9176154,N,07927.9354625,W,4,08,1.1,190.021,M,-37.20,M,00,0000*6F
$GPGGA,172345.50,4346.9175696,N,07927.9353045,W,4,08,1.1,190.013,M,-37.20,M,00,0000*61
$GPGGA,172345.75,4346.9175271,N,07927.9351526,W,4,08,1.1,190.023,M,-37.20,M,00,0000*6A
$GPGGA,172346.00,4346.9174992,N,07927.9350023,W,4,08,1.1,190.034,M,-37.20,M,01,0000*6A
$GPGGA,172346.25,4346.9174440,N,07927.9348325,W,4,08,1.1,190.028,M,-37.20,M,00,0000*6F
$GPGGA,172346.50,4346.9173962,N,07927.9346866,W,4,08,1.1,190.026,M,-37.20,M,00,0000*6B
$GPGGA,172346.75,4346.9173336,N,07927.9345298,W,4,08,1.1,190.017,M,-37.20,M,00,0000*6D
$GPGGA,172347.00,4346.9172748,N,07927.9343810,W,4,08,1.1,190.009,M,-37.20,M,01,0000*60
$GPGGA,172347.25,4346.9172298,N,07927.9342390,W,4,08,1.1,190.032,M,-37.20,M,00,0000*64
$GPGGA,172347.50,4346.9171740,N,07927.9340876,W,4,08,1.1,190.035,M,-37.20,M,00,0000*63
$GPGGA,172347.75,4346.9171209,N,07927.9339335,W,4,08,1.1,190.031,M,-37.20,M,00,0000*6A
$GPGGA,172348.00,4346.9170789,N,07927.9337856,W,4,08,1.1,190.042,M,-37.20,M,01,0000*6E
$GPGGA,172348.25,4346.9170006,N,07927.9336224,W,4,08,1.1,190.036,M,-37.20,M,00,0000*65
$GPGGA,172348.50,4346.9169412,N,07927.9334746,W,4,08,1.1,190.035,M,-37.20,M,00,0000*6E
$GPGGA,172348.75,4346.9168929,N,07927.9333321,W,4,08,1.1,190.061,M,-37.20,M,00,0000*6E
$GPGGA,172349.00,4346.9168255,N,07927.9331833,W,4,08,1.1,190.069,M,-37.20,M,01,0000*6E
$GPGGA,172349.25,4346.9167783,N,07927.9330483,W,4,08,1.1,190.101,M,-37.20,M,00,0000*60
$GPGGA,172349.50,4346.9167056,N,07927.9328914,W,4,08,1.1,190.086,M,-37.20,M,00,0000*69
$GPGGA,172349.75,4346.9166557,N,07927.9327390,W,4,08,1.1,190.090,M,-37.20,M,00,0000*65
$GPGGA,172350.00,4346.9165996,N,07927.9325873,W,4,08,1.1,190.114,M,-37.20,M,01,0000*65
$GPGGA,172350.25,4346.9165412,N,07927.9324351,W,4,08,1.1,190.107,M,-37.20,M,00,0000*6A
$GPGGA,172350.50,4346.9164880,N,07927.9322890,W,4,08,1.1,190.117,M,-37.20,M,00,0000*6F
$GPGGA,172350.75,4346.9164265,N,07927.9321439,W,4,08,1.1,190.112,M,-37.20,M,00,0000*60
$GPGGA,172351.00,4346.9163722,N,07927.9319884,W,4,08,1.1,190.124,M,-37.20,M,01,0000*67
$GPGGA,172351.25,4346.9163129,N,07927.9318395,W,4,08,1.1,190.140,M,-37.20,M,00,0000*64
$GPGGA,172351.50,4346.9162562,N,07927.9316889,W,4,08,1.1,190.131,M,-37.20,M,00,0000*62
$GPGGA,172351.75,4346.9161928,N,07927.9315405,W,4,08,1.1,190.139,M,-37.20,M,00,0000*67
$GPGGA,172352.00,4346.9161385,N,07927.9313903,W,4,07,1.1,190.150,M,-37.20,M,01,0000*67
$GPGGA,172352.25,4346.9160764,N,07927.9312376,W,4,07,1.1,190.153,M,-37.20,M,00,0000*61
$GPGGA,172352.50,4346.9160211,N,07927.9310988,W,4,07,1.1,190.172,M,-37.20,M,00,0000*6E
$GPGGA,172352.75,4346.9159581,N,07927.9309421,W,4,07,1.1,190.177,M,-37.20,M,00,0000*6E
$GPGGA,172353.00,4346.9158941,N,07927.9307984,W,4,07,1.1,190.163,M,-37.20,M,01,0000*64
$GPGGA,172353.25,4346.9158419,N,07927.9306688,W,4,07,1.1,190.178,M,-37.20,M,00,0000*6A
$GPGGA,172353.50,4346.9157676,N,07927.9305179,W,4,07,1.1,190.174,M,-37.20,M,00,0000*6A
$GPGGA,172353.75,4346.9157014,N,07927.9303827,W,4,07,1.1,190.180,M,-37.20,M,00,0000*60
$GPGGA,172354.00,4346.9156269,N,07927.9302469,W,4,07,1.1,190.176,M,-37.20,M,01,0000*63
$GPGGA,172354.25,4346.9155614,N,07927.9301116,W,4,07,1.1,190.162,M,-37.20,M,00,0000*63
$GPGGA,172354.50,4346.9154767,N,07927.9299700,W,4,07,1.1,190.190,M,-37.20,M,00,0000*69
$GPGGA,172354.75,4346.9154115,N,07927.9298397,W,4,07,1.1,190.198,M,-37.20,M,00,0000*6E
$GPGGA,172355.00,4346.9153390,N,07927.9297073,W,4,07,1.1,190.202,M,-37.20,M,01,0000*62
$GPGGA,172355.25,4346.9152630,N,07927.9295679,W,4,07,1.1,190.199,M,-37.20,M,00,0000*65
$GPGGA,172355.50,4346.9152128,N,07927.9294365,W,4,07,1.1,190.191,M,-37.20,M,00,0000*68
$GPGGA,172355.75,4346.9151216,N,07927.9292970,W,4,07,1.1,190.205,M,-37.20,M,00,0000*64
$GPGGA,172356.00,4346.9150410,N,07927.9291664,W,4,07,1.1,190.222,M,-37.20,M,01,0000*69
$GPGGA,172356.25,4346.9149659,N,07927.9290383,W,4,07,1.1,190.234,M,-37.20,M,00,0000*62
$GPGGA,172356.50,4346.9148911,N,07927.9289009,W,4,07,1.1,190.213,M,-37.20,M,00,0000*6E
$GPGGA,172356.75,4346.9148065,N,07927.9287777,W,4,07,1.1,190.223,M,-37.20,M,00,0000*60
$GPGGA,172357.00,4346.9147198,N,07927.9286494,W,4,07,1.1,190.227,M,-37.20,M,01,0000*65
$GPGGA,172357.25,4346.9146356,N,07927.9285310,W,4,07,1.1,190.244,M,-37.20,M,00,0000*6F
$GPGGA,172357.50,4346.9145614,N,07927.9284032,W,4,07,1.1,190.241,M,-37.20,M,00,0000*6A
$GPGGA,172357.75,4346.9144852,N,07927.9282848,W,4,07,1.1,190.259,M,-37.20,M,00,0000*6A
$GPGGA,172358.00,4346.9143880,N,07927.9281445,W,4,07,1.1,190.244,M,-37.20,M,01,0000*60
$GPGGA,172358.25,4346.9143084,N,07927.9280229,W,4,07,1.1,190.225,M,-37.20,M,00,0000*60
$GPGGA,172358.50,4346.9142271,N,07927.9278871,W,4,07,1.1,190.228,M,-37.20,M,00,0000*66
$GPGGA,172358.75,4346.9141429,N,07927.9277498,W,4,07,1.1,190.214,M,-37.20,M,00,0000*62
$GPGGA,172359.00,4346.9140582,N,07927.9276128,W,4,07,1.1,190.202,M,-37.20,M,01,0000*69
$GPGGA,172359.25,4346.9139860,N,07927.9274967,W,4,08,1.1,190.209,M,-37.20,M,00,0000*65
$GPGGA,172359.50,4346.9139104,N,07927.9273665,W,4,08,1.1,190.217,M,-37.20,M,00,0000*69
$GPGGA,172359.75,4346.9138397,N,07927.9272441,W,4,08,1.1,190.233,M,-37.20,M,00,0000*64
$GPGGA,172400.00,4346.9137504,N,07927.9271246,W,4,08,1.1,190.232,M,-37.20,M,01,0000*6C
$GPGGA,172400.25,4346.9136548,N,07927.9270082,W,4,08,1.1,190.229,M,-37.20,M,00,0000*62
$GPGGA,172400.50,4346.9135600,N,07927.9268852,W,4,08,1.1,190.218,M,-37.20,M,00,0000*62
$GPGGA,172400.75,4346.9134744,N,07927.9267708,W,4,08,1.1,190.214,M,-37.20,M,00,0000*66
$GPGGA,172401.00,4346.9133727,N,07927.9266508,W,4,08,1.1,190.222,M,-37.20,M,01,0000*60
$GPGGA,172401.25,4346.9132926,N,07927.9265412,W,4,08,1.1,190.192,M,-37.20,M,00,0000*69
$GPGGA,172401.50,4346.9131979,N,07927.9264299,W,4,08,1.1,190.190,M,-37.20,M,00,0000*64
$GPGGA,172401.75,4346.9131110,N,07927.9263192,W,4,08,1.1,190.202,M,-37.20,M,00,0000*63
$GPGGA,172402.00,4346.9130276,N,07927.9262124,W,4,08,1.1,190.207,M,-37.20,M,01,0000*68
$GPGGA,172402.25,4346.9129315,N,07927.9261018,W,4,08,1.1,190.225,M,-37.20,M,00,0000*6F
$GPGGA,172402.50,4346.9128492,N,07927.9259869,W,4,08,1.1,190.241,M,-37.20,M,00,0000*63
$GPGGA,172402.75,4346.9127651,N,07927.9258613,W,4,08,1.1,190.243,M,-37.20,M,00,0000*66
$GPGGA,172403.00,4346.9126873,N,07927.9257441,W,4,08,1.1,190.221,M,-37.20,M,01,0000*65
$GPGGA,172403.25,4346.9125870,N,07927.9256105,W,4,08,1.1,190.206,M,-37.20,M,00,0000*62
$GPGGA,172403.50,4346.9125053,N,07927.9255017,W,4,08,1.1,190.200,M,-37.20,M,00,0000*6E
$GPGGA,172403.75,4346.9124093,N,07927.9253755,W,4,08,1.1,190.211,M,-37.20,M,00,0000*63
$GPGGA,172404.00,4346.9123244,N,07927.9252533,W,4,08,1.1,190.196,M,-37.20,M,01,0000*67
$GPGGA,172404.25,4346.9122351,N,07927.9251383,W,4,08,1.1,190.205,M,-37.20,M,00,0000*62
$GPGGA,172404.50,4346.9121506,N,07927.9250255,W,4,08,1.1,190.206,M,-37.20,M,00,0000*6F
$GPGGA,172404.75,4346.9120597,N,07927.9249110,W,4,08,1.1,190.203,M,-37.20,M,00,0000*6E
$GPGGA,172405.00,4346.9119760,N,07927.9247929,W,4,08,1.1,190.207,M,-37.20,M,01,0000*64
$GPGGA,172405.25,4346.9118808,N,07927.9246720,W,4,08,1.1,190.193,M,-37.20,M,00,0000*6A
$GPGGA,172405.50,4346.9117921,N,07927.9245546,W,4,08,1.1,190.186,M,-37.20,M,00,0000*68
$GPGGA,172405.75,4346.9117008,N,07927.9244424,W,4,08,1.1,190.180,M,-37.20,M,00,0000*6F
$GPGGA,172406.00,4346.9116057,N,07927.9243227,W,4,08,1.1,190.191,M,-37.20,M,01,0000*66
$GPGGA,172406.25,4346.9115223,N,07927.9242245,W,4,08,1.1,190.179,M,-37.20,M,00,0000*61
$GPGGA,172406.50,4346.9114457,N,07927.9241078,W,4,08,1.1,190.176,M,-37.20,M,00,0000*67
$GPGGA,172406.75,4346.9113498,N,07927.9239950,W,4,08,1.1,190.195,M,-37.20,M,00,0000*65
$GPGGA,172407.00,4346.9112600,N,07927.9238754,W,4,08,1.1,190.176,M,-37.20,M,01,0000*63
$GPGGA,172407.25,4346.9111608,N,07927.9237547,W,4,08,1.1,190.184,M,-37.20,M,00,0000*6C
$GPGGA,172407.50,4346.9110642,N,07927.9236301,W,4,08,1.1,190.176,M,-37.20,M,00,0000*69
$GPGGA,172407.75,4346.9109782,N,07927.9235158,W,4,08,1.1,190.171,M,-37.20,M,00,0000*61
$GPGGA,172408.00,4346.9108899,N,07927.9234085,W,4,08,1.1,190.164,M,-37.20,M,01,0000*6D
$GPGGA,172408.25,4346.9107994,N,07927.9232893,W,4,08,1.1,190.160,M,-37.20,M,00,0000*65
$GPGGA,172408.50,4346.9107123,N,07927.9231741,W,4,08,1.1,190.152,M,-37.20,M,00,0000*61
$GPGGA,172408.75,4346.9106193,N,07927.9230424,W,4,08,1.1,190.162,M,-37.20,M,00,0000*6E
$GPGGA,172409.00,4346.9105279,N,07927.9229373,W,4,08,1.1,190.135,M,-37.20,M,01,0000*67
$GPGGA,172409.25,4346.9104472,N,07927.9228171,W,4,08,1.1,190.095,M,-37.20,M,00,0000*67
$GPGGA,172409.50,4346.9103565,N,07927.9227030,W,4,08,1.1,190.095,M,-37.20,M,00,0000*6E
$GPGGA,172409.75,4346.9102676,N,07927.9225823,W,4,08,1.1,190.082,M,-37.20,M,00,0000*67
$GPGGA,172410.00,4346.9101750,N,07927.9224728,W,4,08,1.1,190.070,M,-37.20,M,01,0000*62
$GPGGA,172410.25,4346.9100815,N,07927.9223463,W,4,08,1.1,190.086,M,-37.20,M,00,0000*69
$GPGGA,172410.50,4346.9099953,N,07927.9222352,W,4,08,1.1,190.079,M,-37.20,M,00,0000*6D
$GPGGA,172410.75,4346.9099057,N,07927.9221155,W,4,08,1.1,190.071,M,-37.20,M,00,0000*69
$GPGGA,172411.00,4346.9098237,N,07927.9220065,W,4,08,1.1,190.059,M,-37.20,M,01,0000*67
$GPGGA,172411.25,4346.9097250,N,07927.9218861,W,4,08,1.1,190.065,M,-37.20,M,00,0000*67
$GPGGA,172411.50,4346.9096336,N,07927.9217687,W,4,08,1.1,190.065,M,-37.20,M,00,0000*6C
$GPGGA,172411.75,4346.9095446,N,07927.9216541,W,4,08,1.1,190.064,M,-37.20,M,00,0000*61
$GPGGA,172412.00,4346.9094552,N,07927.9215412,W,4,08,1.1,190.072,M,-37.20,M,01,0000*67
$GPGGA,172412.25,4346.9093781,N,07927.9214342,W,4,08,1.1,190.055,M,-37.20,M,00,0000*6C
$GPGGA,172412.50,4346.9092902,N,07927.9213267,W,4,08,1.1,190.060,M,-37.20,M,00,0000*6D
$GPGGA,172412.75,4346.9092052,N,07927.9212131,W,4,08,1.1,190.049,M,-37.20,M,00,0000*6C
$GPGGA,172413.00,4346.9091153,N,07927.9210992,W,4,08,1.1,190.054,M,-37.20,M,01,0000*62
$GPGGA,172413.25,4346.9090191,N,07927.9209648,W,4,08,1.1,190.039,M,-37.20,M,00,0000*60
$GPGGA,172413.50,4346.9089231,N,07927.9208574,W,4,08,1.1,190.041,M,-37.20,M,00,0000*61
$GPGGA,172413.75,4346.9088329,N,07927.9207338,W,4,08,1.1,190.048,M,-37.20,M,00,0000*67
$GPGGA,172414.00,4346.9087485,N,07927.9206258,W,4,08,1.1,190.033,M,-37.20,M,01,0000*67
$GPGGA,172414.25,4346.9086613,N,07927.9205044,W,4,08,1.1,190.026,M,-37.20,M,00,0000*65
$GPGGA,172414.50,4346.9085824,N,07927.9203990,W,4,08,1.1,190.042,M,-37.20,M,00,0000*6A
$GPGGA,172414.75,4346.9084942,N,07927.9202776,W,4,08,1.1,190.032,M,-37.20,M,00,0000*6D
$GPGGA,172415.00,4346.9084080,N,07927.9201597,W,4,08,1.1,190.031,M,-37.20,M,01,0000*65
$GPGGA,172415.25,4346.9083189,N,07927.9200310,W,4,08,1.1,190.023,M,-37.20,M,00,0000*67
$GPGGA,172415.50,4346.9082363,N,07927.9199098,W,4,08,1.1,190.003,M,-37.20,M,00,0000*60
$GPGGA,172415.75,4346.9081445,N,07927.9197890,W,4,08,1.1,190.023,M,-37.20,M,00,0000*6B
$GPGGA,172416.00,4346.9080617,N,07927.9196723,W,4,08,1.1,190.004,M,-37.20,M,01,0000*6C
$GPGGA,172416.25,4346.9079753,N,07927.9195497,W,4,08,1.1,190.013,M,-37.20,M,00,0000*64
$GPGGA,172416.50,4346.9078988,N,07927.9194382,W,4,08,1.1,189.997,M,-37.20,M,00,0000*60
$GPGGA,172416.75,4346.9077982,N,07927.9193078,W,4,08,1.1,190.005,M,-37.20,M,00,0000*69
$GPGGA,172417.00,4346.9077189,N,07927.9191897,W,4,08,1.1,189.987,M,-37.20,M,01,0000*68
$GPGGA,172417.25,4346.9076310,N,07927.9190680,W,4,08,1.1,189.993,M,-37.20,M,00,0000*61
$GPGGA,172417.50,4346.9075431,N,07927.9189421,W,4,08,1.1,189.988,M,-37.20,M,00,0000*6F
$GPGGA,172417.75,4346.9074644,N,07927.9188261,W,4,08,1.1,189.987,M,-37.20,M,00,0000*65
$GPGGA,172418.00,4346.9073850,N,07927.9187122,W,4,08,1.1,190.001,M,-37.20,M,01,0000*61
$GPGGA,172418.25,4346.9073179,N,07927.9186177,W,4,08,1.1,189.982,M,-37.20,M,00,0000*6E
$GPGGA,172418.50,4346.9072571,N,07927.9185111,W,4,08,1.1,189.986,M,-37.20,M,00,0000*66
$GPGGA,172418.75,4346.9071746,N,07927.9183886,W,4,08,1.1,189.980,M,-37.20,M,00,0000*63
$GPGGA,172419.00,4346.9070924,N,07927.9182618,W,4,08,1.1,189.974,M,-37.20,M,01,0000*69
$GPGGA,172419.25,4346.9070019,N,07927.9181326,W,4,08,1.1,190.001,M,-37.20,M,00,0000*60
$GPGGA,172419.50,4346.9069231,N,07927.9180159,W,4,08,1.1,189.990,M,-37.20,M,00,0000*60
$GPGGA,172419.75,4346.9068540,N,07927.9178994,W,4,08,1.1,189.995,M,-37.20,M,00,0000*6C
$GPGGA,172420.00,4346.9067685,N,07927.9177756,W,4,08,1.1,190.004,M,-37.20,M,01,0000*66
$GPGGA,172420.25,4346.9066912,N,07927.9176674,W,4,08,1.1,190.011,M,-37.20,M,00,0000*64
$GPGGA,172420.50,4346.9066088,N,07927.9175425,W,4,07,1.1,190.003,M,-37.20,M,00,0000*65
$GPGGA,172420.75,4346.9065173,N,07927.9174150,W,4,07,1.8,190.017,M,-37.20,M,00,0000*6E
$GPGGA,172421.00,4346.9064437,N,07927.9172841,W,4,07,1.8,190.012,M,-37.20,M,01,0000*62
$GPGGA,172421.25,4346.9063605,N,07927.9171741,W,4,07,1.8,190.020,M,-37.20,M,00,0000*6D
$GPGGA,172421.50,4346.9062841,N,07927.9170555,W,4,07,1.8,190.008,M,-37.20,M,00,0000*6C
$GPGGA,172421.75,4346.9062006,N,07927.9169370,W,4,07,1.8,190.024,M,-37.20,M,00,0000*67
$GPGGA,172422.00,4346.9061146,N,07927.9168106,W,4,07,1.8,190.020,M,-37.20,M,01,0000*67
$GPGGA,172422.25,4346.9060288,N,07927.9166871,W,4,07,1.8,190.017,M,-37.20,M,00,0000*62
$GPGGA,172422.50,4346.9059401,N,07927.9165482,W,4,07,1.8,189.988,M,-37.20,M,00,0000*69
$GPGGA,172422.75,4346.9058526,N,07927.9164220,W,4,07,1.8,189.981,M,-37.20,M,00,0000*6D
$GPGGA,172423.00,4346.9057653,N,07927.9162981,W,4,07,1.8,189.955,M,-37.20,M,01,0000*6E
$GPGGA,172423.25,4346.9056857,N,07927.9161742,W,4,07,1.8,189.974,M,-37.20,M,00,0000*62
$GPGGA,172423.50,4346.9056023,N,07927.9160436,W,4,07,1.8,189.984,M,-37.20,M,00,0000*65
$GPGGA,172423.75,4346.9055243,N,07927.9159277,W,4,07,1.8,189.982,M,-37.20,M,00,0000*6A
$GPGGA,172424.00,4346.9054462,N,07927.9158065,W,4,07,1.8,189.976,M,-37.20,M,01,0000*61
$GPGGA,172424.25,4346.9053721,N,07927.9156793,W,4,07,1.8,189.962,M,-37.20,M,00,0000*61
$GPGGA,172424.50,4346.9052969,N,07927.9155360,W,4,07,1.8,189.950,M,-37.20,M,00,0000*6A
$GPGGA,172424.75,4346.9052274,N,07927.9153916,W,4,07,1.8,189.938,M,-37.20,M,00,0000*69
$GPGGA,172425.00,4346.9051578,N,07927.9152453,W,4,07,1.8,189.937,M,-37.20,M,01,0000*61
$GPGGA,172425.25,4346.9050896,N,07927.9151032,W,4,07,1.8,189.959,M,-37.20,M,00,0000*63
$GPGGA,172425.50,4346.9050405,N,07927.9149798,W,4,07,1.8,189.944,M,-37.20,M,00,0000*65
$GPGGA,172425.75,4346.9049772,N,07927.9148444,W,4,07,1.8,189.986,M,-37.20,M,00,0000*64
$GPGGA,172426.00,4346.9049109,N,07927.9147174,W,4,07,1.8,190.004,M,-37.20,M,01,0000*6C
$GPGGA,172426.25,4346.9048585,N,07927.9145758,W,4,07,1.8,190.005,M,-37.20,M,00,0000*60
$GPGGA,172426.50,4346.9047923,N,07927.9144306,W,4,07,1.8,189.993,M,-37.20,M,00,0000*6D
$GPGGA,172426.75,4346.9047246,N,07927.9142820,W,4,07,1.8,189.992,M,-37.20,M,00,0000*6A
$GPGGA,172427.00,4346.9046633,N,07927.9141288,W,4,07,1.8,190.007,M,-37.20,M,01,0000*69
$GPGGA,172427.25,4346.9045882,N,07927.9139731,W,4,07,1.8,190.033,M,-37.20,M,00,0000*67
$GPGGA,172427.50,4346.9045427,N,07927.9138244,W,4,07,1.8,190.004,M,-37.20,M,00,0000*64
$GPGGA,172427.75,4346.9044899,N,07927.9136684,W,4,07,1.8,190.009,M,-37.20,M,00,0000*60
$GPGGA,172428.00,4346.9044372,N,07927.9135315,W,4,07,1.8,189.997,M,-37.20,M,01,0000*6A
$GPGGA,172428.25,4346.9043854,N,07927.9133718,W,4,08,1.1,190.004,M,-37.20,M,00,0000*66
$GPGGA,172428.50,4346.9043387,N,07927.9132243,W,4,08,1.1,190.024,M,-37.20,M,00,0000*69
$GPGGA,172428.75,4346.9042882,N,07927.9130686,W,4,08,1.1,190.042,M,-37.20,M,00,0000*6E
$GPGGA,172429.00,4346.9042492,N,07927.9129150,W,4,08,1.1,190.031,M,-37.20,M,01,0000*61
$GPGGA,172429.25,4346.9042156,N,07927.9127602,W,4,08,1.1,190.049,M,-37.20,M,00,0000*6B
$GPGGA,172429.50,4346.9041811,N,07927.9126000,W,4,08,1.1,190.048,M,-37.20,M,00,0000*64
$GPGGA,172429.75,4346.9041473,N,07927.9124299,W,4,08,1.1,190.013,M,-37.20,M,00,0000*65
$GPGGA,172430.00,4346.9041132,N,07927.9122689,W,4,08,1.1,190.022,M,-37.20,M,01,0000*6F
$GPGGA,172430.25,4346.9040776,N,07927.9121077,W,4,08,1.1,190.023,M,-37.20,M,00,0000*6B
$GPGGA,172430.50,4346.9040541,N,07927.9119477,W,4,08,1.1,190.027,M,-37.20,M,00,0000*64
$GPGGA,172430.75,4346.9040261,N,07927.9117836,W,4,08,1.1,190.033,M,-37.20,M,00,0000*64
$GPGGA,172431.00,4346.9039986,N,07927.9116265,W,4,08,1.1,190.031,M,-37.20,M,01,0000*65
$GPGGA,172431.25,4346.9039766,N,07927.9114647,W,4,08,1.1,190.015,M,-37.20,M,00,0000*63
$GPGGA,172431.50,4346.9039396,N,07927.9113028,W,4,08,1.1,190.030,M,-37.20,M,00,0000*65
$GPGGA,172431.75,4346.9039179,N,07927.9111360,W,4,08,1.1,190.024,M,-37.20,M,00,0000*69
$GPGGA,172432.00,4346.9038864,N,07927.9109729,W,4,08,1.1,190.020,M,-37.20,M,01,0000*69
$GPGGA,172432.25,4346.9038636,N,07927.9108123,W,4,08,1.1,190.020,M,-37.20,M,00,0000*6B
$GPGGA,172432.50,4346.9038316,N,07927.9106395,W,4,08,1.1,190.020,M,-37.20,M,00,0000*6F
$GPGGA,172432.75,4346.9038143,N,07927.9104877,W,4,08,1.1,190.024,M,-37.20,M,00,0000*6B
$GPGGA,172433.00,4346.9037735,N,07927.9103084,W,4,08,1.1,190.039,M,-37.20,M,01,0000*6E
$GPGGA,172433.25,4346.9037576,N,07927.9101519,W,4,08,1.1,190.027,M,-37.20,M,00,0000*61
$GPGGA,172433.50,4346.9037377,N,07927.9099854,W,4,08,1.1,190.032,M,-37.20,M,00,0000*64
$GPGGA,172433.75,4346.9037213,N,07927.9098221,W,4,08,1.1,190.024,M,-37.20,M,00,0000*6E
$GPGGA,172434.00,4346.9036960,N,07927.9096500,W,4,08,1.1,190.032,M,-37.20,M,01,0000*69
$GPGGA,172434.25,4346.9036915,N,07927.9094891,W,4,08,1.1,190.053,M,-37.20,M,00,0000*6D
$GPGGA,172434.50,4346.9036659,N,07927.9093172,W,4,08,1.1,190.034,M,-37.20,M,00,0000*6A
$GPGGA,172434.75,4346.9036395,N,07927.9091534,W,4,08,1.1,190.058,M,-37.20,M,00,0000*66
$GPGGA,172435.00,4346.9036306,N,07927.9089843,W,4,08,1.1,190.039,M,-37.20,M,01,0000*6D
$GPGGA,172435.25,4346.9036023,N,07927.9088152,W,4,08,1.1,190.054,M,-37.20,M,00,0000*6C
$GPGGA,172435.50,4346.9035985,N,07927.9086609,W,4,08,1.1,190.046,M,-37.20,M,00,0000*6C
$GPGGA,172435.75,4346.9035675,N,07927.9084953,W,4,08,1.1,190.053,M,-37.20,M,00,0000*6D
$GPGGA,172436.00,4346.9035579,N,07927.9083223,W,4,07,1.1,190.047,M,-37.20,M,01,0000*63
$GPGGA,172436.25,4346.9035422,N,07927.9081571,W,4,07,1.1,190.048,M,-37.20,M,00,0000*67
$GPGGA,172436.50,4346.9035342,N,07927.9079923,W,4,07,1.1,190.057,M,-37.20,M,00,0000*66
$GPGGA,172436.75,4346.9035094,N,07927.9078170,W,4,07,1.1,190.034,M,-37.20,M,00,0000*63
$GPGGA,172437.00,4346.9035007,N,07927.9076525,W,4,07,1.1,190.029,M,-37.20,M,01,0000*6D
$GPGGA,172437.25,4346.9034701,N,07927.9074849,W,4,07,1.1,190.046,M,-37.20,M,00,0000*67
$GPGGA,172437.50,4346.9034693,N,07927.9073205,W,4,07,1.1,190.041,M,-37.20,M,00,0000*6D
$GPGGA,172437.75,4346.9034389,N,07927.9071642,W,4,07,1.1,190.061,M,-37.20,M,00,0000*63
$GPGGA,172438.00,4346.9034309,N,07927.9069833,W,4,07,1.1,190.048,M,-37.20,M,01,0000*6D
$GPGGA,172438.25,4346.9034208,N,07927.9068249,W,4,07,1.1,190.032,M,-37.20,M,00,0000*60
$GPGGA,172438.50,4346.9034020,N,07927.9066506,W,4,06,1.1,190.041,M,-37.20,M,00,0000*6D
$GPGGA,172438.75,4346.9033942,N,07927.9064836,W,4,06,1.4,190.032,M,-37.20,M,00,0000*6D
$GPGGA,172439.00,4346.9033748,N,07927.9063156,W,4,06,1.4,190.040,M,-37.20,M,01,0000*66
$GPGGA,172439.25,4346.9033690,N,07927.9061471,W,4,06,1.4,190.013,M,-37.20,M,00,0000*60
$GPGGA,172439.50,4346.9033494,N,07927.9059744,W,4,06,1.4,190.002,M,-37.20,M,00,0000*6A
$GPGGA,172439.75,4346.9033364,N,07927.9058095,W,4,06,1.4,190.012,M,-37.20,M,00,0000*6E
$GPGGA,172440.00,4346.9033203,N,07927.9056387,W,4,06,1.4,190.019,M,-37.20,M,01,0000*66
$GPGGA,172440.25,4346.9032996,N,07927.9054741,W,4,06,1.4,190.029,M,-37.20,M,00,0000*69
$GPGGA,172440.50,4346.9032850,N,07927.9053181,W,4,06,1.4,190.025,M,-37.20,M,00,0000*61
$GPGGA,172440.75,4346.9032797,N,07927.9051426,W,4,06,1.4,190.021,M,-37.20,M,00,0000*6C
$GPGGA,172441.00,4346.9032611,N,07927.9049777,W,4,06,1.4,190.019,M,-37.20,M,01,0000*64
$GPGGA,172441.25,4346.9032651,N,07927.9048219,W,4,06,1.4,190.040,M,-37.20,M,00,0000*66
$GPGGA,172441.50,4346.9032494,N,07927.9046549,W,4,06,1.4,190.042,M,-37.20,M,00,0000*61
$GPGGA,172441.75,4346.9032377,N,07927.9044835,W,4,06,1.4,190.040,M,-37.20,M,00,0000*6A
$GPGGA,172442.00,4346.9032216,N,07927.9043241,W,4,06,1.4,190.039,M,-37.20,M,01,0000*6C
$GPGGA,172442.25,4346.9032072,N,07927.9041529,W,4,06,1.4,190.034,M,-37.20,M,00,0000*6C
$GPGGA,172442.50,4346.9031886,N,07927.9039893,W,4,06,1.4,190.042,M,-37.20,M,00,0000*6C
$GPGGA,172442.75,4346.9031822,N,07927.9038193,W,4,06,1.4,190.043,M,-37.20,M,00,0000*6C
$GPGGA,172443.00,4346.9031638,N,07927.9036526,W,4,06,1.4,190.048,M,-37.20,M,01,0000*64
$GPGGA,172443.25,4346.9031472,N,07927.9034808,W,4,06,1.4,190.033,M,-37.20,M,00,0000*61
$GPGGA,172443.50,4346.9031313,N,07927.9033119,W,4,06,1.4,190.033,M,-37.20,M,00,0000*6D
$GPGGA,172443.75,4346.9031227,N,07927.9031471,W,4,06,1.4,190.030,M,-37.20,M,00,0000*66
$GPGGA,172444.00,4346.9031096,N,07927.9029804,W,4,06,1.4,190.028,M,-37.20,M,01,0000*64
$GPGGA,172444.25,4346.9030942,N,07927.9028072,W,4,06,1.4,190.034,M,-37.20,M,00,0000*66
$GPGGA,172444.50,4346.9030803,N,07927.9026392,W,4,06,1.4,190.039,M,-37.20,M,00,0000*6E
$GPGGA,172444.75,4346.9030756,N,07927.9024769,W,4,06,1.4,190.046,M,-37.20,M,00,0000*6C
$GPGGA,172445.00,4346.9030622,N,07927.9023112,W,4,06,1.4,190.045,M,-37.20,M,01,0000*62
$GPGGA,172445.25,4346.9030644,N,07927.9021498,W,4,06,1.4,190.048,M,-37.20,M,00,0000*6C
$GPGGA,172445.50,4346.9030525,N,07927.9019759,W,4,06,1.4,190.043,M,-37.20,M,00,0000*64
$GPGGA,172445.75,4346.9030513,N,07927.9018137,W,4,06,1.4,190.046,M,-37.20,M,00,0000*6C
$GPGGA,172446.00,4346.9030420,N,07927.9016308,W,4,06,1.4,190.050,M,-37.20,M,01,0000*6A
$GPGGA,172446.25,4346.9030241,N,07927.9014698,W,4,06,1.4,190.069,M,-37.20,M,00,0000*69
$GPGGA,172446.50,4346.9030091,N,07927.9012998,W,4,06,1.4,190.073,M,-37.20,M,00,0000*66
$GPGGA,172446.75,4346.9029957,N,07927.9011361,W,4,06,1.4,190.067,M,-37.20,M,00,0000*60
$GPGGA,172447.00,4346.9029912,N,07927.9009671,W,4,06,1.4,190.069,M,-37.20,M,01,0000*60
$GPGGA,172447.25,4346.9029887,N,07927.9007963,W,4,06,1.4,190.081,M,-37.20,M,00,0000*6F
$GPGGA,172447.50,4346.9029736,N,07927.9006257,W,4,06,1.4,190.075,M,-37.20,M,00,0000*6E
$GPGGA,172447.75,4346.9029737,N,07927.9004579,W,4,06,1.4,190.083,M,-37.20,M,00,0000*68
$GPGGA,172448.00,4346.9029620,N,07927.9002883,W,4,07,1.4,190.078,M,-37.20,M,01,0000*68
$GPGGA,172448.25,4346.9029511,N,07927.9001259,W,4,07,1.1,190.082,M,-37.20,M,00,0000*61
$GPGGA,172448.50,4346.9029471,N,07927.8999504,W,4,07,1.1,190.069,M,-37.20,M,00,0000*67
$GPGGA,172448.75,4346.9029412,N,07927.8997833,W,4,07,1.1,190.078,M,-37.20,M,00,0000*62
$GPGGA,172449.00,4346.9029381,N,07927.8996063,W,4,07,1.1,190.064,M,-37.20,M,01,0000*6C
$GPGGA,172449.25,4346.9029352,N,07927.8994447,W,4,08,1.1,190.081,M,-37.20,M,00,0000*60
$GPGGA,172449.50,4346.9029346,N,07927.8992726,W,4,08,1.1,190.077,M,-37.20,M,00,0000*6C
$GPGGA,172449.75,4346.9029289,N,07927.8991060,W,4,08,1.1,190.074,M,-37.20,M,00,0000*6C
$GPGGA,172450.00,4346.9029286,N,07927.8989431,W,4,08,1.1,190.077,M,-37.20,M,01,0000*62
$GPGGA,172450.25,4346.9029277,N,07927.8987675,W,4,07,1.1,190.065,M,-37.20,M,00,0000*6A
$GPGGA,172450.50,4346.9029303,N,07927.8986051,W,4,07,1.1,190.084,M,-37.20,M,00,0000*64
$GPGGA,172450.75,4346.9029335,N,07927.8984244,W,4,07,1.1,190.079,M,-37.20,M,00,0000*60
$GPGGA,172451.00,4346.9029425,N,07927.8982645,W,4,07,1.1,190.076,M,-37.20,M,01,0000*68
$GPGGA,172451.25,4346.9029411,N,07927.8980985,W,4,07,1.1,190.072,M,-37.20,M,00,0000*6C
$GPGGA,172451.50,4346.9029504,N,07927.8979249,W,4,07,1.1,190.063,M,-37.20,M,00,0000*66
$GPGGA,172451.75,4346.9029646,N,07927.8977691,W,4,07,1.1,190.089,M,-37.20,M,00,0000*6F
$GPGGA,172452.00,4346.9029784,N,07927.8976006,W,4,07,1.1,190.078,M,-37.20,M,01,0000*67
$GPGGA,172452.25,4346.9030052,N,07927.8974251,W,4,07,1.1,190.075,M,-37.20,M,00,0000*6A
$GPGGA,172452.50,4346.9030229,N,07927.8972558,W,4,07,1.1,190.080,M,-37.20,M,00,0000*64
$GPGGA,172452.75,4346.9030450,N,07927.8970872,W,4,07,1.1,190.064,M,-37.20,M,00,0000*66
$GPGGA,172453.00,4346.9030712,N,07927.8969261,W,4,07,1.1,190.075,M,-37.20,M,01,0000*61
$GPGGA,172453.25,4346.9030922,N,07927.8967627,W,4,07,1.1,190.047,M,-37.20,M,00,0000*63
$GPGGA,172453.50,4346.9031014,N,07927.8966103,W,4,07,1.1,190.063,M,-37.20,M,00,0000*6A
$GPGGA,172453.75,4346.9031247,N,07927.8964518,W,4,07,1.1,190.082,M,-37.20,M,00,0000*6A
$GPGGA,172454.00,4346.9031554,N,07927.8962880,W,4,07,1.1,190.067,M,-37.20,M,01,0000*6A
$GPGGA,172454.25,4346.9031825,N,07927.8961228,W,4,07,1.1,190.058,M,-37.20,M,00,0000*60
$GPGGA,172454.50,4346.9032160,N,07927.8959614,W,4,07,1.1,190.061,M,-37.20,M,00,0000*63
$GPGGA,172454.75,4346.9032516,N,07927.8957821,W,4,07,1.1,190.044,M,-37.20,M,00,0000*60
$GPGGA,172455.00,4346.9032926,N,07927.8956389,W,4,07,1.1,190.068,M,-37.20,M,01,0000*6B
$GPGGA,172455.25,4346.9033526,N,07927.8954839,W,4,08,1.1,190.029,M,-37.20,M,00,0000*68
$GPGGA,172455.50,4346.9033800,N,07927.8953310,W,4,08,1.1,190.026,M,-37.20,M,00,0000*6B
$GPGGA,172455.75,4346.9034224,N,07927.8951787,W,4,08,1.1,190.041,M,-37.20,M,00,0000*6E
$GPGGA,172456.00,4346.9034628,N,07927.8950218,W,4,07,1.1,190.035,M,-37.20,M,01,0000*68
$GPGGA,172456.25,4346.9035148,N,07927.8948602,W,4,07,1.2,190.042,M,-37.20,M,00,0000*6B
$GPGGA,172456.50,4346.9035517,N,07927.8947163,W,4,07,1.2,190.048,M,-37.20,M,00,0000*62
$GPGGA,172456.75,4346.9036179,N,07927.8945614,W,4,07,2.5,190.069,M,-37.20,M,00,0000*68
$GPGGA,172457.00,4346.9036662,N,07927.8944127,W,4,07,2.5,190.050,M,-37.20,M,01,0000*6B
$GPGGA,172457.25,4346.9037194,N,07927.8942601,W,4,07,2.5,190.074,M,-37.20,M,00,0000*61
$GPGGA,172457.50,4346.9037729,N,07927.8941012,W,4,07,2.5,190.043,M,-37.20,M,00,0000*60
$GPGGA,172457.75,4346.9038174,N,07927.8939601,W,4,07,2.5,190.046,M,-37.20,M,00,0000*68
$GPGGA,172458.00,4346.9038720,N,07927.8937960,W,4,07,2.5,190.069,M,-37.20,M,01,0000*68
$GPGGA,172458.25,4346.9039162,N,07927.8936580,W,4,07,2.5,190.027,M,-37.20,M,00,0000*66
$GPGGA,172458.50,4346.9039638,N,07927.8934951,W,4,07,2.5,190.029,M,-37.20,M,00,0000*60
$GPGGA,172458.75,4346.9040236,N,07927.8933463,W,4,07,2.5,190.024,M,-37.20,M,00,0000*65
$GPGGA,172459.00,4346.9040651,N,07927.8931879,W,4,07,2.5,190.027,M,-37.20,M,01,0000*64
$GPGGA,172459.25,4346.9041178,N,07927.8930438,W,4,07,2.5,190.043,M,-37.20,M,00,0000*65
$GPGGA,172459.50,4346.9041668,N,07927.8928933,W,4,07,2.5,190.027,M,-37.20,M,00,0000*6C
$GPGGA,172459.75,4346.9042193,N,07927.8927331,W,4,07,2.5,190.038,M,-37.20,M,00,0000*62
$GPGGA,172500.00,4346.9042689,N,07927.8925890,W,4,07,2.5,190.041,M,-37.20,M,01,0000*6C
$GPGGA,172500.25,4346.9043427,N,07927.8924450,W,4,07,2.5,190.022,M,-37.20,M,00,0000*69
$GPGGA,172500.50,4346.9043929,N,07927.8922900,W,4,07,2.5,190.029,M,-37.20,M,00,0000*6D
$GPGGA,172500.75,4346.9044381,N,07927.8921478,W,4,07,2.5,190.030,M,-37.20,M,00,0000*6C
$GPGGA,172501.00,4346.9045031,N,07927.8919951,W,4,07,2.5,190.025,M,-37.20,M,01,0000*6E
$GPGGA,172501.25,4346.9045662,N,07927.8918497,W,4,07,2.5,190.032,M,-37.20,M,00,0000*68
$GPGGA,172501.50,4346.9046179,N,07927.8916860,W,4,07,2.5,190.055,M,-37.20,M,00,0000*6F
$GPGGA,172501.75,4346.9046873,N,07927.8915472,W,4,07,1.6,190.023,M,-37.20,M,00,0000*66
$GPGGA,172502.00,4346.9047331,N,07927.8913853,W,4,07,1.6,190.045,M,-37.20,M,01,0000*63
$GPGGA,172502.25,4346.9047855,N,07927.8912390,W,4,07,1.6,190.026,M,-37.20,M,00,0000*6C
$GPGGA,172502.50,4346.9048535,N,07927.8910950,W,4,07,1.6,190.044,M,-37.20,M,00,0000*6A
$GPGGA,172502.75,4346.9049170,N,07927.8909276,W,4,07,1.6,190.072,M,-37.20,M,00,0000*6B
$GPGGA,172503.00,4346.9049628,N,07927.8907891,W,4,07,1.6,190.061,M,-37.20,M,01,0000*6C
$GPGGA,172503.25,4346.9050092,N,07927.8906465,W,4,06,1.6,190.022,M,-37.20,M,00,0000*65
$GPGGA,172503.50,4346.9050854,N,07927.8904902,W,4,06,1.6,190.066,M,-37.20,M,00,0000*6B
$GPGGA,172503.75,4346.9051319,N,07927.8903422,W,4,06,1.7,190.084,M,-37.20,M,00,0000*6A
$GPGGA,172504.00,4346.9051974,N,07927.8902057,W,4,06,1.7,190.053,M,-37.20,M,01,0000*62
$GPGGA,172504.25,4346.9052349,N,07927.8900579,W,4,06,1.7,190.030,M,-37.20,M,00,0000*6D
$GPGGA,172504.50,4346.9053139,N,07927.8899053,W,4,06,1.7,190.036,M,-37.20,M,00,0000*61
