$GPGGA,212914.75,4346.9279691,N,07927.9616401,W,4,09,1.2,189.470,M,-37.20,M,00,0000*6E
$GPGGA,212915.00,4346.9279678,N,07927.9616414,W,4,09,1.2,189.466,M,-37.20,M,01,0000*68
$GPGGA,212915.25,4346.9279702,N,07927.9616383,W,4,09,1.2,189.454,M,-37.20,M,00,0000*6A
$GPGGA,212915.50,4346.9279699,N,07927.9616372,W,4,09,1.2,189.434,M,-37.20,M,00,0000*63
$GPGGA,212915.75,4346.9279724,N,07927.9616392,W,4,09,1.2,189.444,M,-37.20,M,00,0000*6A
$GPGGA,212916.00,4346.9279694,N,07927.9616383,W,4,09,1.2,189.441,M,-37.20,M,01,0000*65
$GPGGA,212916.25,4346.9279692,N,07927.9616397,W,4,09,1.2,189.461,M,-37.20,M,00,0000*62
$GPGGA,212916.50,4346.9279694,N,07927.9616416,W,4,09,1.2,189.452,M,-37.20,M,00,0000*68
$GPGGA,212916.75,4346.9279689,N,07927.9616423,W,4,09,1.2,189.454,M,-37.20,M,00,0000*63
$GPGGA,212917.00,4346.9279677,N,07927.9616438,W,4,09,1.2,189.455,M,-37.20,M,01,0000*6B
$GPGGA,212917.25,4346.9279680,N,07927.9616439,W,4,09,1.2,189.460,M,-37.20,M,00,0000*62
$GPGGA,212917.50,4346.9279694,N,07927.9616426,W,4,09,1.2,189.450,M,-37.20,M,00,0000*68
$GPGGA,212917.75,4346.9279674,N,07927.9616431,W,4,09,1.2,189.448,M,-37.20,M,00,0000*6E
$GPGGA,212918.00,4346.9279690,N,07927.9616427,W,4,09,1.2,189.448,M,-37.20,M,01,0000*6F
$GPGGA,212918.25,4346.9279699,N,07927.9616420,W,4,09,1.2,189.463,M,-37.20,M,00,0000*6E
$GPGGA,212918.50,4346.9279682,N,07927.9616440,W,4,09,1.2,189.457,M,-37.20,M,00,0000*67
$GPGGA,212918.75,4346.9279688,N,07927.9616395,W,4,09,1.2,189.473,M,-37.20,M,00,0000*63
$GPGGA,212919.00,4346.9279685,N,07927.9616428,W,4,09,1.2,189.461,M,-37.20,M,01,0000*6E
$GPGGA,212919.25,4346.9279699,N,07927.9616427,W,4,09,1.2,189.458,M,-37.20,M,00,0000*60
$GPGGA,212919.50,4346.9279695,N,07927.9616410,W,4,09,1.2,189.452,M,-37.20,M,00,0000*60
$GPGGA,212919.75,4346.9279701,N,07927.9616408,W,4,09,1.2,189.446,M,-37.20,M,00,0000*67
$GPGGA,212920.00,4346.9279703,N,07927.9616414,W,4,09,1.2,189.453,M,-37.20,M,01,0000*65
$GPGGA,212920.25,4346.9279674,N,07927.9616416,W,4,09,1.2,189.461,M,-37.20,M,00,0000*61
$GPGGA,212920.50,4346.9279687,N,07927.9616423,W,4,09,1.2,189.445,M,-37.20,M,00,0000*6F
$GPGGA,212920.75,4346.9279678,N,07927.9616435,W,4,09,1.2,189.449,M,-37.20,M,00,0000*63
$GPGGA,212921.00,4346.9279716,N,07927.9616414,W,4,09,1.2,189.449,M,-37.20,M,01,0000*6B
$GPGGA,212921.25,4346.9279691,N,07927.9616422,W,4,09,1.2,189.448,M,-37.20,M,00,0000*67
$GPGGA,212921.50,4346.9279686,N,07927.9616402,W,4,09,1.2,189.446,M,-37.20,M,00,0000*6F
$GPGGA,212921.75,4346.9279693,N,07927.9616410,W,4,09,1.2,189.444,M,-37.20,M,00,0000*6D
$GPGGA,212922.00,4346.9279704,N,07927.9616394,W,4,09,1.2,189.440,M,-37.20,M,01,0000*6D
$GPGGA,212922.25,4346.9279747,N,07927.9616404,W,4,09,1.2,189.431,M,-37.20,M,00,0000*64
$GPGGA,212922.50,4346.9279727,N,07927.9616415,W,4,09,1.2,189.432,M,-37.20,M,00,0000*63
$GPGGA,212922.75,4346.9279728,N,07927.9616412,W,4,09,1.2,189.441,M,-37.20,M,00,0000*68
$GPGGA,212923.00,4346.9279709,N,07927.9616405,W,4,09,1.2,189.440,M,-37.20,M,01,0000*6E
$GPGGA,212923.25,4346.9279728,N,07927.9616405,W,4,09,1.2,189.429,M,-37.20,M,00,0000*64
$GPGGA,212923.50,4346.9279703,N,07927.9616415,W,4,09,1.2,189.427,M,-37.20,M,00,0000*60
$GPGGA,212923.75,4346.9279717,N,07927.9616407,W,4,09,1.2,189.432,M,-37.20,M,00,0000*65
$GPGGA,212924.00,4346.9279706,N,07927.9616398,W,4,09,1.2,189.424,M,-37.20,M,01,0000*67
$GPGGA,212924.25,4346.9279721,N,07927.9616395,W,4,09,1.2,189.440,M,-37.20,M,00,0000*6B
$GPGGA,212924.50,4346.9279728,N,07927.9616418,W,4,09,1.2,189.437,M,-37.20,M,00,0000*62
$GPGGA,212924.75,4346.9279714,N,07927.9616390,W,4,09,1.2,189.448,M,-37.20,M,00,0000*65
$GPGGA,212925.00,4346.9279713,N,07927.9616375,W,4,09,1.2,189.444,M,-37.20,M,01,0000*67
$GPGGA,212925.25,4346.9279708,N,07927.9616369,W,4,09,1.2,189.447,M,-37.20,M,00,0000*65
$GPGGA,212925.50,4346.9279704,N,07927.9616375,W,4,09,1.2,189.446,M,-37.20,M,00,0000*67
$GPGGA,212925.75,4346.9279721,N,07927.9616356,W,4,09,1.2,189.435,M,-37.20,M,00,0000*62
$GPGGA,212926.00,4346.9279703,N,07927.9616371,W,4,09,1.2,189.439,M,-37.20,M,01,0000*6B
$GPGGA,212926.25,4346.9279748,N,07927.9616370,W,4,09,1.2,189.445,M,-37.20,M,00,0000*68
$GPGGA,212926.50,4346.9279766,N,07927.9616384,W,4,09,1.2,189.443,M,-37.20,M,00,0000*6B
$GPGGA,212926.75,4346.9279724,N,07927.9616409,W,4,09,1.2,189.448,M,-37.20,M,00,0000*63
$GPGGA,212927.00,4346.9279726,N,07927.9616382,W,4,09,1.2,189.451,M,-37.20,M,01,0000*6F
$GPGGA,212927.25,4346.9279744,N,07927.9616405,W,4,09,1.2,189.454,M,-37.20,M,00,0000*60
$GPGGA,212927.50,4346.9279732,N,07927.9616409,W,4,09,1.2,189.453,M,-37.20,M,00,0000*68
$GPGGA,212927.75,4346.9279738,N,07927.9616435,W,4,09,1.2,189.458,M,-37.20,M,00,0000*61
$GPGGA,212928.00,4346.9279726,N,07927.9616418,W,4,09,1.2,189.453,M,-37.20,M,01,0000*66
$GPGGA,212928.25,4346.9279721,N,07927.9616380,W,4,09,1.2,189.485,M,-37.20,M,00,0000*6A
$GPGGA,212928.50,4346.9279715,N,07927.9616320,W,4,09,1.2,189.480,M,-37.20,M,00,0000*60
$GPGGA,212928.75,4346.9279718,N,07927.9616214,W,4,09,1.2,189.477,M,-37.20,M,00,0000*64
$GPGGA,212929.00,4346.9279735,N,07927.9615995,W,4,09,1.2,189.482,M,-37.20,M,01,0000*62
$GPGGA,212929.25,4346.9279734,N,07927.9615640,W,4,09,1.2,189.459,M,-37.20,M,00,0000*64
$GPGGA,212929.50,4346.9279783,N,07927.9615190,W,4,09,1.2,189.477,M,-37.20,M,00,0000*6C
$GPGGA,212929.75,4346.9279804,N,07927.9614664,W,4,09,1.2,189.477,M,-37.20,M,00,0000*66
$GPGGA,212930.00,4346.9279882,N,07927.9613905,W,4,09,1.2,189.486,M,-37.20,M,01,0000*62
$GPGGA,212930.25,4346.9279929,N,07927.9612919,W,4,09,1.2,189.493,M,-37.20,M,00,0000*6C
$GPGGA,212930.50,4346.9280017,N,07927.9611883,W,4,09,1.2,189.506,M,-37.20,M,00,0000*60
$GPGGA,212930.75,4346.9280111,N,07927.9610637,W,4,09,1.2,189.512,M,-37.20,M,00,0000*65
$GPGGA,212931.00,4346.9280169,N,07927.9609386,W,4,09,1.2,189.509,M,-37.20,M,01,0000*65
$GPGGA,212931.25,4346.9280353,N,07927.9608123,W,4,09,1.2,189.502,M,-37.20,M,00,0000*6F
$GPGGA,212931.50,4346.9280483,N,07927.9606753,W,4,09,1.2,189.524,M,-37.20,M,00,0000*6C
$GPGGA,212931.75,4346.9280610,N,07927.9605361,W,4,09,1.2,189.527,M,-37.20,M,00,0000*66
$GPGGA,212932.00,4346.9280709,N,07927.9603885,W,4,09,1.2,189.513,M,-37.20,M,01,0000*6F
$GPGGA,212932.25,4346.9280896,N,07927.9602364,W,4,09,1.2,189.504,M,-37.20,M,00,0000*63
$GPGGA,212932.50,4346.9281029,N,07927.9600910,W,4,09,1.2,189.494,M,-37.20,M,00,0000*6F
$GPGGA,212932.75,4346.9281187,N,07927.9599375,W,4,09,1.2,189.516,M,-37.20,M,00,0000*6C
$GPGGA,212933.00,4346.9281287,N,07927.9597797,W,4,09,1.2,189.504,M,-37.20,M,01,0000*68
$GPGGA,212933.25,4346.9281435,N,07927.9596269,W,4,09,1.2,189.537,M,-37.20,M,00,0000*64
$GPGGA,212933.50,4346.9281596,N,07927.9594715,W,4,09,1.2,189.540,M,-37.20,M,00,0000*62
$GPGGA,212933.75,4346.9281732,N,07927.9593186,W,4,09,1.2,189.543,M,-37.20,M,00,0000*61
$GPGGA,212934.00,4346.9281889,N,07927.9591575,W,4,09,1.2,189.560,M,-37.20,M,01,0000*61
$GPGGA,212934.25,4346.9282018,N,07927.9589947,W,4,09,1.2,189.590,M,-37.20,M,00,0000*6F
$GPGGA,212934.50,4346.9282121,N,07927.9588389,W,4,09,1.2,189.594,M,-37.20,M,00,0000*6B
$GPGGA,212934.75,4346.9282325,N,07927.9586721,W,4,09,1.2,189.601,M,-37.20,M,00,0000*6D
$GPGGA,212935.00,4346.9282526,N,07927.9585128,W,4,09,1.2,189.610,M,-37.20,M,01,0000*66
$GPGGA,212935.25,4346.9282653,N,07927.9583475,W,4,09,1.2,189.614,M,-37.20,M,00,0000*6E
$GPGGA,212935.50,4346.9282838,N,07927.9581906,W,4,09,1.2,189.615,M,-37.20,M,00,0000*65
$GPGGA,212935.75,4346.9282975,N,07927.9580273,W,4,09,1.2,189.628,M,-37.20,M,00,0000*6C
$GPGGA,212936.00,4346.9283147,N,07927.9578609,W,4,09,1.2,189.643,M,-37.20,M,01,0000*67
$GPGGA,212936.25,4346.9283331,N,07927.9576938,W,4,09,1.2,189.637,M,-37.20,M,00,0000*62
$GPGGA,212936.50,4346.9283488,N,07927.9575278,W,4,09,1.2,189.642,M,-37.20,M,00,0000*6B
$GPGGA,212936.75,4346.9283686,N,07927.9573635,W,4,09,1.2,189.648,M,-37.20,M,00,0000*61
$GPGGA,212937.00,4346.9283861,N,07927.9572016,W,4,09,1.2,189.660,M,-37.20,M,01,0000*68
$GPGGA,212937.25,4346.9284058,N,07927.9570320,W,4,09,1.2,189.655,M,-37.20,M,00,0000*69
$GPGGA,212937.50,4346.9284262,N,07927.9568691,W,4,09,1.2,189.662,M,-37.20,M,00,0000*62
$GPGGA,212937.75,4346.9284452,N,07927.9567035,W,4,09,1.2,189.673,M,-37.20,M,00,0000*67
$GPGGA,212938.00,4346.9284660,N,07927.9565341,W,4,09,1.2,189.667,M,-37.20,M,01,0000*6F
$GPGGA,212938.25,4346.9284879,N,07927.9563623,W,4,09,1.2,189.663,M,-37.20,M,00,0000*6C
$GPGGA,212938.50,4346.9285098,N,07927.9561932,W,4,09,1.2,189.668,M,-37.20,M,00,0000*6E
$GPGGA,212938.75,4346.9285285,N,07927.9560249,W,4,09,1.2,189.668,M,-37.20,M,00,0000*61
$GPGGA,212939.00,4346.9285513,N,07927.9558665,W,4,09,1.2,189.681,M,-37.20,M,01,0000*6D
$GPGGA,212939.25,4346.9285704,N,07927.9557124,W,4,09,1.2,189.693,M,-37.20,M,00,0000*61
$GPGGA,212939.50,4346.9285913,N,07927.9555562,W,4,09,1.2,189.720,M,-37.20,M,00,0000*66
$GPGGA,212939.75,4346.9286084,N,07927.9553940,W,4,09,1.2,189.737,M,-37.20,M,00,0000*69
$GPGGA,212940.00,4346.9286274,N,07927.9552244,W,4,09,1.2,189.740,M,-37.20,M,01,0000*67
$GPGGA,212940.25,4346.9286512,N,07927.9550539,W,4,09,1.2,189.735,M,-37.20,M,00,0000*6B
$GPGGA,212940.50,4346.9286751,N,07927.9548880,W,4,09,1.2,189.744,M,-37.20,M,00,0000*6C
$GPGGA,212940.75,4346.9286983,N,07927.9547169,W,4,09,1.2,189.749,M,-37.20,M,00,0000*66
$GPGGA,212941.00,4346.9287205,N,07927.9545529,W,4,09,1.2,189.764,M,-37.20,M,01,0000*6D
$GPGGA,212941.25,4346.9287423,N,07927.9543840,W,4,09,1.2,189.771,M,-37.20,M,00,0000*69
$GPGGA,212941.50,4346.9287651,N,07927.9542195,W,4,09,1.2,189.776,M,-37.20,M,00,0000*6B
$GPGGA,212941.75,4346.9287894,N,07927.9540560,W,4,09,1.2,189.800,M,-37.20,M,00,0000*69
$GPGGA,212942.00,4346.9288131,N,07927.9538898,W,4,09,1.2,189.807,M,-37.20,M,01,0000*62
$GPGGA,212942.25,4346.9288421,N,07927.9537209,W,4,09,1.2,189.813,M,-37.20,M,00,0000*68
$GPGGA,212942.50,4346.9288648,N,07927.9535575,W,4,09,1.2,189.817,M,-37.20,M,00,0000*6D
$GPGGA,212942.75,4346.9288935,N,07927.9533915,W,4,09,1.2,189.838,M,-37.20,M,00,0000*6E
$GPGGA,212943.00,4346.9289191,N,07927.9532272,W,4,09,1.2,189.842,M,-37.20,M,01,0000*6D
$GPGGA,212943.25,4346.9289431,N,07927.9530604,W,4,09,1.2,189.849,M,-37.20,M,00,0000*68
$GPGGA,212943.50,4346.9289679,N,07927.9528950,W,4,08,1.2,189.858,M,-37.20,M,00,0000*62
$GPGGA,212943.75,4346.9289955,N,07927.9527339,W,4,08,1.2,189.863,M,-37.20,M,00,0000*66
$GPGGA,212944.00,4346.9290223,N,07927.9525661,W,4,08,1.2,189.868,M,-37.20,M,01,0000*61
$GPGGA,212944.25,4346.9290465,N,07927.9524013,W,4,08,1.2,189.862,M,-37.20,M,01,0000*6A
$GPGGA,212944.50,4346.9290752,N,07927.9522384,W,4,08,1.2,189.883,M,-37.20,M,01,0000*6B
$GPGGA,212944.75,4346.9291038,N,07927.9520670,W,4,08,1.2,189.892,M,-37.20,M,00,0000*6B
$GPGGA,212945.00,4346.9291340,N,07927.9519085,W,4,08,1.2,189.900,M,-37.20,M,01,0000*69
$GPGGA,212945.25,4346.9291613,N,07927.9517413,W,4,08,1.2,189.887,M,-37.20,M,00,0000*67
$GPGGA,212945.50,4346.9291884,N,07927.9515765,W,4,08,1.2,189.913,M,-37.20,M,00,0000*69
$GPGGA,212945.75,4346.9292202,N,07927.9514127,W,4,08,1.2,189.911,M,-37.20,M,00,0000*6A
$GPGGA,212946.00,4346.9292483,N,07927.9512449,W,4,08,1.2,189.914,M,-37.20,M,01,0000*6B
$GPGGA,212946.25,4346.9292782,N,07927.9510801,W,4,08,1.2,189.909,M,-37.20,M,00,0000*61
$GPGGA,212946.50,4346.9293059,N,07927.9509165,W,4,08,1.2,189.927,M,-37.20,M,00,0000*6C
$GPGGA,212946.75,4346.9293369,N,07927.9507508,W,4,08,1.2,189.918,M,-37.20,M,00,0000*66
$GPGGA,212947.00,4346.9293713,N,07927.9505883,W,4,08,1.2,189.937,M,-37.20,M,01,0000*6C
$GPGGA,212947.25,4346.9293985,N,07927.9504252,W,4,08,1.2,189.931,M,-37.20,M,00,0000*6A
$GPGGA,212947.50,4346.9294330,N,07927.9502626,W,4,08,1.2,189.941,M,-37.20,M,00,0000*6D
$GPGGA,212947.75,4346.9294673,N,07927.9500985,W,4,08,1.2,189.965,M,-37.20,M,00,0000*6A
$GPGGA,212948.00,4346.9294944,N,07927.9499340,W,4,08,1.2,189.949,M,-37.20,M,01,0000*61
$GPGGA,212948.25,4346.9295263,N,07927.9497680,W,4,08,1.2,189.951,M,-37.20,M,01,0000*67
$GPGGA,212948.50,4346.9295581,N,07927.9496043,W,4,08,1.2,189.949,M,-37.20,M,00,0000*6E
$GPGGA,212948.75,4346.9295834,N,07927.9494382,W,4,08,1.2,189.948,M,-37.20,M,00,0000*67
$GPGGA,212949.00,4346.9296154,N,07927.9492757,W,4,08,1.2,189.952,M,-37.20,M,01,0000*68
$GPGGA,212949.25,4346.9296431,N,07927.9491138,W,4,08,1.2,189.958,M,-37.20,M,01,0000*6F
$GPGGA,212949.50,4346.9296738,N,07927.9489521,W,4,08,1.2,189.965,M,-37.20,M,01,0000*6C
$GPGGA,212949.75,4346.9297011,N,07927.9487907,W,4,08,1.2,189.975,M,-37.20,M,01,0000*61
$GPGGA,212950.00,4346.9297261,N,07927.9486262,W,4,08,1.2,189.987,M,-37.20,M,02,0000*69
$GPGGA,212950.25,4346.9297481,N,07927.9484611,W,4,08,1.2,189.983,M,-37.20,M,02,0000*60
$GPGGA,212950.50,4346.9297702,N,07927.9482966,W,4,08,1.2,189.991,M,-37.20,M,02,0000*60
$GPGGA,212950.75,4346.9297866,N,07927.9481224,W,4,08,1.2,189.979,M,-37.20,M,02,0000*62
$GPGGA,212951.00,4346.9298148,N,07927.9479674,W,4,08,1.2,189.989,M,-37.20,M,02,0000*62
$GPGGA,212951.25,4346.9298357,N,07927.9477927,W,4,08,1.2,189.977,M,-37.20,M,02,0000*6F
$GPGGA,212951.50,4346.9298586,N,07927.9476337,W,4,08,1.2,189.997,M,-37.20,M,02,0000*63
$GPGGA,212951.75,4346.9298812,N,07927.9474692,W,4,08,1.2,190.008,M,-37.20,M,02,0000*6B
$GPGGA,212952.00,4346.9299040,N,07927.9473033,W,4,08,1.2,190.028,M,-37.20,M,02,0000*6C
$GPGGA,212952.25,4346.9299253,N,07927.9471357,W,4,08,1.2,190.027,M,-37.20,M,02,0000*67
$GPGGA,212952.50,4346.9299495,N,07927.9469658,W,4,08,1.2,190.044,M,-37.20,M,01,0000*6C
$GPGGA,212952.75,4346.9299764,N,07927.9467967,W,4,08,1.2,190.045,M,-37.20,M,01,0000*6A
$GPGGA,212953.00,4346.9299956,N,07927.9466346,W,4,08,1.2,190.045,M,-37.20,M,01,0000*6E
$GPGGA,212953.25,4346.9300229,N,07927.9464658,W,4,08,1.2,190.062,M,-37.20,M,01,0000*66
$GPGGA,212953.50,4346.9300421,N,07927.9463051,W,4,08,1.2,190.065,M,-37.20,M,01,0000*65
$GPGGA,212953.75,4346.9300658,N,07927.9461359,W,4,08,1.2,190.075,M,-37.20,M,01,0000*66
$GPGGA,212954.00,4346.9300924,N,07927.9459696,W,4,08,1.2,190.073,M,-37.20,M,02,0000*6F
$GPGGA,212954.25,4346.9301182,N,07927.9457988,W,4,08,1.2,190.077,M,-37.20,M,02,0000*67
$GPGGA,212954.50,4346.9301395,N,07927.9456260,W,4,08,1.2,190.059,M,-37.20,M,02,0000*61
$GPGGA,212954.75,4346.9301670,N,07927.9454526,W,4,08,1.2,190.076,M,-37.20,M,02,0000*62
$GPGGA,212955.00,4346.9301844,N,07927.9453061,W,4,08,1.2,190.095,M,-37.20,M,03,0000*65
$GPGGA,212955.25,4346.9302066,N,07927.9451349,W,4,08,1.2,190.098,M,-37.20,M,03,0000*6F
$GPGGA,212955.50,4346.9302210,N,07927.9449815,W,4,08,1.2,190.120,M,-37.20,M,03,0000*67
$GPGGA,212955.75,4346.9302258,N,07927.9448173,W,4,08,1.2,190.126,M,-37.20,M,03,0000*62
$GPGGA,212956.00,4346.9302352,N,07927.9446351,W,4,08,1.2,190.122,M,-37.20,M,04,0000*67
$GPGGA,212956.25,4346.9302331,N,07927.9444673,W,4,09,1.2,190.104,M,-37.20,M,01,0000*62
$GPGGA,212956.50,4346.9302436,N,07927.9442894,W,4,09,1.2,190.116,M,-37.20,M,01,0000*62
$GPGGA,212956.75,4346.9302513,N,07927.9441219,W,4,09,1.2,190.113,M,-37.20,M,00,0000*6B
$GPGGA,212957.00,4346.9302684,N,07927.9439530,W,4,09,1.2,190.123,M,-37.20,M,01,0000*64
$GPGGA,212957.25,4346.9302830,N,07927.9437820,W,4,09,1.2,190.122,M,-37.20,M,01,0000*61
$GPGGA,212957.50,4346.9302933,N,07927.9436173,W,4,09,1.2,190.152,M,-37.20,M,00,0000*69
$GPGGA,212957.75,4346.9303034,N,07927.9434499,W,4,09,1.2,190.152,M,-37.20,M,00,0000*62
$GPGGA,212958.00,4346.9303100,N,07927.9432773,W,4,09,1.2,190.139,M,-37.20,M,01,0000*64
$GPGGA,212958.25,4346.9303214,N,07927.9431085,W,4,09,1.2,190.109,M,-37.20,M,00,0000*6A
$GPGGA,212958.50,4346.9303287,N,07927.9429347,W,4,09,1.2,190.100,M,-37.20,M,00,0000*6F
$GPGGA,212958.75,4346.9303413,N,07927.9427639,W,4,09,1.2,190.104,M,-37.20,M,00,0000*65
$GPGGA,212959.00,4346.9303526,N,07927.9425946,W,4,09,1.2,190.098,M,-37.20,M,01,0000*61
$GPGGA,212959.25,4346.9303567,N,07927.9424368,W,4,09,1.2,190.114,M,-37.20,M,00,0000*60
$GPGGA,212959.50,4346.9303665,N,07927.9422721,W,4,09,1.2,190.127,M,-37.20,M,00,0000*6C
$GPGGA,212959.75,4346.9303718,N,07927.9421123,W,4,09,1.2,190.142,M,-37.20,M,00,0000*64
$GPGGA,213000.00,4346.9303821,N,07927.9419438,W,4,09,1.2,190.141,M,-37.20,M,01,0000*61
$GPGGA,213000.25,4346.9303897,N,07927.9417652,W,4,09,1.2,190.138,M,-37.20,M,00,0000*64
$GPGGA,213000.50,4346.9303930,N,07927.9415946,W,4,09,1.2,190.118,M,-37.20,M,00,0000*60
$GPGGA,213000.75,4346.9304009,N,07927.9414140,W,4,08,1.2,190.137,M,-37.20,M,00,0000*60
$GPGGA,213001.00,4346.9304062,N,07927.9412399,W,4,08,1.2,190.132,M,-37.20,M,01,0000*6A
$GPGGA,213001.25,4346.9304131,N,07927.9410690,W,4,08,1.2,190.139,M,-37.20,M,00,0000*6E
$GPGGA,213001.50,4346.9304221,N,07927.9409035,W,4,08,1.2,190.134,M,-37.20,M,00,0000*62
$GPGGA,213001.75,4346.9304275,N,07927.9407421,W,4,08,1.3,190.139,M,-37.20,M,00,0000*67
$GPGGA,213002.00,4346.9304370,N,07927.9405719,W,4,08,1.3,190.150,M,-37.20,M,01,0000*66
$GPGGA,213002.25,4346.9304505,N,07927.9404037,W,4,08,1.3,190.153,M,-37.20,M,00,0000*6D
$GPGGA,213002.50,4346.9304582,N,07927.9402296,W,4,08,1.3,190.136,M,-37.20,M,00,0000*6C
$GPGGA,213002.75,4346.9304678,N,07927.9400563,W,4,08,1.0,190.137,M,-37.20,M,00,0000*60
$GPGGA,213003.00,4346.9304756,N,07927.9398837,W,4,08,1.0,190.135,M,-37.20,M,01,0000*67
$GPGGA,213003.25,4346.9304892,N,07927.9397175,W,4,08,1.0,190.149,M,-37.20,M,01,0000*6C
$GPGGA,213003.50,4346.9304967,N,07927.9395460,W,4,08,1.0,190.154,M,-37.20,M,00,0000*6B
$GPGGA,213003.75,4346.9305070,N,07927.9393827,W,4,08,1.0,190.170,M,-37.20,M,00,0000*6D
$GPGGA,213004.00,4346.9305195,N,07927.9392109,W,4,08,1.0,190.171,M,-37.20,M,01,0000*66
$GPGGA,213004.25,4346.9305208,N,07927.9390361,W,4,09,0.9,190.164,M,-37.20,M,00,0000*64
$GPGGA,213004.50,4346.9305388,N,07927.9388771,W,4,09,0.9,190.169,M,-37.20,M,00,0000*6E
$GPGGA,213004.75,4346.9305506,N,07927.9387064,W,4,09,0.9,190.173,M,-37.20,M,00,0000*6E
$GPGGA,213005.00,4346.9305625,N,07927.9385384,W,4,09,0.9,190.177,M,-37.20,M,01,0000*65
$GPGGA,213005.25,4346.9305735,N,07927.9383740,W,4,09,0.9,190.176,M,-37.20,M,00,0000*68
$GPGGA,213005.50,4346.9305967,N,07927.9382116,W,4,09,0.9,190.177,M,-37.20,M,00,0000*66
$GPGGA,213005.75,4346.9306196,N,07927.9380471,W,4,09,0.9,190.183,M,-37.20,M,00,0000*69
$GPGGA,213006.00,4346.9306455,N,07927.9378888,W,4,09,0.9,190.177,M,-37.20,M,01,0000*65
$GPGGA,213006.25,4346.9306724,N,07927.9377327,W,4,09,0.9,190.191,M,-37.20,M,01,0000*6E
$GPGGA,213006.50,4346.9306979,N,07927.9375684,W,4,09,0.9,190.211,M,-37.20,M,00,0000*6E
$GPGGA,213006.75,4346.9307167,N,07927.9374111,W,4,09,0.9,190.219,M,-37.20,M,00,0000*6D
$GPGGA,213007.00,4346.9307393,N,07927.9372605,W,4,09,0.9,190.224,M,-37.20,M,01,0000*6C
$GPGGA,213007.25,4346.9307593,N,07927.9371037,W,4,09,0.9,190.216,M,-37.20,M,01,0000*68
$GPGGA,213007.50,4346.9307844,N,07927.9369376,W,4,09,0.9,190.237,M,-37.20,M,01,0000*61
$GPGGA,213007.75,4346.9308149,N,07927.9367836,W,4,09,0.9,190.224,M,-37.20,M,00,0000*6F
$GPGGA,213008.00,4346.9308510,N,07927.9366171,W,4,09,0.9,190.218,M,-37.20,M,01,0000*6F
$GPGGA,213008.25,4346.9308814,N,07927.9364662,W,4,09,0.9,190.224,M,-37.20,M,01,0000*69
$GPGGA,213008.50,4346.9309226,N,07927.9363160,W,4,09,0.9,190.213,M,-37.20,M,01,0000*67
$GPGGA,213008.75,4346.9309604,N,07927.9361566,W,4,09,0.9,190.214,M,-37.20,M,00,0000*62
$GPGGA,213009.00,4346.9309896,N,07927.9360052,W,4,09,0.9,190.217,M,-37.20,M,01,0000*65
$GPGGA,213009.25,4346.9310310,N,07927.9358449,W,4,09,0.9,190.205,M,-37.20,M,00,0000*68
$GPGGA,213009.50,4346.9310644,N,07927.9356881,W,4,09,0.9,190.207,M,-37.20,M,00,0000*6A
$GPGGA,213009.75,4346.9311051,N,07927.9355397,W,4,09,0.9,190.213,M,-37.20,M,00,0000*64
$GPGGA,213010.00,4346.9311431,N,07927.9353811,W,4,09,0.9,190.219,M,-37.20,M,01,0000*64
$GPGGA,213010.25,4346.9311879,N,07927.9352277,W,4,09,0.9,190.222,M,-37.20,M,00,0000*61
$GPGGA,213010.50,4346.9312336,N,07927.9350650,W,4,09,0.9,190.218,M,-37.20,M,00,0000*6A
$GPGGA,213010.75,4346.9312723,N,07927.9349056,W,4,09,0.9,190.215,M,-37.20,M,00,0000*68
$GPGGA,213011.00,4346.9313200,N,07927.9347511,W,4,09,0.9,190.210,M,-37.20,M,01,0000*62
$GPGGA,213011.25,4346.9313527,N,07927.9345946,W,4,09,0.9,190.222,M,-37.20,M,00,0000*6B
$GPGGA,213011.50,4346.9313933,N,07927.9344394,W,4,09,0.9,190.222,M,-37.20,M,00,0000*64
$GPGGA,213011.75,4346.9314373,N,07927.9342898,W,4,09,0.9,190.230,M,-37.20,M,00,0000*68
$GPGGA,213012.00,4346.9314791,N,07927.9341310,W,4,09,0.9,190.228,M,-37.20,M,01,0000*61
$GPGGA,213012.25,4346.9315190,N,07927.9339661,W,4,09,0.9,190.230,M,-37.20,M,00,0000*64
$GPGGA,213012.50,4346.9315549,N,07927.9338058,W,4,08,0.9,190.242,M,-37.20,M,00,0000*6F
$GPGGA,213012.75,4346.9315831,N,07927.9336404,W,4,08,1.2,190.210,M,-37.20,M,00,0000*64
$GPGGA,213013.00,4346.9316159,N,07927.9334823,W,4,08,1.2,190.198,M,-37.20,M,01,0000*6A
$GPGGA,213013.25,4346.9316497,N,07927.9333146,W,4,08,1.2,190.226,M,-37.20,M,00,0000*60
$GPGGA,213013.50,4346.9316841,N,07927.9331531,W,4,08,1.2,190.210,M,-37.20,M,00,0000*66
$GPGGA,213013.75,4346.9317204,N,07927.9329946,W,4,08,1.2,190.225,M,-37.20,M,00,0000*68
$GPGGA,213014.00,4346.9317562,N,07927.9328326,W,4,08,1.2,190.221,M,-37.20,M,01,0000*62
$GPGGA,213014.25,4346.9317927,N,07927.9326714,W,4,08,1.2,190.228,M,-37.20,M,00,0000*6B
$GPGGA,213014.50,4346.9318251,N,07927.9325063,W,4,08,1.2,190.230,M,-37.20,M,00,0000*61
$GPGGA,213014.75,4346.9318585,N,07927.9323444,W,4,08,1.2,190.223,M,-37.20,M,00,0000*6D
$GPGGA,213015.00,4346.9318925,N,07927.9321865,W,4,08,1.2,190.215,M,-37.20,M,01,0000*61
$GPGGA,213015.25,4346.9319295,N,07927.9320203,W,4,09,0.9,190.230,M,-37.20,M,00,0000*61
$GPGGA,213015.50,4346.9319595,N,07927.9318619,W,4,09,0.9,190.244,M,-37.20,M,00,0000*63
$GPGGA,213015.75,4346.9319947,N,07927.9316989,W,4,09,0.9,190.226,M,-37.20,M,00,0000*6B
$GPGGA,213016.00,4346.9320254,N,07927.9315374,W,4,09,0.9,190.240,M,-37.20,M,01,0000*63
$GPGGA,213016.25,4346.9320653,N,07927.9313735,W,4,09,0.9,190.229,M,-37.20,M,00,0000*6E
$GPGGA,213016.50,4346.9320972,N,07927.9312133,W,4,08,0.9,190.227,M,-37.20,M,00,0000*6E
$GPGGA,213016.75,4346.9321313,N,07927.9310468,W,4,08,1.2,190.234,M,-37.20,M,00,0000*64
$GPGGA,213017.00,4346.9321625,N,07927.9308877,W,4,08,1.2,190.224,M,-37.20,M,01,0000*6C
$GPGGA,213017.25,4346.9322025,N,07927.9307153,W,4,09,0.9,190.218,M,-37.20,M,00,0000*6B
$GPGGA,213017.50,4346.9322324,N,07927.9305579,W,4,09,0.9,190.219,M,-37.20,M,00,0000*64
$GPGGA,213017.75,4346.9322635,N,07927.9303994,W,4,09,0.9,190.224,M,-37.20,M,00,0000*61
$GPGGA,213018.00,4346.9322967,N,07927.9302352,W,4,09,0.9,190.231,M,-37.20,M,01,0000*60
$GPGGA,213018.25,4346.9323326,N,07927.9300714,W,4,09,0.9,190.230,M,-37.20,M,00,0000*6D
$GPGGA,213018.50,4346.9323647,N,07927.9299093,W,4,09,0.9,190.228,M,-37.20,M,00,0000*6D
$GPGGA,213018.75,4346.9323984,N,07927.9297438,W,4,09,0.9,190.219,M,-37.20,M,00,0000*63
$GPGGA,213019.00,4346.9324304,N,07927.9295841,W,4,09,0.9,190.232,M,-37.20,M,01,0000*6D
$GPGGA,213019.25,4346.9324636,N,07927.9294204,W,4,09,0.9,190.210,M,-37.20,M,00,0000*65
$GPGGA,213019.50,4346.9324972,N,07927.9292571,W,4,09,0.9,190.230,M,-37.20,M,00,0000*69
$GPGGA,213019.75,4346.9325292,N,07927.9290954,W,4,09,0.9,190.229,M,-37.20,M,00,0000*6B
$GPGGA,213020.00,4346.9325579,N,07927.9289330,W,4,09,0.9,190.214,M,-37.20,M,01,0000*6E
$GPGGA,213020.25,4346.9325955,N,07927.9287627,W,4,09,0.9,190.212,M,-37.20,M,00,0000*61
$GPGGA,213020.50,4346.9326289,N,07927.9285959,W,4,08,0.9,190.196,M,-37.20,M,00,0000*60
$GPGGA,213020.75,4346.9326673,N,07927.9284336,W,4,08,1.2,190.211,M,-37.20,M,00,0000*62
$GPGGA,213021.00,4346.9326996,N,07927.9282759,W,4,08,1.2,190.225,M,-37.20,M,01,0000*68
$GPGGA,213021.25,4346.9327348,N,07927.9281219,W,4,08,1.2,190.195,M,-37.20,M,00,0000*6C
$GPGGA,213021.50,4346.9327761,N,07927.9279678,W,4,08,1.2,190.219,M,-37.20,M,00,0000*62
$GPGGA,213021.75,4346.9328085,N,07927.9278058,W,4,08,1.2,190.213,M,-37.20,M,00,0000*68
$GPGGA,213022.00,4346.9328446,N,07927.9276431,W,4,08,1.2,190.202,M,-37.20,M,01,0000*66
$GPGGA,213022.25,4346.9328786,N,07927.9274810,W,4,08,1.2,190.196,M,-37.20,M,00,0000*6C
$GPGGA,213022.50,4346.9329132,N,07927.9273184,W,4,08,1.2,190.196,M,-37.20,M,00,0000*65
$GPGGA,213022.75,4346.9329526,N,07927.9271569,W,4,08,1.2,190.193,M,-37.20,M,00,0000*63
$GPGGA,213023.00,4346.9329869,N,07927.9269960,W,4,08,1.2,190.184,M,-37.20,M,01,0000*6D
$GPGGA,213023.25,4346.9330210,N,07927.9268330,W,4,08,1.2,190.205,M,-37.20,M,00,0000*63
$GPGGA,213023.50,4346.9330524,N,07927.9266752,W,4,08,1.2,190.219,M,-37.20,M,00,0000*62
$GPGGA,213023.75,4346.9330916,N,07927.9265141,W,4,08,1.2,190.205,M,-37.20,M,00,0000*62
$GPGGA,213024.00,4346.9331227,N,07927.9263546,W,4,08,1.2,190.214,M,-37.20,M,01,0000*6B
$GPGGA,213024.25,4346.9331599,N,07927.9261865,W,4,08,1.2,190.178,M,-37.20,M,00,0000*68
$GPGGA,213024.50,4346.9331956,N,07927.9260247,W,4,08,1.2,190.182,M,-37.20,M,00,0000*6B
$GPGGA,213024.75,4346.9332311,N,07927.9258622,W,4,08,1.2,190.196,M,-37.20,M,00,0000*6F
$GPGGA,213025.00,4346.9332647,N,07927.9257043,W,4,08,1.2,190.174,M,-37.20,M,01,0000*69
$GPGGA,213025.25,4346.9332947,N,07927.9255456,W,4,08,1.2,190.182,M,-37.20,M,00,0000*6B
$GPGGA,213025.50,4346.9333309,N,07927.9253805,W,4,08,1.2,190.178,M,-37.20,M,00,0000*61
$GPGGA,213025.75,4346.9333707,N,07927.9252197,W,4,08,0.9,190.181,M,-37.20,M,00,0000*63
$GPGGA,213026.00,4346.9334049,N,07927.9250581,W,4,08,0.9,190.190,M,-37.20,M,01,0000*68
$GPGGA,213026.25,4346.9334411,N,07927.9248975,W,4,09,0.9,190.186,M,-37.20,M,00,0000*6F
$GPGGA,213026.50,4346.9334761,N,07927.9247389,W,4,09,0.9,190.191,M,-37.20,M,00,0000*69
$GPGGA,213026.75,4346.9335136,N,07927.9245714,W,4,09,0.9,190.186,M,-37.20,M,00,0000*6F
$GPGGA,213027.00,4346.9335489,N,07927.9244189,W,4,09,0.9,190.190,M,-37.20,M,01,0000*68
$GPGGA,213027.25,4346.9335842,N,07927.9242543,W,4,09,0.9,190.193,M,-37.20,M,00,0000*62
$GPGGA,213027.50,4346.9336209,N,07927.9240971,W,4,09,0.9,190.179,M,-37.20,M,00,0000*6D
$GPGGA,213027.75,4346.9336587,N,07927.9239331,W,4,09,0.9,190.194,M,-37.20,M,00,0000*68
$GPGGA,213028.00,4346.9336969,N,07927.9237705,W,4,09,0.9,190.180,M,-37.20,M,01,0000*60
$GPGGA,213028.25,4346.9337369,N,07927.9236036,W,4,09,0.9,190.173,M,-37.20,M,00,0000*67
$GPGGA,213028.50,4346.9337686,N,07927.9234426,W,4,09,0.9,190.162,M,-37.20,M,00,0000*66
$GPGGA,213028.75,4346.9338044,N,07927.9232855,W,4,09,0.9,190.150,M,-37.20,M,00,0000*69
$GPGGA,213029.00,4346.9338433,N,07927.9231276,W,4,09,0.9,190.165,M,-37.20,M,01,0000*61
$GPGGA,213029.25,4346.9338828,N,07927.9229686,W,4,09,0.9,190.167,M,-37.20,M,00,0000*61
$GPGGA,213029.50,4346.9339129,N,07927.9228093,W,4,09,0.9,190.160,M,-37.20,M,00,0000*6E
$GPGGA,213029.75,4346.9339581,N,07927.9226481,W,4,09,0.9,190.166,M,-37.20,M,00,0000*60
$GPGGA,213030.00,4346.9339915,N,07927.9224844,W,4,08,0.9,190.166,M,-37.20,M,01,0000*6C
$GPGGA,213030.25,4346.9340282,N,07927.9223275,W,4,08,1.2,190.166,M,-37.20,M,00,0000*64
$GPGGA,213030.50,4346.9340675,N,07927.9221623,W,4,08,1.2,190.174,M,-37.20,M,00,0000*6C
$GPGGA,213030.75,4346.9341005,N,07927.9220029,W,4,08,1.2,190.131,M,-37.20,M,00,0000*67
$GPGGA,213031.00,4346.9341419,N,07927.9218446,W,4,08,1.2,190.148,M,-37.20,M,01,0000*64
$GPGGA,213031.25,4346.9341803,N,07927.9216771,W,4,08,1.2,190.133,M,-37.20,M,00,0000*60
$GPGGA,213031.50,4346.9342107,N,07927.9215155,W,4,08,1.2,190.142,M,-37.20,M,00,0000*69
$GPGGA,213031.75,4346.9342425,N,07927.9213553,W,4,08,1.2,190.138,M,-37.20,M,00,0000*62
$GPGGA,213032.00,4346.9342724,N,07927.9211885,W,4,08,1.2,190.144,M,-37.20,M,01,0000*6F
$GPGGA,213032.25,4346.9342969,N,07927.9210230,W,4,08,1.2,190.122,M,-37.20,M,00,0000*6B
$GPGGA,213032.50,4346.9343251,N,07927.9208566,W,4,08,1.2,190.125,M,-37.20,M,00,0000*62
$GPGGA,213032.75,4346.9343517,N,07927.9206933,W,4,08,1.2,190.120,M,-37.20,M,00,0000*67
$GPGGA,213033.00,4346.9343817,N,07927.9205300,W,4,08,1.2,190.112,M,-37.20,M,01,0000*60
$GPGGA,213033.25,4346.9344119,N,07927.9203637,W,4,08,1.2,190.128,M,-37.20,M,00,0000*68
$GPGGA,213033.50,4346.9344393,N,07927.9202025,W,4,08,1.2,190.130,M,-37.20,M,00,0000*67
$GPGGA,213033.75,4346.9344628,N,07927.9200449,W,4,08,1.2,190.131,M,-37.20,M,00,0000*68
$GPGGA,213034.00,4346.9344918,N,07927.9198799,W,4,08,1.2,190.130,M,-37.20,M,01,0000*6D
$GPGGA,213034.25,4346.9345134,N,07927.9197118,W,4,08,1.2,190.122,M,-37.20,M,00,0000*6F
$GPGGA,213034.50,4346.9345457,N,07927.9195440,W,4,08,1.2,190.112,M,-37.20,M,00,0000*64
$GPGGA,213034.75,4346.9345730,N,07927.9193849,W,4,08,1.2,190.119,M,-37.20,M,00,0000*69
$GPGGA,213035.00,4346.9345977,N,07927.9192219,W,4,08,1.2,190.113,M,-37.20,M,01,0000*62
$GPGGA,213035.25,4346.9346236,N,07927.9190552,W,4,08,1.2,190.149,M,-37.20,M,00,0000*6C
$GPGGA,213035.50,4346.9346490,N,07927.9188911,W,4,08,1.2,190.138,M,-37.20,M,00,0000*60
$GPGGA,213035.75,4346.9346730,N,07927.9187239,W,4,08,1.2,190.132,M,-37.20,M,00,0000*6A
$GPGGA,213036.00,4346.9347044,N,07927.9185565,W,4,08,1.2,190.129,M,-37.20,M,01,0000*69
$GPGGA,213036.25,4346.9347256,N,07927.9183919,W,4,08,1.2,190.119,M,-37.20,M,00,0000*6C
$GPGGA,213036.50,4346.9347550,N,07927.9182241,W,4,08,1.2,190.116,M,-37.20,M,00,0000*67
$GPGGA,213036.75,4346.9347784,N,07927.9180589,W,4,08,1.2,190.104,M,-37.20,M,00,0000*69
$GPGGA,213037.00,4346.9348053,N,07927.9178948,W,4,08,1.2,190.122,M,-37.20,M,01,0000*6B
$GPGGA,213037.25,4346.9348327,N,07927.9177270,W,4,08,1.2,190.116,M,-37.20,M,00,0000*65
$GPGGA,213037.50,4346.9348533,N,07927.9175695,W,4,08,1.2,190.105,M,-37.20,M,00,0000*6B
$GPGGA,213037.75,4346.9348824,N,07927.9173985,W,4,08,1.2,190.119,M,-37.20,M,00,0000*62
$GPGGA,213038.00,4346.9349108,N,07927.9172369,W,4,08,1.2,190.104,M,-37.20,M,01,0000*6D
$GPGGA,213038.25,4346.9349325,N,07927.9170693,W,4,08,1.2,190.106,M,-37.20,M,00,0000*66
$GPGGA,213038.50,4346.9349626,N,07927.9169016,W,4,08,1.2,190.099,M,-37.20,M,00,0000*66
$GPGGA,213038.75,4346.9349983,N,07927.9167343,W,4,08,1.2,190.115,M,-37.20,M,00,0000*69
$GPGGA,213039.00,4346.9350252,N,07927.9165729,W,4,08,1.2,190.107,M,-37.20,M,01,0000*6D
$GPGGA,213039.25,4346.9350537,N,07927.9164166,W,4,08,1.2,190.072,M,-37.20,M,00,0000*60
$GPGGA,213039.50,4346.9350846,N,07927.9162521,W,4,08,1.2,190.085,M,-37.20,M,00,0000*60
$GPGGA,213039.75,4346.9351165,N,07927.9160886,W,4,08,1.2,190.088,M,-37.20,M,00,0000*61
$GPGGA,213040.00,4346.9351497,N,07927.9159290,W,4,08,1.2,190.096,M,-37.20,M,01,0000*6C
$GPGGA,213040.25,4346.9351760,N,07927.9157712,W,4,08,1.2,190.089,M,-37.20,M,00,0000*6E
$GPGGA,213040.50,4346.9352121,N,07927.9156061,W,4,08,1.2,190.092,M,-37.20,M,00,0000*64
$GPGGA,213040.75,4346.9352478,N,07927.9154435,W,4,08,1.2,190.095,M,-37.20,M,00,0000*6A
$GPGGA,213041.00,4346.9352794,N,07927.9152846,W,4,08,1.2,190.082,M,-37.20,M,01,0000*61
$GPGGA,213041.25,4346.9353167,N,07927.9151237,W,4,08,1.2,190.074,M,-37.20,M,00,0000*6A
$GPGGA,213041.50,4346.9353491,N,07927.9149646,W,4,08,1.2,190.068,M,-37.20,M,00,0000*62
$GPGGA,213041.75,4346.9353833,N,07927.9148029,W,4,08,1.2,190.071,M,-37.20,M,00,0000*67
$GPGGA,213042.00,4346.9354157,N,07927.9146419,W,4,08,1.2,190.060,M,-37.20,M,01,0000*62
$GPGGA,213042.25,4346.9354509,N,07927.9144775,W,4,09,0.9,190.062,M,-37.20,M,01,0000*68
$GPGGA,213042.50,4346.9354815,N,07927.9143212,W,4,09,0.9,190.040,M,-37.20,M,01,0000*69
$GPGGA,213042.75,4346.9355193,N,07927.9141571,W,4,08,0.9,190.061,M,-37.20,M,00,0000*6B
$GPGGA,213043.00,4346.9355572,N,07927.9140009,W,4,08,0.9,190.062,M,-37.20,M,01,0000*6A
$GPGGA,213043.25,4346.9355923,N,07927.9138340,W,4,08,1.2,190.055,M,-37.20,M,01,0000*6A
$GPGGA,213043.50,4346.9356271,N,07927.9136764,W,4,08,1.2,190.043,M,-37.20,M,01,0000*6C
$GPGGA,213043.75,4346.9356689,N,07927.9135136,W,4,08,1.2,190.047,M,-37.20,M,01,0000*6E
$GPGGA,213044.00,4346.9357044,N,07927.9133516,W,4,08,1.2,190.036,M,-37.20,M,02,0000*68
$GPGGA,213044.25,4346.9357445,N,07927.9131901,W,4,08,1.2,190.039,M,-37.20,M,02,0000*6D
$GPGGA,213044.50,4346.9357737,N,07927.9130301,W,4,08,1.2,190.025,M,-37.20,M,02,0000*6F
$GPGGA,213044.75,4346.9358162,N,07927.9128664,W,4,08,1.2,190.021,M,-37.20,M,02,0000*6A
$GPGGA,213045.00,4346.9358533,N,07927.9127112,W,4,08,1.2,190.049,M,-37.20,M,02,0000*6E
$GPGGA,213045.25,4346.9358932,N,07927.9125467,W,4,08,1.2,190.043,M,-37.20,M,02,0000*6B
$GPGGA,213045.50,4346.9359260,N,07927.9123901,W,4,08,1.2,190.036,M,-37.20,M,02,0000*6D
$GPGGA,213045.75,4346.9359679,N,07927.9122291,W,4,08,1.2,190.044,M,-37.20,M,02,0000*60
$GPGGA,213046.00,4346.9360053,N,07927.9120674,W,4,08,1.2,190.038,M,-37.20,M,03,0000*62
$GPGGA,213046.25,4346.9360439,N,07927.9119058,W,4,08,1.2,190.018,M,-37.20,M,03,0000*6D
$GPGGA,213046.50,4346.9360802,N,07927.9117448,W,4,08,1.2,190.009,M,-37.20,M,03,0000*60
$GPGGA,213046.75,4346.9361237,N,07927.9115800,W,4,08,1.2,189.986,M,-37.20,M,02,0000*6F
$GPGGA,213047.00,4346.9361580,N,07927.9114287,W,4,08,1.2,189.986,M,-37.20,M,03,0000*62
$GPGGA,213047.25,4346.9361984,N,07927.9112634,W,4,09,0.9,189.968,M,-37.20,M,03,0000*6C
$GPGGA,213047.50,4346.9362394,N,07927.9111095,W,4,09,0.9,189.986,M,-37.20,M,03,0000*68
$GPGGA,213047.75,4346.9362813,N,07927.9109496,W,4,09,0.9,189.989,M,-37.20,M,03,0000*6A
$GPGGA,213048.00,4346.9363206,N,07927.9107873,W,4,09,0.9,189.964,M,-37.20,M,03,0000*62
$GPGGA,213048.25,4346.9363585,N,07927.9106296,W,4,09,0.9,189.955,M,-37.20,M,03,0000*6B
$GPGGA,213048.50,4346.9363983,N,07927.9104648,W,4,09,0.9,189.951,M,-37.20,M,02,0000*63
$GPGGA,213048.75,4346.9364418,N,07927.9103048,W,4,09,0.9,189.945,M,-37.20,M,02,0000*68
$GPGGA,213049.00,4346.9364794,N,07927.9101491,W,4,09,0.9,189.959,M,-37.20,M,02,0000*63
$GPGGA,213049.25,4346.9365230,N,07927.9099849,W,4,09,0.9,189.944,M,-37.20,M,02,0000*6B
$GPGGA,213049.50,4346.9365597,N,07927.9098306,W,4,09,0.9,189.941,M,-37.20,M,02,0000*67
$GPGGA,213049.75,4346.9366022,N,07927.9096717,W,4,09,0.9,189.948,M,-37.20,M,02,0000*6B
$GPGGA,213050.00,4346.9366354,N,07927.9095208,W,4,09,0.9,189.948,M,-37.20,M,02,0000*6B
$GPGGA,213050.25,4346.9366820,N,07927.9093629,W,4,09,0.9,189.945,M,-37.20,M,02,0000*68
$GPGGA,213050.50,4346.9367196,N,07927.9092077,W,4,09,0.9,189.925,M,-37.20,M,02,0000*65
$GPGGA,213050.75,4346.9367638,N,07927.9090472,W,4,09,0.9,189.935,M,-37.20,M,02,0000*63
$GPGGA,213051.00,4346.9368108,N,07927.9088905,W,4,09,0.9,189.926,M,-37.20,M,02,0000*6D
$GPGGA,213051.25,4346.9368552,N,07927.9087278,W,4,09,0.9,189.897,M,-37.20,M,02,0000*64
$GPGGA,213051.50,4346.9369013,N,07927.9085725,W,4,09,0.9,189.913,M,-37.20,M,01,0000*66
$GPGGA,213051.75,4346.9369423,N,07927.9084175,W,4,09,0.9,189.904,M,-37.20,M,01,0000*62
$GPGGA,213052.00,4346.9369854,N,07927.9082613,W,4,09,0.9,189.906,M,-37.20,M,01,0000*6C
$GPGGA,213052.25,4346.9370269,N,07927.9080994,W,4,09,0.9,189.911,M,-37.20,M,01,0000*63
$GPGGA,213052.50,4346.9370680,N,07927.9079433,W,4,09,0.9,189.900,M,-37.20,M,01,0000*64
$GPGGA,213052.75,4346.9371069,N,07927.9077861,W,4,09,0.9,189.883,M,-37.20,M,00,0000*6D
$GPGGA,213053.00,4346.9371489,N,07927.9076330,W,4,09,0.9,189.898,M,-37.20,M,01,0000*61
$GPGGA,213053.25,4346.9371844,N,07927.9074632,W,4,09,0.9,189.872,M,-37.20,M,00,0000*6B
$GPGGA,213053.50,4346.9372193,N,07927.9073104,W,4,09,0.9,189.868,M,-37.20,M,00,0000*67
$GPGGA,213053.75,4346.9372655,N,07927.9071492,W,4,09,0.9,189.875,M,-37.20,M,00,0000*69
$GPGGA,213054.00,4346.9373084,N,07927.9069876,W,4,09,0.9,189.861,M,-37.20,M,01,0000*6C
$GPGGA,213054.25,4346.9373418,N,07927.9068248,W,4,09,0.9,189.859,M,-37.20,M,00,0000*66
$GPGGA,213054.50,4346.9373738,N,07927.9066586,W,4,09,0.9,189.854,M,-37.20,M,00,0000*63
$GPGGA,213054.75,4346.9373994,N,07927.9064956,W,4,09,0.9,189.857,M,-37.20,M,00,0000*6C
$GPGGA,213055.00,4346.9374212,N,07927.9063336,W,4,09,0.9,189.854,M,-37.20,M,01,0000*64
$GPGGA,213055.25,4346.9374420,N,07927.9061747,W,4,09,0.9,189.852,M,-37.20,M,01,0000*62
$GPGGA,213055.50,4346.9374640,N,07927.9060009,W,4,09,0.9,189.829,M,-37.20,M,00,0000*65
$GPGGA,213055.75,4346.9374886,N,07927.9058343,W,4,09,0.9,189.846,M,-37.20,M,00,0000*69
$GPGGA,213056.00,4346.9375071,N,07927.9056684,W,4,09,0.9,189.843,M,-37.20,M,01,0000*6D
$GPGGA,213056.25,4346.9375232,N,07927.9055007,W,4,09,0.9,189.848,M,-37.20,M,00,0000*6B
$GPGGA,213056.50,4346.9375421,N,07927.9053370,W,4,09,0.9,189.839,M,-37.20,M,00,0000*6E
$GPGGA,213056.75,4346.9375567,N,07927.9051672,W,4,09,0.9,189.815,M,-37.20,M,00,0000*61
$GPGGA,213057.00,4346.9375770,N,07927.9049878,W,4,09,0.9,189.788,M,-37.20,M,01,0000*61
$GPGGA,213057.25,4346.9375938,N,07927.9048197,W,4,09,0.9,189.820,M,-37.20,M,00,0000*61
$GPGGA,213057.50,4346.9376113,N,07927.9046616,W,4,09,0.9,189.825,M,-37.20,M,00,0000*64
$GPGGA,213057.75,4346.9376243,N,07927.9045085,W,4,09,0.9,189.845,M,-37.20,M,00,0000*6C
$GPGGA,213058.00,4346.9376452,N,07927.9043494,W,4,09,0.9,189.840,M,-37.20,M,01,0000*61
$GPGGA,213058.25,4346.9376635,N,07927.9041801,W,4,09,0.9,189.829,M,-37.20,M,00,0000*69
$GPGGA,213058.50,4346.9376823,N,07927.9040050,W,4,09,0.9,189.795,M,-37.20,M,00,0000*67
$GPGGA,213058.75,4346.9376996,N,07927.9038369,W,4,09,0.9,189.805,M,-37.20,M,00,0000*6F
$GPGGA,213059.00,4346.9377151,N,07927.9036662,W,4,09,0.9,189.789,M,-37.20,M,01,0000*64
$GPGGA,213059.25,4346.9377303,N,07927.9034939,W,4,09,0.9,189.807,M,-37.20,M,00,0000*6D
$GPGGA,213059.50,4346.9377415,N,07927.9033263,W,4,09,0.9,189.796,M,-37.20,M,00,0000*6B
$GPGGA,213059.75,4346.9377498,N,07927.9031583,W,4,09,0.9,189.780,M,-37.20,M,00,0000*65
$GPGGA,213100.00,4346.9377634,N,07927.9029891,W,4,09,0.9,189.780,M,-37.20,M,01,0000*68
$GPGGA,213100.25,4346.9377728,N,07927.9028238,W,4,09,0.9,189.741,M,-37.20,M,00,0000*67
$GPGGA,213100.50,4346.9377887,N,07927.9026532,W,4,09,0.9,189.740,M,-37.20,M,00,0000*6D
$GPGGA,213100.75,4346.9378021,N,07927.9024857,W,4,09,0.9,189.740,M,-37.20,M,00,0000*6D
$GPGGA,213101.00,4346.9378151,N,07927.9023122,W,4,09,0.9,189.738,M,-37.20,M,01,0000*6A
$GPGGA,213101.25,4346.9378283,N,07927.9021383,W,4,09,0.9,189.757,M,-37.20,M,00,0000*62
$GPGGA,213101.50,4346.9378414,N,07927.9019762,W,4,09,0.9,189.752,M,-37.20,M,00,0000*6D
$GPGGA,213101.75,4346.9378441,N,07927.9018091,W,4,09,0.9,189.752,M,-37.20,M,00,0000*60
$GPGGA,213102.00,4346.9378434,N,07927.9016370,W,4,09,0.9,189.746,M,-37.20,M,01,0000*65
$GPGGA,213102.25,4346.9378390,N,07927.9014654,W,4,08,0.9,189.756,M,-37.20,M,00,0000*6B
$GPGGA,213102.50,4346.9378292,N,07927.9012840,W,4,08,0.9,189.758,M,-37.20,M,00,0000*69
$GPGGA,213102.75,4346.9378257,N,07927.9011135,W,4,08,1.0,189.762,M,-37.20,M,00,0000*6E
$GPGGA,213103.00,4346.9378143,N,07927.9009443,W,4,08,1.0,189.735,M,-37.20,M,01,0000*65
$GPGGA,213103.25,4346.9377986,N,07927.9007801,W,4,08,1.0,189.726,M,-37.20,M,00,0000*6B
$GPGGA,213103.50,4346.9377807,N,07927.9006149,W,4,08,1.0,189.723,M,-37.20,M,00,0000*60
$GPGGA,213103.75,4346.9377633,N,07927.9004434,W,4,08,1.0,189.722,M,-37.20,M,00,0000*62
$GPGGA,213104.00,4346.9377449,N,07927.9002793,W,4,08,1.0,189.711,M,-37.20,M,01,0000*61
$GPGGA,213104.25,4346.9377194,N,07927.9001002,W,4,08,1.0,189.699,M,-37.20,M,00,0000*6F
$GPGGA,213104.50,4346.9377032,N,07927.8999378,W,4,08,1.0,189.705,M,-37.20,M,00,0000*63
$GPGGA,213104.75,4346.9376855,N,07927.8997722,W,4,08,1.0,189.689,M,-37.20,M,00,0000*6C
$GPGGA,213105.00,4346.9376638,N,07927.8996004,W,4,08,1.0,189.681,M,-37.20,M,01,0000*61
$GPGGA,213105.25,4346.9376360,N,07927.8994335,W,4,08,1.0,189.719,M,-37.20,M,00,0000*6C
$GPGGA,213105.50,4346.9376127,N,07927.8992713,W,4,08,1.0,189.670,M,-37.20,M,00,0000*67
$GPGGA,213105.75,4346.9375900,N,07927.8990949,W,4,08,1.0,189.679,M,-37.20,M,00,0000*64
$GPGGA,213106.00,4346.9375638,N,07927.8989340,W,4,08,1.0,189.691,M,-37.20,M,01,0000*6D
$GPGGA,213106.25,4346.9375446,N,07927.8987767,W,4,08,1.0,189.684,M,-37.20,M,00,0000*6B
$GPGGA,213106.50,4346.9375235,N,07927.8986178,W,4,08,1.0,189.677,M,-37.20,M,00,0000*6E
$GPGGA,213106.75,4346.9374948,N,07927.8984523,W,4,08,1.0,189.676,M,-37.20,M,00,0000*60
$GPGGA,213107.00,4346.9374675,N,07927.8982907,W,4,08,1.0,189.674,M,-37.20,M,01,0000*6D
$GPGGA,213107.25,4346.9374471,N,07927.8981200,W,4,08,1.0,189.680,M,-37.20,M,00,0000*69
$GPGGA,213107.50,4346.9374215,N,07927.8979622,W,4,08,1.0,189.655,M,-37.20,M,00,0000*64
$GPGGA,213107.75,4346.9373966,N,07927.8977880,W,4,08,1.0,189.638,M,-37.20,M,00,0000*68
$GPGGA,213108.00,4346.9373668,N,07927.8976221,W,4,08,1.0,189.652,M,-37.20,M,01,0000*69
$GPGGA,213108.25,4346.9373431,N,07927.8974529,W,4,08,1.0,189.642,M,-37.20,M,01,0000*6C
$GPGGA,213108.50,4346.9373207,N,07927.8972880,W,4,08,1.0,189.644,M,-37.20,M,00,0000*62
$GPGGA,213108.75,4346.9372842,N,07927.8971209,W,4,08,1.0,189.624,M,-37.20,M,00,0000*61
$GPGGA,213109.00,4346.9372523,N,07927.8969610,W,4,08,1.0,189.629,M,-37.20,M,01,0000*61
$GPGGA,213109.25,4346.9372081,N,07927.8967939,W,4,08,1.0,189.663,M,-37.20,M,00,0000*6E
$GPGGA,213109.50,4346.9371737,N,07927.8966281,W,4,08,1.0,189.659,M,-37.20,M,00,0000*65
$GPGGA,213109.75,4346.9371349,N,07927.8964764,W,4,08,0.9,189.658,M,-37.20,M,00,0000*6A
$GPGGA,213110.00,4346.9370952,N,07927.8963144,W,4,08,0.9,189.629,M,-37.20,M,01,0000*65
$GPGGA,213110.25,4346.9370571,N,07927.8961428,W,4,08,0.9,189.714,M,-37.20,M,00,0000*6C
$GPGGA,213110.50,4346.9370211,N,07927.8959838,W,4,08,0.9,189.712,M,-37.20,M,00,0000*6F
$GPGGA,213110.75,4346.9369828,N,07927.8958172,W,4,08,0.9,189.695,M,-37.20,M,00,0000*68
$GPGGA,213111.00,4346.9369454,N,07927.8956650,W,4,08,0.9,189.693,M,-37.20,M,01,0000*62
$GPGGA,213111.25,4346.9369109,N,07927.8955058,W,4,08,1.2,189.679,M,-37.20,M,00,0000*6A
$GPGGA,213111.50,4346.9368721,N,07927.8953371,W,4,08,1.2,189.684,M,-37.20,M,00,0000*69
$GPGGA,213111.75,4346.9368340,N,07927.8951716,W,4,08,1.2,189.698,M,-37.20,M,00,0000*67
$GPGGA,213112.00,4346.9368004,N,07927.8950151,W,4,08,1.2,189.673,M,-37.20,M,01,0000*65
$GPGGA,213112.25,4346.9367625,N,07927.8948578,W,4,08,1.2,189.664,M,-37.20,M,00,0000*69
$GPGGA,213112.50,4346.9367292,N,07927.8946938,W,4,08,1.2,189.670,M,-37.20,M,00,0000*60
$GPGGA,213112.75,4346.9366948,N,07927.8945306,W,4,08,1.2,189.688,M,-37.20,M,00,0000*69
$GPGGA,213113.00,4346.9366551,N,07927.8943736,W,4,08,1.2,189.672,M,-37.20,M,01,0000*6B
$GPGGA,213113.25,4346.9366198,N,07927.8942078,W,4,08,1.2,189.646,M,-37.20,M,00,0000*67
$GPGGA,213113.50,4346.9365823,N,07927.8940473,W,4,08,1.2,189.634,M,-37.20,M,00,0000*67
$GPGGA,213113.75,4346.9365403,N,07927.8938842,W,4,08,1.2,189.627,M,-37.20,M,00,0000*6D
$GPGGA,213114.00,4346.9364999,N,07927.8937181,W,4,08,1.2,189.626,M,-37.20,M,01,0000*6E
$GPGGA,213114.25,4346.9364628,N,07927.8935594,W,4,07,1.2,189.619,M,-37.20,M,00,0000*6C
$GPGGA,213114.50,4346.9364131,N,07927.8934064,W,4,07,1.2,189.611,M,-37.20,M,00,0000*62
$GPGGA,213114.75,4346.9363691,N,07927.8932555,W,4,07,1.2,189.610,M,-37.20,M,00,0000*6F
$GPGGA,213115.00,4346.9363164,N,07927.8931052,W,4,07,1.2,189.615,M,-37.20,M,01,0000*64
$GPGGA,213115.25,4346.9362623,N,07927.8929486,W,4,07,1.3,189.628,M,-37.20,M,00,0000*6C
$GPGGA,213115.50,4346.9362044,N,07927.8927963,W,4,07,1.3,189.617,M,-37.20,M,00,0000*6D
$GPGGA,213115.75,4346.9361443,N,07927.8926416,W,4,07,1.3,189.633,M,-37.20,M,00,0000*62
$GPGGA,213116.00,4346.9360865,N,07927.8924954,W,4,07,1.3,189.630,M,-37.20,M,01,0000*61
$GPGGA,213116.25,4346.9360216,N,07927.8923657,W,4,07,1.3,189.580,M,-37.20,M,00,0000*6A
$GPGGA,213116.50,4346.9359597,N,07927.8922117,W,4,07,1.3,189.610,M,-37.20,M,00,0000*64
$GPGGA,213116.75,4346.9358949,N,07927.8920588,W,4,07,1.3,189.633,M,-37.20,M,00,0000*6C
$GPGGA,213117.00,4346.9358303,N,07927.8919200,W,4,07,1.3,189.607,M,-37.20,M,01,0000*60
$GPGGA,213117.25,4346.9357705,N,07927.8917822,W,4,07,1.3,189.558,M,-37.20,M,00,0000*66
$GPGGA,213117.50,4346.9356993,N,07927.8916442,W,4,07,1.3,189.543,M,-37.20,M,00,0000*65
$GPGGA,213117.75,4346.9356336,N,07927.8915000,W,4,07,1.3,189.531,M,-37.20,M,00,0000*63
$GPGGA,213118.00,4346.9355618,N,07927.8913597,W,4,07,1.3,189.537,M,-37.20,M,01,0000*6E
$GPGGA,213118.25,4346.9354973,N,07927.8912176,W,4,07,1.3,189.462,M,-37.20,M,00,0000*60
$GPGGA,213118.50,4346.9354335,N,07927.8910783,W,4,06,1.3,189.486,M,-37.20,M,00,0000*6F
$GPGGA,213118.75,4346.9353719,N,07927.8909536,W,4,06,1.8,189.460,M,-37.20,M,00,0000*62
$GPGGA,213119.00,4346.9352938,N,07927.8908097,W,4,06,1.8,189.453,M,-37.20,M,01,0000*63
$GPGGA,213119.25,4346.9352226,N,07927.8906663,W,4,06,1.8,189.455,M,-37.20,M,00,0000*64
$GPGGA,213119.50,4346.9351529,N,07927.8905225,W,4,06,1.8,189.449,M,-37.20,M,00,0000*65
$GPGGA,213119.75,4346.9350793,N,07927.8903731,W,4,06,1.8,189.461,M,-37.20,M,00,0000*6C
$GPGGA,213120.00,4346.9350074,N,07927.8902391,W,4,07,1.8,189.445,M,-37.20,M,01,0000*63
$GPGGA,213120.25,4346.9349427,N,07927.8901048,W,4,07,1.3,189.443,M,-37.20,M,00,0000*66
$GPGGA,213120.50,4346.9348801,N,07927.8899765,W,4,07,1.3,189.416,M,-37.20,M,00,0000*65
$GPGGA,213120.75,4346.9348142,N,07927.8898402,W,4,07,1.3,189.433,M,-37.20,M,00,0000*68
$GPGGA,213121.00,4346.9347468,N,07927.8896876,W,4,06,1.3,189.440,M,-37.20,M,01,0000*6C
$GPGGA,213121.25,4346.9346777,N,07927.8895477,W,4,06,1.5,189.434,M,-37.20,M,00,0000*6D
$GPGGA,213121.50,4346.9346043,N,07927.8894087,W,4,06,1.5,189.409,M,-37.20,M,00,0000*6B
$GPGGA,213121.75,4346.9345307,N,07927.8892713,W,4,06,1.5,189.411,M,-37.20,M,00,0000*69
$GPGGA,213122.00,4346.9344588,N,07927.8891311,W,4,06,1.5,189.409,M,-37.20,M,01,0000*65
$GPGGA,213122.25,4346.9343883,N,07927.8889879,W,4,06,1.5,189.439,M,-37.20,M,00,0000*6D
$GPGGA,213122.50,4346.9343182,N,07927.8888472,W,4,06,1.5,189.460,M,-37.20,M,00,0000*6D
$GPGGA,213122.75,4346.9342509,N,07927.8887132,W,4,06,1.5,189.426,M,-37.20,M,00,0000*60
$GPGGA,213123.00,4346.9341769,N,07927.8885712,W,4,06,1.5,189.437,M,-37.20,M,01,0000*63
$GPGGA,213123.25,4346.9341049,N,07927.8884316,W,4,06,1.5,189.441,M,-37.20,M,00,0000*60
$GPGGA,213123.50,4346.9340363,N,07927.8882972,W,4,06,1.5,189.418,M,-37.20,M,00,0000*6A
$GPGGA,213123.75,4346.9339633,N,07927.8881525,W,4,06,1.5,189.432,M,-37.20,M,00,0000*66
$GPGGA,213124.00,4346.9338985,N,07927.8880170,W,4,06,1.5,189.399,M,-37.20,M,01,0000*62
$GPGGA,213124.25,4346.9338256,N,07927.8878894,W,4,07,1.3,189.395,M,-37.20,M,00,0000*6E
$GPGGA,213124.50,4346.9337578,N,07927.8877546,W,4,07,1.3,189.378,M,-37.20,M,00,0000*66
$GPGGA,213124.75,4346.9336851,N,07927.8876096,W,4,07,1.3,189.413,M,-37.20,M,00,0000*65
$GPGGA,213125.00,4346.9336130,N,07927.8874781,W,4,07,1.3,189.375,M,-37.20,M,01,0000*6D
$GPGGA,213125.25,4346.9335443,N,07927.8873403,W,4,07,1.3,189.381,M,-37.20,M,00,0000*6C
$GPGGA,213125.50,4346.9334810,N,07927.8872033,W,4,07,1.3,189.408,M,-37.20,M,00,0000*65
$GPGGA,213125.75,4346.9334022,N,07927.8870697,W,4,07,1.3,189.398,M,-37.20,M,00,0000*6F
$GPGGA,213126.00,4346.9333208,N,07927.8869421,W,4,07,1.3,189.375,M,-37.20,M,01,0000*66
$GPGGA,213126.25,4346.9332473,N,07927.8868163,W,4,07,1.3,189.373,M,-37.20,M,00,0000*6F
$GPGGA,213126.50,4346.9331649,N,07927.8866943,W,4,07,1.3,189.363,M,-37.20,M,00,0000*60
$GPGGA,213126.75,4346.9330782,N,07927.8865745,W,4,07,1.3,189.336,M,-37.20,M,00,0000*6B
$GPGGA,213127.00,4346.9329885,N,07927.8864503,W,4,07,1.3,189.355,M,-37.20,M,01,0000*6D
$GPGGA,213127.25,4346.9329000,N,07927.8863229,W,4,07,1.3,189.410,M,-37.20,M,00,0000*60
$GPGGA,213127.50,4346.9328041,N,07927.8862201,W,4,06,1.3,189.398,M,-37.20,M,00,0000*6B
$GPGGA,213127.75,4346.9327097,N,07927.8861233,W,4,06,1.5,189.386,M,-37.20,M,00,0000*63
$GPGGA,213128.00,4346.9326005,N,07927.8860357,W,4,07,1.5,189.405,M,-37.20,M,01,0000*6A
$GPGGA,213128.25,4346.9324977,N,07927.8859484,W,4,07,1.4,189.425,M,-37.20,M,00,0000*62
$GPGGA,213128.50,4346.9323986,N,07927.8858626,W,4,07,1.4,189.438,M,-37.20,M,00,0000*6E
$GPGGA,213128.75,4346.9322872,N,07927.8857749,W,4,07,1.4,189.432,M,-37.20,M,00,0000*6F
$GPGGA,213129.00,4346.9321888,N,07927.8856829,W,4,07,1.4,189.441,M,-37.20,M,01,0000*67
$GPGGA,213129.25,4346.9320764,N,07927.8855976,W,4,07,1.4,189.461,M,-37.20,M,01,0000*66
$GPGGA,213129.50,4346.9319688,N,07927.8855138,W,4,07,1.4,189.451,M,-37.20,M,00,0000*6D
$GPGGA,213129.75,4346.9318703,N,07927.8854276,W,4,07,1.4,189.450,M,-37.20,M,00,0000*60
$GPGGA,213130.00,4346.9317552,N,07927.8853490,W,4,07,1.4,189.483,M,-37.20,M,01,0000*65
$GPGGA,213130.25,4346.9316568,N,07927.8852650,W,4,07,1.4,189.488,M,-37.20,M,01,0000*6E
$GPGGA,213130.50,4346.9315475,N,07927.8851878,W,4,07,1.4,189.510,M,-37.20,M,01,0000*65
$GPGGA,213130.75,4346.9314347,N,07927.8851083,W,4,07,1.2,189.495,M,-37.20,M,01,0000*63
$GPGGA,213131.00,4346.9313302,N,07927.8850280,W,4,07,1.2,189.488,M,-37.20,M,01,0000*6A
$GPGGA,213131.25,4346.9312229,N,07927.8849464,W,4,08,1.2,189.475,M,-37.20,M,00,0000*6C
$GPGGA,213131.50,4346.9311078,N,07927.8848665,W,4,08,1.2,189.473,M,-37.20,M,00,0000*6F
$GPGGA,213131.75,4346.9310059,N,07927.8847794,W,4,08,1.2,189.476,M,-37.20,M,00,0000*6F
$GPGGA,213132.00,4346.9308974,N,07927.8847037,W,4,08,1.2,189.472,M,-37.20,M,01,0000*6A
$GPGGA,213132.25,4346.9307926,N,07927.8846284,W,4,08,1.2,189.517,M,-37.20,M,00,0000*6D
$GPGGA,213132.50,4346.9306859,N,07927.8845452,W,4,08,1.2,189.515,M,-37.20,M,00,0000*6B
$GPGGA,213132.75,4346.9305769,N,07927.8844667,W,4,08,1.2,189.477,M,-37.20,M,00,0000*63
$GPGGA,213133.00,4346.9304672,N,07927.8843880,W,4,07,1.2,189.516,M,-37.20,M,01,0000*62
$GPGGA,213133.25,4346.9303617,N,07927.8843076,W,4,07,1.4,189.501,M,-37.20,M,00,0000*61
$GPGGA,213133.50,4346.9302551,N,07927.8842277,W,4,07,1.4,189.485,M,-37.20,M,00,0000*6C
$GPGGA,213133.75,4346.9301446,N,07927.8841522,W,4,07,1.4,189.513,M,-37.20,M,00,0000*65
$GPGGA,213134.00,4346.9300412,N,07927.8840766,W,4,07,1.4,189.537,M,-37.20,M,01,0000*64
$GPGGA,213134.25,4346.9299292,N,07927.8839980,W,4,07,1.4,189.538,M,-37.20,M,01,0000*6B
$GPGGA,213134.50,4346.9298124,N,07927.8839178,W,4,07,1.4,189.503,M,-37.20,M,00,0000*60
$GPGGA,213134.75,4346.9296965,N,07927.8838414,W,4,07,1.4,189.519,M,-37.20,M,00,0000*61
$GPGGA,213135.00,4346.9295892,N,07927.8837631,W,4,07,1.4,189.515,M,-37.20,M,01,0000*6F
$GPGGA,213135.25,4346.9294770,N,07927.8836857,W,4,07,1.4,189.487,M,-37.20,M,00,0000*6E
$GPGGA,213135.50,4346.9293732,N,07927.8836057,W,4,07,1.4,189.510,M,-37.20,M,00,0000*6A
$GPGGA,213135.75,4346.9292665,N,07927.8835296,W,4,07,1.4,189.534,M,-37.20,M,00,0000*65
$GPGGA,213136.00,4346.9291607,N,07927.8834507,W,4,07,1.4,189.541,M,-37.20,M,01,0000*6E
$GPGGA,213136.25,4346.9290456,N,07927.8833718,W,4,07,1.4,189.502,M,-37.20,M,00,0000*63
$GPGGA,213136.50,4346.9289308,N,07927.8832909,W,4,07,1.4,189.463,M,-37.20,M,00,0000*6C
$GPGGA,213136.75,4346.9288253,N,07927.8832072,W,4,07,1.4,189.504,M,-37.20,M,00,0000*60
$GPGGA,213137.00,4346.9287212,N,07927.8831305,W,4,07,1.4,189.512,M,-37.20,M,01,0000*6F
$GPGGA,213137.25,4346.9286210,N,07927.8830470,W,4,07,1.4,189.546,M,-37.20,M,00,0000*6F
$GPGGA,213137.50,4346.9285215,N,07927.8829566,W,4,07,1.4,189.567,M,-37.20,M,00,0000*66
$GPGGA,213137.75,4346.9284175,N,07927.8828708,W,4,07,1.4,189.574,M,-37.20,M,00,0000*6C
$GPGGA,213138.00,4346.9283130,N,07927.8827802,W,4,07,1.4,189.557,M,-37.20,M,01,0000*6D
$GPGGA,213138.25,4346.9282085,N,07927.8826873,W,4,07,1.4,189.560,M,-37.20,M,01,0000*67
$GPGGA,213138.50,4346.9281098,N,07927.8825953,W,4,07,1.4,189.551,M,-37.20,M,01,0000*68
$GPGGA,213138.75,4346.9280108,N,07927.8825033,W,4,07,1.4,189.583,M,-37.20,M,01,0000*66
$GPGGA,213139.00,4346.9279109,N,07927.8824162,W,4,07,1.4,189.591,M,-37.20,M,02,0000*66
$GPGGA,213139.25,4346.9278017,N,07927.8823211,W,4,08,1.2,189.561,M,-37.20,M,02,0000*68
$GPGGA,213139.50,4346.9277009,N,07927.8822308,W,4,08,1.2,189.583,M,-37.20,M,02,0000*6E
$GPGGA,213139.75,4346.9276025,N,07927.8821342,W,4,08,1.2,189.586,M,-37.20,M,02,0000*6E
$GPGGA,213140.00,4346.9275005,N,07927.8820419,W,4,08,1.2,189.597,M,-37.20,M,03,0000*6A
$GPGGA,213140.25,4346.9274000,N,07927.8819412,W,4,08,1.2,189.599,M,-37.20,M,03,0000*66
$GPGGA,213140.50,4346.9273042,N,07927.8818456,W,4,08,1.2,189.608,M,-37.20,M,03,0000*6F
$GPGGA,213140.75,4346.9271980,N,07927.8817483,W,4,08,1.2,189.589,M,-37.20,M,03,0000*60
$GPGGA,213141.00,4346.9271035,N,07927.8816522,W,4,08,1.2,189.610,M,-37.20,M,04,0000*6B
$GPGGA,213141.25,4346.9270053,N,07927.8815522,W,4,08,1.2,189.613,M,-37.20,M,04,0000*6D
$GPGGA,213141.50,4346.9269039,N,07927.8814509,W,4,08,1.2,189.613,M,-37.20,M,04,0000*63
$GPGGA,213141.75,4346.9268064,N,07927.8813461,W,4,08,1.2,189.614,M,-37.20,M,04,0000*62
$GPGGA,213142.00,4346.9267118,N,07927.8812442,W,4,08,1.2,189.612,M,-37.20,M,05,0000*61
$GPGGA,213142.25,4346.9266108,N,07927.8811443,W,4,08,1.2,189.606,M,-37.20,M,05,0000*61
$GPGGA,213142.50,4346.9265098,N,07927.8810481,W,4,08,1.2,189.605,M,-37.20,M,05,0000*64
$GPGGA,213142.75,4346.9264161,N,07927.8809387,W,4,08,1.2,189.618,M,-37.20,M,05,0000*60
$GPGGA,213143.00,4346.9263153,N,07927.8808465,W,4,08,1.2,189.611,M,-37.20,M,06,0000*65
$GPGGA,213143.25,4346.9262108,N,07927.8807483,W,4,08,1.2,189.586,M,-37.20,M,00,0000*61
$GPGGA,213143.50,4346.9261195,N,07927.8806396,W,4,08,1.2,189.591,M,-37.20,M,00,0000*60
$GPGGA,213143.75,4346.9260178,N,07927.8805380,W,4,08,1.2,189.586,M,-37.20,M,00,0000*67
$GPGGA,213144.00,4346.9259222,N,07927.8804353,W,4,08,1.2,189.582,M,-37.20,M,01,0000*6E
$GPGGA,213144.25,4346.9258312,N,07927.8803322,W,4,08,1.2,189.573,M,-37.20,M,00,0000*64
$GPGGA,213144.50,4346.9257285,N,07927.8802323,W,4,08,1.2,189.578,M,-37.20,M,00,0000*6D
$GPGGA,213144.75,4346.9256288,N,07927.8801251,W,4,08,1.2,189.570,M,-37.20,M,00,0000*69
$GPGGA,213145.00,4346.9255415,N,07927.8800221,W,4,08,1.2,189.598,M,-37.20,M,01,0000*6A
$GPGGA,213145.25,4346.9254415,N,07927.8799158,W,4,08,1.2,189.556,M,-37.20,M,01,0000*6C
$GPGGA,213145.50,4346.9253454,N,07927.8798096,W,4,08,1.2,189.600,M,-37.20,M,00,0000*6F
$GPGGA,213145.75,4346.9252531,N,07927.8797047,W,4,08,1.2,189.582,M,-37.20,M,00,0000*61
$GPGGA,213146.00,4346.9251572,N,07927.8795966,W,4,07,1.2,189.576,M,-37.20,M,01,0000*69
$GPGGA,213146.25,4346.9250583,N,07927.8794957,W,4,07,1.4,189.595,M,-37.20,M,00,0000*68
$GPGGA,213146.50,4346.9249663,N,07927.8793892,W,4,07,1.4,189.583,M,-37.20,M,00,0000*67
$GPGGA,213146.75,4346.9248689,N,07927.8792775,W,4,07,1.4,189.583,M,-37.20,M,00,0000*62
$GPGGA,213147.00,4346.9247768,N,07927.8791769,W,4,07,1.4,189.594,M,-37.20,M,01,0000*69
$GPGGA,213147.25,4346.9246830,N,07927.8790631,W,4,07,1.4,189.571,M,-37.20,M,00,0000*6A
$GPGGA,213147.50,4346.9245875,N,07927.8789576,W,4,07,1.4,189.571,M,-37.20,M,00,0000*62
$GPGGA,213147.75,4346.9244953,N,07927.8788469,W,4,07,1.4,189.555,M,-37.20,M,00,0000*69
$GPGGA,213148.00,4346.9243949,N,07927.8787416,W,4,07,1.4,189.572,M,-37.20,M,01,0000*6B
$GPGGA,213148.25,4346.9243102,N,07927.8786320,W,4,08,1.2,189.548,M,-37.20,M,00,0000*69
$GPGGA,213148.50,4346.9242194,N,07927.8785241,W,4,08,1.2,189.563,M,-37.20,M,00,0000*69
$GPGGA,213148.75,4346.9241165,N,07927.8784165,W,4,08,1.2,189.545,M,-37.20,M,00,0000*63
$GPGGA,213149.00,4346.9240246,N,07927.8783077,W,4,08,1.2,189.563,M,-37.20,M,01,0000*63
$GPGGA,213149.25,4346.9239317,N,07927.8781966,W,4,08,1.2,189.540,M,-37.20,M,00,0000*64
$GPGGA,213149.50,4346.9238401,N,07927.8780848,W,4,08,1.2,189.540,M,-37.20,M,00,0000*6B
$GPGGA,213149.75,4346.9237492,N,07927.8779760,W,4,08,1.2,189.550,M,-37.20,M,00,0000*6B
$GPGGA,213150.00,4346.9236542,N,07927.8778626,W,4,08,1.2,189.549,M,-37.20,M,01,0000*67
$GPGGA,213150.25,4346.9235662,N,07927.8777546,W,4,08,1.2,189.537,M,-37.20,M,00,0000*60
$GPGGA,213150.50,4346.9234685,N,07927.8776450,W,4,08,1.2,189.527,M,-37.20,M,00,0000*6C
$GPGGA,213150.75,4346.9233761,N,07927.8775346,W,4,08,1.2,189.518,M,-37.20,M,00,0000*68
$GPGGA,213151.00,4346.9232847,N,07927.8774262,W,4,08,1.2,189.523,M,-37.20,M,01,0000*6E
$GPGGA,213151.25,4346.9231950,N,07927.8773080,W,4,08,1.2,189.530,M,-37.20,M,00,0000*67
$GPGGA,213151.50,4346.9231049,N,07927.8771964,W,4,08,1.2,189.544,M,-37.20,M,00,0000*66
$GPGGA,213151.75,4346.9230186,N,07927.8770801,W,4,08,1.2,189.533,M,-37.20,M,00,0000*61
$GPGGA,213152.00,4346.9229198,N,07927.8769707,W,4,08,1.2,189.524,M,-37.20,M,01,0000*61
$GPGGA,213152.25,4346.9228295,N,07927.8768595,W,4,08,1.2,189.526,M,-37.20,M,00,0000*62
$GPGGA,213152.50,4346.9227410,N,07927.8767458,W,4,08,1.2,189.519,M,-37.20,M,00,0000*67
$GPGGA,213152.75,4346.9226477,N,07927.8766301,W,4,08,1.2,189.515,M,-37.20,M,00,0000*66
$GPGGA,213153.00,4346.9225597,N,07927.8765219,W,4,08,1.2,189.507,M,-37.20,M,01,0000*60
$GPGGA,213153.25,4346.9224643,N,07927.8764062,W,4,08,1.2,189.522,M,-37.20,M,00,0000*65
$GPGGA,213153.50,4346.9223728,N,07927.8762953,W,4,08,1.2,189.511,M,-37.20,M,00,0000*61
$GPGGA,213153.75,4346.9222774,N,07927.8761834,W,4,08,1.2,189.505,M,-37.20,M,00,0000*68
$GPGGA,213154.00,4346.9221898,N,07927.8760686,W,4,08,1.2,189.503,M,-37.20,M,01,0000*62
$GPGGA,213154.25,4346.9220990,N,07927.8759601,W,4,08,1.2,189.505,M,-37.20,M,00,0000*6F
$GPGGA,213154.50,4346.9219969,N,07927.8758619,W,4,08,1.2,189.513,M,-37.20,M,00,0000*6E
$GPGGA,213154.75,4346.9218999,N,07927.8757552,W,4,08,1.2,189.459,M,-37.20,M,00,0000*6B
$GPGGA,213155.00,4346.9218039,N,07927.8756610,W,4,08,1.2,189.470,M,-37.20,M,01,0000*65
$GPGGA,213155.25,4346.9217067,N,07927.8755665,W,4,08,1.2,189.483,M,-37.20,M,00,0000*6A
$GPGGA,213155.50,4346.9216124,N,07927.8754640,W,4,07,1.2,189.457,M,-37.20,M,00,0000*6F
$GPGGA,213155.75,4346.9215082,N,07927.8753720,W,4,07,1.4,189.453,M,-37.20,M,00,0000*64
$GPGGA,213156.00,4346.9214115,N,07927.8752686,W,4,07,1.4,189.462,M,-37.20,M,01,0000*64
$GPGGA,213156.25,4346.9213142,N,07927.8751723,W,4,07,1.4,189.455,M,-37.20,M,00,0000*6E
$GPGGA,213156.50,4346.9212124,N,07927.8750722,W,4,07,1.4,189.480,M,-37.20,M,00,0000*65
$GPGGA,213156.75,4346.9211201,N,07927.8749738,W,4,07,1.4,189.456,M,-37.20,M,00,0000*6D
$GPGGA,213157.00,4346.9210204,N,07927.8748809,W,4,07,1.4,189.467,M,-37.20,M,01,0000*65
$GPGGA,213157.25,4346.9209166,N,07927.8747850,W,4,07,1.4,189.455,M,-37.20,M,00,0000*6E
$GPGGA,213157.50,4346.9208239,N,07927.8746870,W,4,07,1.4,189.463,M,-37.20,M,00,0000*62
$GPGGA,213157.75,4346.9207215,N,07927.8745874,W,4,07,1.4,189.456,M,-37.20,M,00,0000*65
$GPGGA,213158.00,4346.9206239,N,07927.8744902,W,4,07,1.4,189.464,M,-37.20,M,01,0000*66
$GPGGA,213158.25,4346.9205282,N,07927.8743906,W,4,07,1.4,189.458,M,-37.20,M,00,0000*6F
$GPGGA,213158.50,4346.9204181,N,07927.8742914,W,4,07,1.4,189.444,M,-37.20,M,00,0000*63
$GPGGA,213158.75,4346.9203193,N,07927.8741892,W,4,07,1.2,189.452,M,-37.20,M,00,0000*6D
$GPGGA,213159.00,4346.9202166,N,07927.8740946,W,4,07,1.2,189.439,M,-37.20,M,01,0000*60
$GPGGA,213159.25,4346.9201261,N,07927.8739955,W,4,09,0.9,189.469,M,-37.20,M,00,0000*6C
$GPGGA,213159.50,4346.9200239,N,07927.8738965,W,4,09,0.9,189.470,M,-37.20,M,00,0000*68
$GPGGA,213159.75,4346.9199265,N,07927.8737933,W,4,09,0.9,189.465,M,-37.20,M,00,0000*6D
$GPGGA,213200.00,4346.9198290,N,07927.8736979,W,4,09,0.9,189.477,M,-37.20,M,01,0000*66
$GPGGA,213200.25,4346.9197202,N,07927.8735994,W,4,09,0.9,189.447,M,-37.20,M,00,0000*67
$GPGGA,213200.50,4346.9196174,N,07927.8734967,W,4,09,0.9,189.453,M,-37.20,M,00,0000*6E
$GPGGA,213200.75,4346.9195264,N,07927.8733946,W,4,09,0.9,189.460,M,-37.20,M,00,0000*6C
$GPGGA,213201.00,4346.9194247,N,07927.8732956,W,4,09,0.9,189.446,M,-37.20,M,01,0000*6A
$GPGGA,213201.25,4346.9193267,N,07927.8731946,W,4,09,0.9,189.451,M,-37.20,M,01,0000*6C
$GPGGA,213201.50,4346.9192285,N,07927.8730908,W,4,09,0.9,189.455,M,-37.20,M,01,0000*6C
$GPGGA,213201.75,4346.9191270,N,07927.8729944,W,4,09,0.9,189.465,M,-37.20,M,01,0000*61
$GPGGA,213202.00,4346.9190329,N,07927.8728944,W,4,09,0.9,189.456,M,-37.20,M,02,0000*6E
$GPGGA,213202.25,4346.9189418,N,07927.8727925,W,4,09,0.9,189.476,M,-37.20,M,00,0000*6C
$GPGGA,213202.50,4346.9188449,N,07927.8726823,W,4,09,0.9,189.479,M,-37.20,M,00,0000*62
$GPGGA,213202.75,4346.9187550,N,07927.8725721,W,4,09,0.9,189.493,M,-37.20,M,00,0000*69
$GPGGA,213203.00,4346.9186603,N,07927.8724650,W,4,09,0.9,189.486,M,-37.20,M,01,0000*6D
$GPGGA,213203.25,4346.9185671,N,07927.8723599,W,4,09,0.9,189.504,M,-37.20,M,00,0000*67
$GPGGA,213203.50,4346.9184733,N,07927.8722520,W,4,09,0.9,189.502,M,-37.20,M,00,0000*66
$GPGGA,213203.75,4346.9183774,N,07927.8721454,W,4,09,0.9,189.513,M,-37.20,M,00,0000*64
$GPGGA,213204.00,4346.9182863,N,07927.8720382,W,4,09,0.9,189.516,M,-37.20,M,01,0000*60
$GPGGA,213204.25,4346.9181959,N,07927.8719304,W,4,09,0.9,189.511,M,-37.20,M,00,0000*6E
$GPGGA,213204.50,4346.9181029,N,07927.8718198,W,4,09,0.9,189.515,M,-37.20,M,00,0000*60
$GPGGA,213204.75,4346.9180109,N,07927.8717114,W,4,09,0.9,189.504,M,-37.20,M,00,0000*6E
$GPGGA,213205.00,4346.9179200,N,07927.8716035,W,4,09,0.9,189.510,M,-37.20,M,01,0000*66
$GPGGA,213205.25,4346.9178277,N,07927.8714943,W,4,09,0.9,189.508,M,-37.20,M,01,0000*63
$GPGGA,213205.50,4346.9177356,N,07927.8713804,W,4,09,0.9,189.523,M,-37.20,M,01,0000*60
$GPGGA,213205.75,4346.9176433,N,07927.8712680,W,4,09,0.9,189.531,M,-37.20,M,01,0000*62
$GPGGA,213206.00,4346.9175470,N,07927.8711600,W,4,09,0.9,189.529,M,-37.20,M,02,0000*66
$GPGGA,213206.25,4346.9174574,N,07927.8710470,W,4,09,0.9,189.541,M,-37.20,M,00,0000*6D
$GPGGA,213206.50,4346.9173589,N,07927.8709385,W,4,09,0.9,189.531,M,-37.20,M,00,0000*68
$GPGGA,213206.75,4346.9172715,N,07927.8708223,W,4,09,0.9,189.536,M,-37.20,M,00,0000*62
