$GPGGA,192338.50,4346.9298414,N,07927.9648847,W,4,07,1.3,189.452,M,-37.20,M,00,0000*6C
$GPGGA,192338.75,4346.9298428,N,07927.9648858,W,4,07,1.3,189.452,M,-37.20,M,00,0000*6A
$GPGGA,192339.00,4346.9298424,N,07927.9648855,W,4,07,1.3,189.452,M,-37.20,M,01,0000*69
$GPGGA,192339.25,4346.9298445,N,07927.9648843,W,4,07,1.3,189.452,M,-37.20,M,00,0000*6F
$GPGGA,192339.50,4346.9298419,N,07927.9648823,W,4,07,1.3,189.442,M,-37.20,M,00,0000*63
$GPGGA,192339.75,4346.9298440,N,07927.9648834,W,4,07,1.3,189.443,M,-37.20,M,00,0000*6F
$GPGGA,192340.00,4346.9298446,N,07927.9648855,W,4,07,1.3,189.446,M,-37.20,M,01,0000*66
$GPGGA,192340.25,4346.9298440,N,07927.9648874,W,4,07,1.3,189.457,M,-37.20,M,00,0000*65
$GPGGA,192340.50,4346.9298445,N,07927.9648886,W,4,07,1.3,189.453,M,-37.20,M,00,0000*6B
$GPGGA,192340.75,4346.9298417,N,07927.9648847,W,4,07,1.3,189.454,M,-37.20,M,00,0000*61
$GPGGA,192341.00,4346.9298413,N,07927.9648863,W,4,07,1.3,189.455,M,-37.20,M,01,0000*60
$GPGGA,192341.25,4346.9298405,N,07927.9648827,W,4,07,1.3,189.446,M,-37.20,M,00,0000*63
$GPGGA,192341.50,4346.9298420,N,07927.9648825,W,4,07,1.3,189.447,M,-37.20,M,00,0000*65
$GPGGA,192341.75,4346.9298434,N,07927.9648833,W,4,07,1.3,189.446,M,-37.20,M,00,0000*61
$GPGGA,192342.00,4346.9298426,N,07927.9648842,W,4,07,1.3,189.447,M,-37.20,M,01,0000*65
$GPGGA,192342.25,4346.9298415,N,07927.9648813,W,4,07,1.3,189.446,M,-37.20,M,00,0000*66
$GPGGA,192342.50,4346.9298403,N,07927.9648814,W,4,07,1.3,189.442,M,-37.20,M,00,0000*60
$GPGGA,192342.75,4346.9298411,N,07927.9648834,W,4,07,1.3,189.447,M,-37.20,M,00,0000*63
$GPGGA,192343.00,4346.9298408,N,07927.9648820,W,4,07,1.3,189.445,M,-37.20,M,01,0000*6E
$GPGGA,192343.25,4346.9298398,N,07927.9648809,W,4,07,1.3,189.451,M,-37.20,M,00,0000*68
$GPGGA,192343.50,4346.9298410,N,07927.9648822,W,4,07,1.3,189.459,M,-37.20,M,00,0000*6C
$GPGGA,192343.75,4346.9298399,N,07927.9648802,W,4,07,1.3,189.458,M,-37.20,M,00,0000*6E
$GPGGA,192344.00,4346.9298389,N,07927.9648794,W,4,07,1.3,189.448,M,-37.20,M,01,0000*6A
$GPGGA,192344.25,4346.9298416,N,07927.9648823,W,4,07,1.3,189.456,M,-37.20,M,00,0000*61
$GPGGA,192344.50,4346.9298401,N,07927.9648818,W,4,07,1.3,189.460,M,-37.20,M,00,0000*68
$GPGGA,192344.75,4346.9298410,N,07927.9648804,W,4,07,1.3,189.468,M,-37.20,M,00,0000*6A
$GPGGA,192345.00,4346.9298411,N,07927.9648813,W,4,07,1.3,189.464,M,-37.20,M,01,0000*63
$GPGGA,192345.25,4346.9298404,N,07927.9648812,W,4,07,1.3,189.459,M,-37.20,M,00,0000*6E
$GPGGA,192345.50,4346.9298406,N,07927.9648823,W,4,07,1.3,189.450,M,-37.20,M,00,0000*65
$GPGGA,192345.75,4346.9298416,N,07927.9648802,W,4,07,1.3,189.457,M,-37.20,M,00,0000*67
$GPGGA,192346.00,4346.9298414,N,07927.9648816,W,4,07,1.3,189.461,M,-37.20,M,01,0000*65
$GPGGA,192346.25,4346.9298399,N,07927.9648849,W,4,07,1.3,189.463,M,-37.20,M,00,0000*69
$GPGGA,192346.50,4346.9298411,N,07927.9648816,W,4,07,1.3,189.474,M,-37.20,M,00,0000*60
$GPGGA,192346.75,4346.9298417,N,07927.9648829,W,4,07,1.3,189.473,M,-37.20,M,00,0000*6A
$GPGGA,192347.00,4346.9298418,N,07927.9648818,W,4,07,1.3,189.467,M,-37.20,M,01,0000*60
$GPGGA,192347.25,4346.9298400,N,07927.9648817,W,4,07,1.3,189.458,M,-37.20,M,00,0000*6C
$GPGGA,192347.50,4346.9298405,N,07927.9648802,W,4,07,1.3,189.461,M,-37.20,M,00,0000*65
$GPGGA,192347.75,4346.9298431,N,07927.9648849,W,4,07,1.3,189.451,M,-37.20,M,00,0000*69
$GPGGA,192348.00,4346.9298393,N,07927.9648805,W,4,07,1.3,189.465,M,-37.20,M,01,0000*65
$GPGGA,192348.25,4346.9298403,N,07927.9648800,W,4,07,1.3,189.450,M,-37.20,M,00,0000*6E
$GPGGA,192348.50,4346.9298381,N,07927.9648767,W,4,07,1.3,189.443,M,-37.20,M,00,0000*6D
$GPGGA,192348.75,4346.9298400,N,07927.9648776,W,4,07,1.3,189.444,M,-37.20,M,00,0000*63
$GPGGA,192349.00,4346.9298400,N,07927.9648783,W,4,07,1.3,189.453,M,-37.20,M,01,0000*6D
$GPGGA,192349.25,4346.9298383,N,07927.9648771,W,4,07,1.3,189.467,M,-37.20,M,00,0000*6D
$GPGGA,192349.50,4346.9298394,N,07927.9648796,W,4,07,1.3,189.472,M,-37.20,M,00,0000*64
$GPGGA,192349.75,4346.9298389,N,07927.9648794,W,4,07,1.3,189.461,M,-37.20,M,00,0000*6F
$GPGGA,192350.00,4346.9298374,N,07927.9648799,W,4,07,1.3,189.460,M,-37.20,M,01,0000*6A
$GPGGA,192350.25,4346.9298417,N,07927.9648815,W,4,07,1.3,189.452,M,-37.20,M,00,0000*64
$GPGGA,192350.50,4346.9298404,N,07927.9648813,W,4,07,1.3,189.466,M,-37.20,M,00,0000*65
$GPGGA,192350.75,4346.9298403,N,07927.9648793,W,4,07,1.3,189.467,M,-37.20,M,00,0000*63
$GPGGA,192351.00,4346.9298408,N,07927.9648791,W,4,07,1.3,189.464,M,-37.20,M,01,0000*6B
$GPGGA,192351.25,4346.9298433,N,07927.9648863,W,4,07,1.3,189.469,M,-37.20,M,00,0000*6A
$GPGGA,192351.50,4346.9298426,N,07927.9648847,W,4,07,1.3,189.468,M,-37.20,M,00,0000*6B
$GPGGA,192351.75,4346.9298420,N,07927.9648837,W,4,07,1.3,189.460,M,-37.20,M,00,0000*65
$GPGGA,192352.00,4346.9298411,N,07927.9648853,W,4,07,1.3,189.461,M,-37.20,M,01,0000*64
$GPGGA,192352.25,4346.9298379,N,07927.9648834,W,4,07,1.3,189.465,M,-37.20,M,00,0000*6E
$GPGGA,192352.50,4346.9298401,N,07927.9648848,W,4,07,1.3,189.470,M,-37.20,M,00,0000*6B
$GPGGA,192352.75,4346.9298402,N,07927.9648831,W,4,07,1.3,189.482,M,-37.20,M,00,0000*6C
$GPGGA,192353.00,4346.9298416,N,07927.9648817,W,4,07,1.3,189.475,M,-37.20,M,01,0000*67
$GPGGA,192353.25,4346.9298395,N,07927.9648808,W,4,07,1.3,189.463,M,-37.20,M,00,0000*64
$GPGGA,192353.50,4346.9298403,N,07927.9648826,W,4,07,1.3,189.471,M,-37.20,M,00,0000*61
$GPGGA,192353.75,4346.9298399,N,07927.9648802,W,4,07,1.3,189.454,M,-37.20,M,00,0000*63
$GPGGA,192354.00,4346.9298416,N,07927.9648795,W,4,07,1.3,189.459,M,-37.20,M,01,0000*6B
$GPGGA,192354.25,4346.9298411,N,07927.9648779,W,4,07,1.3,189.466,M,-37.20,M,00,0000*64
$GPGGA,192354.50,4346.9298403,N,07927.9648773,W,4,07,1.3,189.452,M,-37.20,M,00,0000*68
$GPGGA,192354.75,4346.9298406,N,07927.9648801,W,4,07,1.3,189.459,M,-37.20,M,00,0000*6B
$GPGGA,192355.00,4346.9298417,N,07927.9648792,W,4,07,1.3,189.468,M,-37.20,M,01,0000*6E
$GPGGA,192355.25,4346.9298400,N,07927.9648786,W,4,07,1.3,189.460,M,-37.20,M,00,0000*63
$GPGGA,192355.50,4346.9298404,N,07927.9648792,W,4,07,1.3,189.459,M,-37.20,M,00,0000*6A
$GPGGA,192355.75,4346.9298394,N,07927.9648781,W,4,07,1.3,189.461,M,-37.20,M,00,0000*6A
$GPGGA,192356.00,4346.9298406,N,07927.9648812,W,4,07,1.3,189.455,M,-37.20,M,01,0000*64
$GPGGA,192356.25,4346.9298401,N,07927.9648814,W,4,07,1.3,189.469,M,-37.20,M,00,0000*6C
$GPGGA,192356.50,4346.9298368,N,07927.9648792,W,4,07,1.3,189.473,M,-37.20,M,00,0000*6C
$GPGGA,192356.75,4346.9298402,N,07927.9648834,W,4,07,1.3,189.476,M,-37.20,M,00,0000*66
$GPGGA,192357.00,4346.9298403,N,07927.9648807,W,4,07,1.3,189.486,M,-37.20,M,01,0000*6A
$GPGGA,192357.25,4346.9298423,N,07927.9648836,W,4,07,1.3,189.476,M,-37.20,M,00,0000*63
$GPGGA,192357.50,4346.9298395,N,07927.9648804,W,4,07,1.3,189.473,M,-37.20,M,00,0000*6F
$GPGGA,192357.75,4346.9298411,N,07927.9648821,W,4,07,1.3,189.471,M,-37.20,M,00,0000*66
$GPGGA,192358.00,4346.9298424,N,07927.9648854,W,4,07,1.3,189.475,M,-37.20,M,01,0000*6A
$GPGGA,192358.25,4346.9298417,N,07927.9648837,W,4,07,1.3,189.463,M,-37.20,M,00,0000*6E
$GPGGA,192358.50,4346.9298417,N,07927.9648829,W,4,07,1.3,189.458,M,-37.20,M,00,0000*6B
$GPGGA,192358.75,4346.9298425,N,07927.9648822,W,4,07,1.3,189.466,M,-37.20,M,00,0000*6B
$GPGGA,192359.00,4346.9298448,N,07927.9648847,W,4,07,1.3,189.451,M,-37.20,M,01,0000*65
$GPGGA,192359.25,4346.9298406,N,07927.9648835,W,4,07,1.3,189.451,M,-37.20,M,00,0000*6C
$GPGGA,192359.50,4346.9298400,N,07927.9648836,W,4,07,1.3,189.463,M,-37.20,M,00,0000*6A
$GPGGA,192359.75,4346.9298326,N,07927.9648724,W,4,07,1.3,189.460,M,-37.20,M,00,0000*61
$GPGGA,192400.00,4346.9298252,N,07927.9648598,W,4,07,1.3,189.472,M,-37.20,M,01,0000*6D
$GPGGA,192400.25,4346.9298177,N,07927.9648498,W,4,07,1.3,189.469,M,-37.20,M,00,0000*64
$GPGGA,192400.50,4346.9298083,N,07927.9648299,W,4,07,1.3,189.471,M,-37.20,M,00,0000*62
$GPGGA,192400.75,4346.9297889,N,07927.9648046,W,4,07,1.3,189.456,M,-37.20,M,00,0000*6D
$GPGGA,192401.00,4346.9297721,N,07927.9647745,W,4,07,1.3,189.446,M,-37.20,M,01,0000*68
$GPGGA,192401.25,4346.9297484,N,07927.9647366,W,4,07,1.3,189.466,M,-37.20,M,00,0000*65
$GPGGA,192401.50,4346.9297074,N,07927.9646802,W,4,07,1.3,189.461,M,-37.20,M,00,0000*63
$GPGGA,192401.75,4346.9296681,N,07927.9646213,W,4,07,1.3,189.466,M,-37.20,M,00,0000*64
$GPGGA,192402.00,4346.9296336,N,07927.9645616,W,4,07,1.3,189.481,M,-37.20,M,01,0000*66
$GPGGA,192402.25,4346.9295866,N,07927.9644946,W,4,07,1.3,189.462,M,-37.20,M,00,0000*6B
$GPGGA,192402.50,4346.9295422,N,07927.9644275,W,4,07,1.3,189.466,M,-37.20,M,00,0000*6A
$GPGGA,192402.75,4346.9294954,N,07927.9643586,W,4,07,1.3,189.476,M,-37.20,M,00,0000*6D
$GPGGA,192403.00,4346.9294513,N,07927.9642851,W,4,07,1.3,189.479,M,-37.20,M,01,0000*69
$GPGGA,192403.25,4346.9294022,N,07927.9642146,W,4,07,1.3,189.442,M,-37.20,M,00,0000*6F
$GPGGA,192403.50,4346.9293591,N,07927.9641394,W,4,07,1.3,189.437,M,-37.20,M,00,0000*6B
$GPGGA,192403.75,4346.9293198,N,07927.9640575,W,4,07,1.3,189.448,M,-37.20,M,00,0000*61
$GPGGA,192404.00,4346.9292769,N,07927.9639780,W,4,07,1.3,189.446,M,-37.20,M,01,0000*64
$GPGGA,192404.25,4346.9292370,N,07927.9638931,W,4,07,1.3,189.445,M,-37.20,M,00,0000*68
$GPGGA,192404.50,4346.9291994,N,07927.9638132,W,4,07,1.3,189.466,M,-37.20,M,00,0000*63
$GPGGA,192404.75,4346.9291640,N,07927.9637277,W,4,07,1.3,189.467,M,-37.20,M,00,0000*6E
$GPGGA,192405.00,4346.9291262,N,07927.9636411,W,4,07,1.3,189.475,M,-37.20,M,01,0000*6C
$GPGGA,192405.25,4346.9290883,N,07927.9635491,W,4,07,1.3,189.476,M,-37.20,M,00,0000*66
$GPGGA,192405.50,4346.9290478,N,07927.9634505,W,4,07,1.3,189.463,M,-37.20,M,00,0000*65
$GPGGA,192405.75,4346.9290077,N,07927.9633423,W,4,07,1.3,189.463,M,-37.20,M,00,0000*6B
$GPGGA,192406.00,4346.9289750,N,07927.9632405,W,4,07,1.3,189.468,M,-37.20,M,01,0000*6F
$GPGGA,192406.25,4346.9289375,N,07927.9631158,W,4,07,1.3,189.465,M,-37.20,M,00,0000*69
$GPGGA,192406.50,4346.9288982,N,07927.9629928,W,4,07,1.3,189.459,M,-37.20,M,00,0000*61
$GPGGA,192406.75,4346.9288624,N,07927.9628665,W,4,07,1.3,189.452,M,-37.20,M,00,0000*69
$GPGGA,192407.00,4346.9288332,N,07927.9627471,W,4,07,1.3,189.456,M,-37.20,M,01,0000*65
$GPGGA,192407.25,4346.9288030,N,07927.9626180,W,4,07,1.3,189.464,M,-37.20,M,00,0000*69
$GPGGA,192407.50,4346.9287771,N,07927.9624893,W,4,07,1.3,189.465,M,-37.20,M,00,0000*6E
$GPGGA,192407.75,4346.9287581,N,07927.9623583,W,4,07,1.3,189.477,M,-37.20,M,00,0000*6C
$GPGGA,192408.00,4346.9287287,N,07927.9622075,W,4,07,1.3,189.469,M,-37.20,M,01,0000*63
$GPGGA,192408.25,4346.9287063,N,07927.9620614,W,4,07,1.3,189.469,M,-37.20,M,00,0000*6E
$GPGGA,192408.50,4346.9286905,N,07927.9619142,W,4,07,1.3,189.485,M,-37.20,M,00,0000*68
$GPGGA,192408.75,4346.9286693,N,07927.9617687,W,4,07,1.3,189.489,M,-37.20,M,00,0000*63
$GPGGA,192409.00,4346.9286502,N,07927.9616191,W,4,07,1.3,189.491,M,-37.20,M,01,0000*62
$GPGGA,192409.25,4346.9286299,N,07927.9614715,W,4,07,1.3,189.508,M,-37.20,M,00,0000*68
$GPGGA,192409.50,4346.9286150,N,07927.9613132,W,4,07,1.3,189.489,M,-37.20,M,00,0000*60
$GPGGA,192409.75,4346.9285900,N,07927.9611610,W,4,07,1.3,189.501,M,-37.20,M,00,0000*6D
$GPGGA,192410.00,4346.9285731,N,07927.9610016,W,4,07,1.3,189.499,M,-37.20,M,01,0000*6B
$GPGGA,192410.25,4346.9285583,N,07927.9608501,W,4,07,1.3,189.523,M,-37.20,M,00,0000*6C
$GPGGA,192410.50,4346.9285425,N,07927.9606896,W,4,07,1.3,189.545,M,-37.20,M,00,0000*6E
$GPGGA,192410.75,4346.9285258,N,07927.9605316,W,4,07,1.3,189.539,M,-37.20,M,00,0000*6E
$GPGGA,192411.00,4346.9285089,N,07927.9603664,W,4,07,1.3,189.534,M,-37.20,M,01,0000*69
$GPGGA,192411.25,4346.9284931,N,07927.9602094,W,4,07,1.3,189.551,M,-37.20,M,00,0000*6F
$GPGGA,192411.50,4346.9284806,N,07927.9600438,W,4,07,1.3,189.544,M,-37.20,M,00,0000*6C
$GPGGA,192411.75,4346.9284672,N,07927.9598813,W,4,07,1.3,189.541,M,-37.20,M,00,0000*64
$GPGGA,192412.00,4346.9284548,N,07927.9597159,W,4,07,1.3,189.547,M,-37.20,M,01,0000*60
$GPGGA,192412.25,4346.9284498,N,07927.9595459,W,4,07,1.3,189.553,M,-37.20,M,00,0000*68
$GPGGA,192412.50,4346.9284448,N,07927.9593818,W,4,07,1.3,189.558,M,-37.20,M,00,0000*63
$GPGGA,192412.75,4346.9284369,N,07927.9592181,W,4,07,1.3,189.577,M,-37.20,M,00,0000*65
$GPGGA,192413.00,4346.9284287,N,07927.9590478,W,4,07,1.3,189.593,M,-37.20,M,01,0000*6D
$GPGGA,192413.25,4346.9284231,N,07927.9588907,W,4,07,1.3,189.587,M,-37.20,M,00,0000*6F
$GPGGA,192413.50,4346.9284233,N,07927.9587184,W,4,07,1.3,189.581,M,-37.20,M,00,0000*65
$GPGGA,192413.75,4346.9284225,N,07927.9585548,W,4,07,1.3,189.608,M,-37.20,M,00,0000*61
$GPGGA,192414.00,4346.9284242,N,07927.9583849,W,4,07,1.3,189.595,M,-37.20,M,01,0000*69
$GPGGA,192414.25,4346.9284297,N,07927.9582205,W,4,07,1.3,189.613,M,-37.20,M,00,0000*69
$GPGGA,192414.50,4346.9284422,N,07927.9580499,W,4,07,1.3,189.634,M,-37.20,M,00,0000*67
$GPGGA,192414.75,4346.9284543,N,07927.9578847,W,4,07,1.3,189.638,M,-37.20,M,00,0000*62
$GPGGA,192415.00,4346.9284645,N,07927.9577157,W,4,07,1.3,189.639,M,-37.20,M,01,0000*63
$GPGGA,192415.25,4346.9284819,N,07927.9575516,W,4,07,1.3,189.631,M,-37.20,M,00,0000*69
$GPGGA,192415.50,4346.9284947,N,07927.9573823,W,4,07,1.3,189.630,M,-37.20,M,00,0000*6D
$GPGGA,192415.75,4346.9285138,N,07927.9572155,W,4,07,1.3,189.642,M,-37.20,M,00,0000*67
$GPGGA,192416.00,4346.9285272,N,07927.9570430,W,4,07,1.3,189.643,M,-37.20,M,01,0000*6F
$GPGGA,192416.25,4346.9285415,N,07927.9568861,W,4,07,1.3,189.662,M,-37.20,M,00,0000*6C
$GPGGA,192416.50,4346.9285635,N,07927.9567194,W,4,07,1.3,189.686,M,-37.20,M,00,0000*68
$GPGGA,192416.75,4346.9285840,N,07927.9565493,W,4,07,1.3,189.681,M,-37.20,M,00,0000*64
$GPGGA,192417.00,4346.9286021,N,07927.9563767,W,4,07,1.3,189.688,M,-37.20,M,01,0000*6D
$GPGGA,192417.25,4346.9286238,N,07927.9562080,W,4,07,1.3,189.682,M,-37.20,M,00,0000*64
$GPGGA,192417.50,4346.9286439,N,07927.9560429,W,4,07,1.3,189.689,M,-37.20,M,00,0000*6F
$GPGGA,192417.75,4346.9286676,N,07927.9558839,W,4,07,1.3,189.707,M,-37.20,M,00,0000*60
$GPGGA,192418.00,4346.9286875,N,07927.9557262,W,4,07,1.3,189.731,M,-37.20,M,01,0000*6F
$GPGGA,192418.25,4346.9287075,N,07927.9555673,W,4,07,1.3,189.725,M,-37.20,M,00,0000*63
$GPGGA,192418.50,4346.9287273,N,07927.9554014,W,4,07,1.3,189.748,M,-37.20,M,00,0000*68
$GPGGA,192418.75,4346.9287402,N,07927.9552323,W,4,07,1.3,189.736,M,-37.20,M,00,0000*67
$GPGGA,192419.00,4346.9287486,N,07927.9550670,W,4,07,1.3,189.765,M,-37.20,M,01,0000*6E
$GPGGA,192419.25,4346.9287686,N,07927.9549008,W,4,07,1.3,189.779,M,-37.20,M,00,0000*66
$GPGGA,192419.50,4346.9287841,N,07927.9547278,W,4,07,1.3,189.785,M,-37.20,M,00,0000*69
$GPGGA,192419.75,4346.9288055,N,07927.9545612,W,4,07,1.3,189.778,M,-37.20,M,00,0000*64
$GPGGA,192420.00,4346.9288209,N,07927.9543902,W,4,07,1.3,189.798,M,-37.20,M,01,0000*60
$GPGGA,192420.25,4346.9288421,N,07927.9542261,W,4,07,1.3,189.794,M,-37.20,M,00,0000*69
$GPGGA,192420.50,4346.9288603,N,07927.9540523,W,4,07,1.3,189.797,M,-37.20,M,00,0000*69
$GPGGA,192420.75,4346.9288813,N,07927.9538903,W,4,07,1.3,189.811,M,-37.20,M,00,0000*61
$GPGGA,192421.00,4346.9288977,N,07927.9537259,W,4,07,1.3,189.813,M,-37.20,M,01,0000*69
$GPGGA,192421.25,4346.9289207,N,07927.9535574,W,4,07,1.3,189.814,M,-37.20,M,00,0000*6F
$GPGGA,192421.50,4346.9289392,N,07927.9533903,W,4,07,1.3,189.832,M,-37.20,M,00,0000*6E
$GPGGA,192421.75,4346.9289604,N,07927.9532211,W,4,07,1.3,189.847,M,-37.20,M,00,0000*68
$GPGGA,192422.00,4346.9289805,N,07927.9530490,W,4,07,1.3,189.846,M,-37.20,M,01,0000*6B
$GPGGA,192422.25,4346.9290017,N,07927.9528880,W,4,07,1.3,189.849,M,-37.20,M,00,0000*65
$GPGGA,192422.50,4346.9290259,N,07927.9527202,W,4,07,1.3,189.855,M,-37.20,M,00,0000*6D
$GPGGA,192422.75,4346.9290473,N,07927.9525527,W,4,07,1.3,189.850,M,-37.20,M,00,0000*63
$GPGGA,192423.00,4346.9290651,N,07927.9523917,W,4,07,1.3,189.849,M,-37.20,M,01,0000*62
$GPGGA,192423.25,4346.9290886,N,07927.9522235,W,4,07,1.3,189.875,M,-37.20,M,00,0000*65
$GPGGA,192423.50,4346.9291073,N,07927.9520560,W,4,07,1.3,189.879,M,-37.20,M,00,0000*6D
$GPGGA,192423.75,4346.9291318,N,07927.9518859,W,4,07,1.3,189.883,M,-37.20,M,00,0000*6D
$GPGGA,192424.00,4346.9291519,N,07927.9517190,W,4,07,1.3,189.887,M,-37.20,M,01,0000*69
$GPGGA,192424.25,4346.9291777,N,07927.9515518,W,4,07,1.3,189.891,M,-37.20,M,00,0000*64
$GPGGA,192424.50,4346.9292009,N,07927.9513820,W,4,07,1.3,189.871,M,-37.20,M,00,0000*65
$GPGGA,192424.75,4346.9292270,N,07927.9512199,W,4,07,1.3,189.901,M,-37.20,M,00,0000*62
$GPGGA,192425.00,4346.9292469,N,07927.9510564,W,4,07,1.3,189.897,M,-37.20,M,01,0000*64
$GPGGA,192425.25,4346.9292696,N,07927.9508873,W,4,07,1.3,189.914,M,-37.20,M,00,0000*68
$GPGGA,192425.50,4346.9292930,N,07927.9507214,W,4,07,1.3,189.919,M,-37.20,M,00,0000*60
$GPGGA,192425.75,4346.9293214,N,07927.9505540,W,4,07,1.3,189.927,M,-37.20,M,00,0000*62
$GPGGA,192426.00,4346.9293414,N,07927.9503832,W,4,07,1.3,189.921,M,-37.20,M,01,0000*6C
$GPGGA,192426.25,4346.9293669,N,07927.9502191,W,4,07,1.3,189.940,M,-37.20,M,00,0000*64
$GPGGA,192426.50,4346.9293929,N,07927.9500547,W,4,07,1.3,189.940,M,-37.20,M,00,0000*60
$GPGGA,192426.75,4346.9294182,N,07927.9498906,W,4,07,1.3,189.954,M,-37.20,M,00,0000*65
$GPGGA,192427.00,4346.9294409,N,07927.9497247,W,4,07,1.3,189.949,M,-37.20,M,01,0000*6C
$GPGGA,192427.25,4346.9294688,N,07927.9495534,W,4,07,1.3,189.964,M,-37.20,M,00,0000*6F
$GPGGA,192427.50,4346.9294922,N,07927.9493861,W,4,07,1.3,189.955,M,-37.20,M,00,0000*6B
$GPGGA,192427.75,4346.9295204,N,07927.9492198,W,4,07,1.3,189.954,M,-37.20,M,00,0000*6D
$GPGGA,192428.00,4346.9295440,N,07927.9490569,W,4,07,1.3,189.968,M,-37.20,M,01,0000*60
$GPGGA,192428.25,4346.9295678,N,07927.9488917,W,4,07,1.3,189.980,M,-37.20,M,00,0000*65
$GPGGA,192428.50,4346.9295964,N,07927.9487297,W,4,07,1.3,189.973,M,-37.20,M,00,0000*65
$GPGGA,192428.75,4346.9296223,N,07927.9485646,W,4,07,1.3,189.984,M,-37.20,M,00,0000*6B
$GPGGA,192429.00,4346.9296474,N,07927.9483996,W,4,07,1.3,189.988,M,-37.20,M,01,0000*65
$GPGGA,192429.25,4346.9296784,N,07927.9482355,W,4,07,1.3,189.986,M,-37.20,M,00,0000*65
$GPGGA,192429.50,4346.9297050,N,07927.9480698,W,4,07,1.3,189.996,M,-37.20,M,00,0000*6F
$GPGGA,192429.75,4346.9297356,N,07927.9479023,W,4,07,1.3,190.001,M,-37.20,M,00,0000*62
$GPGGA,192430.00,4346.9297604,N,07927.9477332,W,4,07,1.3,190.003,M,-37.20,M,01,0000*64
$GPGGA,192430.25,4346.9297898,N,07927.9475716,W,4,07,1.3,190.006,M,-37.20,M,00,0000*6C
$GPGGA,192430.50,4346.9298183,N,07927.9474102,W,4,07,1.3,190.007,M,-37.20,M,00,0000*61
$GPGGA,192430.75,4346.9298464,N,07927.9472452,W,4,07,1.3,190.016,M,-37.20,M,00,0000*6C
$GPGGA,192431.00,4346.9298732,N,07927.9470824,W,4,07,1.3,190.030,M,-37.20,M,01,0000*65
$GPGGA,192431.25,4346.9299052,N,07927.9469180,W,4,07,1.3,190.032,M,-37.20,M,00,0000*6E
$GPGGA,192431.50,4346.9299323,N,07927.9467559,W,4,07,1.3,190.037,M,-37.20,M,00,0000*62
$GPGGA,192431.75,4346.9299678,N,07927.9465922,W,4,07,1.3,190.043,M,-37.20,M,00,0000*6F
$GPGGA,192432.00,4346.9299987,N,07927.9464280,W,4,07,1.3,190.039,M,-37.20,M,01,0000*6F
$GPGGA,192432.25,4346.9300314,N,07927.9462708,W,4,07,1.3,190.051,M,-37.20,M,00,0000*65
$GPGGA,192432.50,4346.9300637,N,07927.9461023,W,4,07,1.3,190.051,M,-37.20,M,00,0000*6E
$GPGGA,192432.75,4346.9300974,N,07927.9459391,W,4,07,1.3,190.052,M,-37.20,M,00,0000*63
$GPGGA,192433.00,4346.9301278,N,07927.9457778,W,4,07,1.3,190.058,M,-37.20,M,01,0000*60
$GPGGA,192433.25,4346.9301608,N,07927.9456060,W,4,07,1.3,190.061,M,-37.20,M,00,0000*60
$GPGGA,192433.50,4346.9301918,N,07927.9454375,W,4,07,1.3,190.058,M,-37.20,M,00,0000*63
$GPGGA,192433.75,4346.9302226,N,07927.9452862,W,4,07,1.3,190.082,M,-37.20,M,00,0000*6D
$GPGGA,192434.00,4346.9302528,N,07927.9451248,W,4,07,1.3,190.101,M,-37.20,M,01,0000*6B
$GPGGA,192434.25,4346.9302779,N,07927.9449714,W,4,07,1.3,190.111,M,-37.20,M,00,0000*6F
$GPGGA,192434.50,4346.9303002,N,07927.9448161,W,4,07,1.3,190.132,M,-37.20,M,00,0000*63
$GPGGA,192434.75,4346.9303229,N,07927.9446338,W,4,07,1.3,190.124,M,-37.20,M,00,0000*68
$GPGGA,192435.00,4346.9303362,N,07927.9444682,W,4,07,1.3,190.120,M,-37.20,M,01,0000*66
$GPGGA,192435.25,4346.9303537,N,07927.9442936,W,4,07,1.3,190.120,M,-37.20,M,00,0000*60
$GPGGA,192435.50,4346.9303598,N,07927.9441176,W,4,07,1.3,190.117,M,-37.20,M,00,0000*6C
$GPGGA,192435.75,4346.9303861,N,07927.9439561,W,4,07,1.3,190.108,M,-37.20,M,00,0000*63
$GPGGA,192436.00,4346.9304049,N,07927.9437850,W,4,07,1.3,190.124,M,-37.20,M,01,0000*69
$GPGGA,192436.25,4346.9304179,N,07927.9436221,W,4,07,1.3,190.126,M,-37.20,M,00,0000*62
$GPGGA,192436.50,4346.9304357,N,07927.9434511,W,4,07,1.3,190.115,M,-37.20,M,00,0000*68
$GPGGA,192436.75,4346.9304529,N,07927.9432897,W,4,07,1.3,190.130,M,-37.20,M,00,0000*62
$GPGGA,192437.00,4346.9304666,N,07927.9431154,W,4,07,1.3,190.133,M,-37.20,M,01,0000*6E
$GPGGA,192437.25,4346.9304844,N,07927.9429446,W,4,07,1.3,190.137,M,-37.20,M,00,0000*6D
$GPGGA,192437.50,4346.9305040,N,07927.9427727,W,4,07,1.3,190.137,M,-37.20,M,00,0000*68
$GPGGA,192437.75,4346.9305222,N,07927.9426084,W,4,07,1.3,190.138,M,-37.20,M,00,0000*69
$GPGGA,192438.00,4346.9305358,N,07927.9424427,W,4,07,1.3,190.146,M,-37.20,M,01,0000*6F
$GPGGA,192438.25,4346.9305527,N,07927.9422832,W,4,07,1.3,190.163,M,-37.20,M,00,0000*6E
$GPGGA,192438.50,4346.9305716,N,07927.9421215,W,4,07,1.3,190.161,M,-37.20,M,00,0000*62
$GPGGA,192438.75,4346.9305880,N,07927.9419652,W,4,07,1.3,190.197,M,-37.20,M,00,0000*60
$GPGGA,192439.00,4346.9306066,N,07927.9417884,W,4,07,1.3,190.192,M,-37.20,M,01,0000*6F
$GPGGA,192439.25,4346.9306219,N,07927.9416199,W,4,07,1.3,190.176,M,-37.20,M,00,0000*6D
$GPGGA,192439.50,4346.9306394,N,07927.9414464,W,4,07,1.3,190.170,M,-37.20,M,00,0000*68
$GPGGA,192439.75,4346.9306562,N,07927.9412659,W,4,07,1.3,190.165,M,-37.20,M,00,0000*6E
$GPGGA,192440.00,4346.9306696,N,07927.9410936,W,4,07,1.3,190.167,M,-37.20,M,01,0000*6D
$GPGGA,192440.25,4346.9306823,N,07927.9409281,W,4,07,1.3,190.191,M,-37.20,M,00,0000*6D
$GPGGA,192440.50,4346.9306993,N,07927.9407602,W,4,07,1.3,190.185,M,-37.20,M,00,0000*61
$GPGGA,192440.75,4346.9307112,N,07927.9405989,W,4,07,1.3,190.195,M,-37.20,M,00,0000*69
$GPGGA,192441.00,4346.9307269,N,07927.9404240,W,4,07,1.3,190.189,M,-37.20,M,01,0000*66
$GPGGA,192441.25,4346.9307452,N,07927.9402546,W,4,07,1.3,190.202,M,-37.20,M,00,0000*69
$GPGGA,192441.50,4346.9307622,N,07927.9400887,W,4,07,1.3,190.189,M,-37.20,M,00,0000*6C
$GPGGA,192441.75,4346.9307775,N,07927.9399177,W,4,07,1.3,190.200,M,-37.20,M,00,0000*6B
$GPGGA,192442.00,4346.9307927,N,07927.9397457,W,4,07,1.3,190.199,M,-37.20,M,01,0000*68
$GPGGA,192442.25,4346.9308063,N,07927.9395768,W,4,07,1.3,190.188,M,-37.20,M,00,0000*65
$GPGGA,192442.50,4346.9308257,N,07927.9394130,W,4,07,1.3,190.172,M,-37.20,M,00,0000*6D
$GPGGA,192442.75,4346.9308437,N,07927.9392418,W,4,07,1.3,190.191,M,-37.20,M,00,0000*6E
$GPGGA,192443.00,4346.9308579,N,07927.9390677,W,4,07,1.3,190.174,M,-37.20,M,01,0000*65
$GPGGA,192443.25,4346.9308722,N,07927.9388980,W,4,07,1.3,190.178,M,-37.20,M,00,0000*6D
$GPGGA,192443.50,4346.9308905,N,07927.9387280,W,4,07,1.3,190.174,M,-37.20,M,00,0000*6C
$GPGGA,192443.75,4346.9309027,N,07927.9385569,W,4,07,1.3,190.169,M,-37.20,M,00,0000*6D
$GPGGA,192444.00,4346.9309183,N,07927.9383950,W,4,07,1.3,190.175,M,-37.20,M,01,0000*6B
$GPGGA,192444.25,4346.9309355,N,07927.9382314,W,4,07,1.3,190.178,M,-37.20,M,00,0000*62
$GPGGA,192444.50,4346.9309650,N,07927.9380709,W,4,07,1.3,190.173,M,-37.20,M,00,0000*61
$GPGGA,192444.75,4346.9309888,N,07927.9379171,W,4,07,1.3,190.200,M,-37.20,M,00,0000*65
$GPGGA,192445.00,4346.9310230,N,07927.9377470,W,4,07,1.3,190.186,M,-37.20,M,01,0000*61
$GPGGA,192445.25,4346.9310455,N,07927.9375839,W,4,07,1.3,190.214,M,-37.20,M,00,0000*69
$GPGGA,192445.50,4346.9310769,N,07927.9374232,W,4,07,1.3,190.205,M,-37.20,M,00,0000*67
$GPGGA,192445.75,4346.9311051,N,07927.9372639,W,4,07,1.3,190.209,M,-37.20,M,00,0000*68
$GPGGA,192446.00,4346.9311352,N,07927.9370970,W,4,07,1.3,190.219,M,-37.20,M,01,0000*69
$GPGGA,192446.25,4346.9311648,N,07927.9369393,W,4,07,1.3,190.218,M,-37.20,M,00,0000*6F
$GPGGA,192446.50,4346.9311959,N,07927.9367776,W,4,07,1.3,190.216,M,-37.20,M,00,0000*6D
$GPGGA,192446.75,4346.9312226,N,07927.9366116,W,4,07,1.3,190.230,M,-37.20,M,00,0000*6F
$GPGGA,192447.00,4346.9312478,N,07927.9364407,W,4,07,1.3,190.199,M,-37.20,M,01,0000*67
$GPGGA,192447.25,4346.9312760,N,07927.9362811,W,4,07,1.3,190.232,M,-37.20,M,00,0000*64
$GPGGA,192447.50,4346.9313057,N,07927.9361130,W,4,07,1.3,190.223,M,-37.20,M,00,0000*6D
$GPGGA,192447.75,4346.9313364,N,07927.9359491,W,4,07,1.3,190.247,M,-37.20,M,00,0000*6E
$GPGGA,192448.00,4346.9313631,N,07927.9357809,W,4,07,1.3,190.238,M,-37.20,M,01,0000*6C
$GPGGA,192448.25,4346.9313941,N,07927.9356155,W,4,07,1.3,190.214,M,-37.20,M,00,0000*6D
$GPGGA,192448.50,4346.9314310,N,07927.9354474,W,4,07,1.3,190.206,M,-37.20,M,00,0000*61
$GPGGA,192448.75,4346.9314607,N,07927.9352924,W,4,07,1.3,190.226,M,-37.20,M,00,0000*69
$GPGGA,192449.00,4346.9314923,N,07927.9351219,W,4,07,1.3,190.215,M,-37.20,M,01,0000*64
$GPGGA,192449.25,4346.9315273,N,07927.9349657,W,4,07,1.3,190.225,M,-37.20,M,00,0000*69
$GPGGA,192449.50,4346.9315577,N,07927.9348041,W,4,07,1.3,190.211,M,-37.20,M,00,0000*6F
$GPGGA,192449.75,4346.9315922,N,07927.9346433,W,4,07,1.3,190.232,M,-37.20,M,00,0000*6A
$GPGGA,192450.00,4346.9316291,N,07927.9344713,W,4,07,1.3,190.213,M,-37.20,M,01,0000*61
$GPGGA,192450.25,4346.9316624,N,07927.9343137,W,4,07,1.3,190.196,M,-37.20,M,00,0000*64
$GPGGA,192450.50,4346.9316997,N,07927.9341505,W,4,07,1.3,190.205,M,-37.20,M,00,0000*6F
$GPGGA,192450.75,4346.9317294,N,07927.9339974,W,4,07,1.3,190.206,M,-37.20,M,00,0000*67
$GPGGA,192451.00,4346.9317709,N,07927.9338339,W,4,07,1.3,190.214,M,-37.20,M,01,0000*65
$GPGGA,192451.25,4346.9318012,N,07927.9336631,W,4,07,1.3,190.229,M,-37.20,M,00,0000*6C
$GPGGA,192451.50,4346.9318379,N,07927.9335063,W,4,07,1.3,190.206,M,-37.20,M,00,0000*6F
$GPGGA,192451.75,4346.9318727,N,07927.9333451,W,4,07,1.3,190.195,M,-37.20,M,00,0000*6D
$GPGGA,192452.00,4346.9319077,N,07927.9331734,W,4,07,1.3,190.222,M,-37.20,M,01,0000*63
$GPGGA,192452.25,4346.9319471,N,07927.9330232,W,4,07,1.3,190.207,M,-37.20,M,00,0000*62
$GPGGA,192452.50,4346.9319745,N,07927.9328536,W,4,07,1.3,190.215,M,-37.20,M,00,0000*6D
$GPGGA,192452.75,4346.9320088,N,07927.9327008,W,4,07,1.3,190.230,M,-37.20,M,00,0000*66
$GPGGA,192453.00,4346.9320424,N,07927.9325333,W,4,07,1.3,190.198,M,-37.20,M,01,0000*6E
$GPGGA,192453.25,4346.9320710,N,07927.9323715,W,4,07,1.3,190.241,M,-37.20,M,00,0000*6D
$GPGGA,192453.50,4346.9320997,N,07927.9322048,W,4,07,1.3,190.220,M,-37.20,M,00,0000*67
$GPGGA,192453.75,4346.9321210,N,07927.9320377,W,4,07,1.3,190.231,M,-37.20,M,00,0000*68
$GPGGA,192454.00,4346.9321482,N,07927.9318717,W,4,07,1.3,190.213,M,-37.20,M,01,0000*68
$GPGGA,192454.25,4346.9321667,N,07927.9316962,W,4,07,1.3,190.201,M,-37.20,M,00,0000*66
$GPGGA,192454.50,4346.9321878,N,07927.9315397,W,4,07,1.3,190.210,M,-37.20,M,00,0000*67
$GPGGA,192454.75,4346.9322044,N,07927.9313680,W,4,07,1.3,190.210,M,-37.20,M,00,0000*61
$GPGGA,192455.00,4346.9322275,N,07927.9312125,W,4,07,1.3,190.234,M,-37.20,M,01,0000*6C
$GPGGA,192455.25,4346.9322506,N,07927.9310435,W,4,07,1.3,190.211,M,-37.20,M,00,0000*68
$GPGGA,192455.50,4346.9322742,N,07927.9308788,W,4,07,1.3,190.218,M,-37.20,M,00,0000*6D
$GPGGA,192455.75,4346.9322957,N,07927.9307144,W,4,07,1.3,190.215,M,-37.20,M,00,0000*64
$GPGGA,192456.00,4346.9323175,N,07927.9305433,W,4,07,1.3,190.206,M,-37.20,M,01,0000*68
$GPGGA,192456.25,4346.9323392,N,07927.9303744,W,4,07,1.3,190.217,M,-37.20,M,00,0000*60
$GPGGA,192456.50,4346.9323620,N,07927.9302098,W,4,07,1.3,190.240,M,-37.20,M,00,0000*6B
$GPGGA,192456.75,4346.9323811,N,07927.9300449,W,4,07,1.3,190.238,M,-37.20,M,00,0000*65
$GPGGA,192457.00,4346.9324008,N,07927.9298797,W,4,07,1.3,190.234,M,-37.20,M,01,0000*6C
$GPGGA,192457.25,4346.9324215,N,07927.9297098,W,4,07,1.3,190.225,M,-37.20,M,00,0000*63
$GPGGA,192457.50,4346.9324439,N,07927.9295427,W,4,07,1.3,190.222,M,-37.20,M,00,0000*6C
$GPGGA,192457.75,4346.9324637,N,07927.9293751,W,4,07,1.3,190.224,M,-37.20,M,00,0000*65
$GPGGA,192458.00,4346.9324783,N,07927.9292046,W,4,07,1.3,190.216,M,-37.20,M,01,0000*66
$GPGGA,192458.25,4346.9325012,N,07927.9290349,W,4,07,1.3,190.226,M,-37.20,M,00,0000*63
$GPGGA,192458.50,4346.9325226,N,07927.9288752,W,4,07,1.3,190.240,M,-37.20,M,00,0000*63
$GPGGA,192458.75,4346.9325433,N,07927.9286896,W,4,07,1.3,190.206,M,-37.20,M,00,0000*6D
$GPGGA,192459.00,4346.9325651,N,07927.9285285,W,4,07,1.3,190.209,M,-37.20,M,01,0000*6D
$GPGGA,192459.25,4346.9325810,N,07927.9283547,W,4,07,1.3,190.211,M,-37.20,M,00,0000*66
$GPGGA,192459.50,4346.9326044,N,07927.9281955,W,4,07,1.3,190.226,M,-37.20,M,00,0000*67
$GPGGA,192459.75,4346.9326328,N,07927.9280370,W,4,07,1.3,190.211,M,-37.20,M,00,0000*61
$GPGGA,192500.00,4346.9326536,N,07927.9278657,W,4,07,1.3,190.211,M,-37.20,M,01,0000*61
$GPGGA,192500.25,4346.9326782,N,07927.9276958,W,4,07,1.3,190.206,M,-37.20,M,00,0000*62
$GPGGA,192500.50,4346.9326997,N,07927.9275337,W,4,07,1.3,190.216,M,-37.20,M,00,0000*6B
$GPGGA,192500.75,4346.9327191,N,07927.9273646,W,4,07,1.3,190.200,M,-37.20,M,00,0000*61
$GPGGA,192501.00,4346.9327418,N,07927.9271993,W,4,07,1.3,190.212,M,-37.20,M,01,0000*61
$GPGGA,192501.25,4346.9327551,N,07927.9270321,W,4,07,1.3,190.219,M,-37.20,M,00,0000*62
$GPGGA,192501.50,4346.9327811,N,07927.9268631,W,4,07,1.3,190.214,M,-37.20,M,00,0000*69
$GPGGA,192501.75,4346.9328011,N,07927.9267017,W,4,07,1.3,190.233,M,-37.20,M,00,0000*61
$GPGGA,192502.00,4346.9328207,N,07927.9265308,W,4,07,1.3,190.225,M,-37.20,M,01,0000*6C
$GPGGA,192502.25,4346.9328434,N,07927.9263589,W,4,07,1.3,190.188,M,-37.20,M,00,0000*61
$GPGGA,192502.50,4346.9328664,N,07927.9261959,W,4,07,1.3,190.201,M,-37.20,M,00,0000*65
$GPGGA,192502.75,4346.9328880,N,07927.9260267,W,4,07,1.3,190.194,M,-37.20,M,00,0000*6E
$GPGGA,192503.00,4346.9329079,N,07927.9258640,W,4,07,1.3,190.215,M,-37.20,M,01,0000*63
$GPGGA,192503.25,4346.9329283,N,07927.9256917,W,4,07,1.3,190.207,M,-37.20,M,00,0000*62
$GPGGA,192503.50,4346.9329548,N,07927.9255260,W,4,07,1.3,190.217,M,-37.20,M,00,0000*69
$GPGGA,192503.75,4346.9329748,N,07927.9253614,W,4,07,1.3,190.196,M,-37.20,M,00,0000*67
$GPGGA,192504.00,4346.9329983,N,07927.9251930,W,4,07,1.3,190.211,M,-37.20,M,01,0000*6D
$GPGGA,192504.25,4346.9330223,N,07927.9250214,W,4,07,1.3,190.194,M,-37.20,M,00,0000*60
$GPGGA,192504.50,4346.9330487,N,07927.9248625,W,4,07,1.3,190.210,M,-37.20,M,00,0000*6A
$GPGGA,192504.75,4346.9330749,N,07927.9246905,W,4,07,1.3,190.180,M,-37.20,M,00,0000*65
$GPGGA,192505.00,4346.9330966,N,07927.9245279,W,4,07,1.3,190.185,M,-37.20,M,01,0000*62
$GPGGA,192505.25,4346.9331287,N,07927.9243611,W,4,07,1.3,190.196,M,-37.20,M,00,0000*6F
$GPGGA,192505.50,4346.9331593,N,07927.9241944,W,4,07,1.3,190.206,M,-37.20,M,00,0000*68
$GPGGA,192505.75,4346.9331914,N,07927.9240342,W,4,07,1.3,190.197,M,-37.20,M,00,0000*6A
$GPGGA,192506.00,4346.9332246,N,07927.9238674,W,4,07,1.3,190.174,M,-37.20,M,01,0000*67
$GPGGA,192506.25,4346.9332524,N,07927.9237023,W,4,07,1.3,190.178,M,-37.20,M,00,0000*65
$GPGGA,192506.50,4346.9332844,N,07927.9235452,W,4,07,1.3,190.169,M,-37.20,M,00,0000*6C
$GPGGA,192506.75,4346.9333175,N,07927.9233790,W,4,07,1.3,190.157,M,-37.20,M,00,0000*67
$GPGGA,192507.00,4346.9333497,N,07927.9232146,W,4,07,1.3,190.154,M,-37.20,M,01,0000*63
$GPGGA,192507.25,4346.9333793,N,07927.9230607,W,4,07,1.3,190.172,M,-37.20,M,00,0000*66
$GPGGA,192507.50,4346.9334179,N,07927.9228946,W,4,07,1.3,190.173,M,-37.20,M,00,0000*63
$GPGGA,192507.75,4346.9334506,N,07927.9227306,W,4,07,1.3,190.181,M,-37.20,M,00,0000*64
$GPGGA,192508.00,4346.9334902,N,07927.9225718,W,4,07,1.3,190.159,M,-37.20,M,01,0000*6C
$GPGGA,192508.25,4346.9335237,N,07927.9223927,W,4,07,1.3,190.161,M,-37.20,M,00,0000*69
$GPGGA,192508.50,4346.9335560,N,07927.9222453,W,4,07,1.3,190.171,M,-37.20,M,00,0000*60
$GPGGA,192508.75,4346.9335947,N,07927.9220770,W,4,07,1.3,190.148,M,-37.20,M,00,0000*64
$GPGGA,192509.00,4346.9336324,N,07927.9219187,W,4,07,1.3,190.143,M,-37.20,M,01,0000*65
$GPGGA,192509.25,4346.9336616,N,07927.9217620,W,4,07,1.3,190.168,M,-37.20,M,00,0000*6A
$GPGGA,192509.50,4346.9337048,N,07927.9215990,W,4,07,1.3,190.151,M,-37.20,M,00,0000*68
$GPGGA,192509.75,4346.9337408,N,07927.9214393,W,4,07,1.3,190.141,M,-37.20,M,00,0000*66
$GPGGA,192510.00,4346.9337760,N,07927.9212733,W,4,07,1.3,190.133,M,-37.20,M,01,0000*6D
$GPGGA,192510.25,4346.9338136,N,07927.9211140,W,4,07,1.3,190.137,M,-37.20,M,00,0000*64
$GPGGA,192510.50,4346.9338553,N,07927.9209602,W,4,07,1.3,190.141,M,-37.20,M,00,0000*68
$GPGGA,192510.75,4346.9338946,N,07927.9207960,W,4,07,1.3,190.145,M,-37.20,M,00,0000*66
$GPGGA,192511.00,4346.9339307,N,07927.9206396,W,4,07,1.3,190.137,M,-37.20,M,01,0000*6D
$GPGGA,192511.25,4346.9339706,N,07927.9204767,W,4,07,1.3,190.133,M,-37.20,M,00,0000*62
$GPGGA,192511.50,4346.9340098,N,07927.9203128,W,4,07,1.3,190.118,M,-37.20,M,00,0000*6D
$GPGGA,192511.75,4346.9340541,N,07927.9201543,W,4,07,1.3,190.133,M,-37.20,M,00,0000*69
$GPGGA,192512.00,4346.9340917,N,07927.9199928,W,4,07,1.3,190.143,M,-37.20,M,01,0000*62
$GPGGA,192512.25,4346.9341357,N,07927.9198358,W,4,07,1.3,190.141,M,-37.20,M,00,0000*65
$GPGGA,192512.50,4346.9341708,N,07927.9196845,W,4,07,1.3,190.133,M,-37.20,M,00,0000*65
$GPGGA,192512.75,4346.9342086,N,07927.9195235,W,4,07,1.3,190.130,M,-37.20,M,00,0000*6D
$GPGGA,192513.00,4346.9342504,N,07927.9193630,W,4,07,1.3,190.117,M,-37.20,M,01,0000*62
$GPGGA,192513.25,4346.9342906,N,07927.9192067,W,4,07,1.3,190.120,M,-37.20,M,00,0000*6B
$GPGGA,192513.50,4346.9343306,N,07927.9190441,W,4,07,1.3,190.116,M,-37.20,M,00,0000*65
$GPGGA,192513.75,4346.9343723,N,07927.9188863,W,4,07,1.3,190.114,M,-37.20,M,00,0000*66
$GPGGA,192514.00,4346.9344145,N,07927.9187204,W,4,07,1.3,190.122,M,-37.20,M,01,0000*62
$GPGGA,192514.25,4346.9344520,N,07927.9185620,W,4,07,1.3,190.109,M,-37.20,M,00,0000*6A
$GPGGA,192514.50,4346.9344942,N,07927.9184113,W,4,07,1.3,190.098,M,-37.20,M,00,0000*6F
$GPGGA,192514.75,4346.9345378,N,07927.9182487,W,4,07,1.3,190.108,M,-37.20,M,00,0000*6C
$GPGGA,192515.00,4346.9345812,N,07927.9180896,W,4,07,1.3,190.106,M,-37.20,M,01,0000*69
$GPGGA,192515.25,4346.9346201,N,07927.9179329,W,4,07,1.3,190.104,M,-37.20,M,00,0000*6F
$GPGGA,192515.50,4346.9346648,N,07927.9177720,W,4,07,1.3,190.091,M,-37.20,M,00,0000*6A
$GPGGA,192515.75,4346.9347064,N,07927.9176093,W,4,07,1.3,190.098,M,-37.20,M,00,0000*63
$GPGGA,192516.00,4346.9347485,N,07927.9174508,W,4,07,1.3,190.101,M,-37.20,M,01,0000*6C
$GPGGA,192516.25,4346.9347932,N,07927.9172893,W,4,07,1.3,190.107,M,-37.20,M,00,0000*64
$GPGGA,192516.50,4346.9348405,N,07927.9171390,W,4,07,1.3,190.108,M,-37.20,M,00,0000*64
$GPGGA,192516.75,4346.9348813,N,07927.9169835,W,4,07,1.3,190.107,M,-37.20,M,00,0000*6A
$GPGGA,192517.00,4346.9349226,N,07927.9168243,W,4,07,1.3,190.091,M,-37.20,M,01,0000*61
$GPGGA,192517.25,4346.9349676,N,07927.9166599,W,4,07,1.3,190.113,M,-37.20,M,00,0000*63
$GPGGA,192517.50,4346.9350125,N,07927.9165054,W,4,07,1.3,190.122,M,-37.20,M,00,0000*6D
$GPGGA,192517.75,4346.9350613,N,07927.9163463,W,4,07,1.3,190.102,M,-37.20,M,00,0000*6C
$GPGGA,192518.00,4346.9351023,N,07927.9161857,W,4,07,1.3,190.106,M,-37.20,M,01,0000*69
$GPGGA,192518.25,4346.9351504,N,07927.9160216,W,4,07,1.3,190.086,M,-37.20,M,00,0000*68
$GPGGA,192518.50,4346.9351964,N,07927.9158726,W,4,07,1.3,190.083,M,-37.20,M,00,0000*68
$GPGGA,192518.75,4346.9352407,N,07927.9157159,W,4,07,1.3,190.086,M,-37.20,M,00,0000*60
$GPGGA,192519.00,4346.9352882,N,07927.9155553,W,4,07,1.3,190.095,M,-37.20,M,01,0000*6D
$GPGGA,192519.25,4346.9353328,N,07927.9153968,W,4,06,1.3,190.079,M,-37.20,M,00,0000*60
$GPGGA,192519.50,4346.9353790,N,07927.9152437,W,4,06,1.3,190.087,M,-37.20,M,00,0000*62
$GPGGA,192519.75,4346.9354299,N,07927.9150964,W,4,06,1.3,190.070,M,-37.20,M,00,0000*6F
$GPGGA,192520.00,4346.9354743,N,07927.9149352,W,4,06,1.3,190.067,M,-37.20,M,01,0000*65
$GPGGA,192520.25,4346.9355200,N,07927.9147797,W,4,06,1.4,190.062,M,-37.20,M,00,0000*61
$GPGGA,192520.50,4346.9355701,N,07927.9146275,W,4,06,1.4,190.065,M,-37.20,M,00,0000*68
$GPGGA,192520.75,4346.9356144,N,07927.9144731,W,4,06,1.4,190.066,M,-37.20,M,00,0000*6F
$GPGGA,192521.00,4346.9356629,N,07927.9143171,W,4,06,1.4,190.059,M,-37.20,M,01,0000*68
$GPGGA,192521.25,4346.9357033,N,07927.9141606,W,4,06,1.4,190.054,M,-37.20,M,00,0000*6A
$GPGGA,192521.50,4346.9357435,N,07927.9139956,W,4,06,1.4,190.047,M,-37.20,M,00,0000*6D
$GPGGA,192521.75,4346.9357795,N,07927.9138360,W,4,06,1.4,190.035,M,-37.20,M,00,0000*68
$GPGGA,192522.00,4346.9358176,N,07927.9136774,W,4,07,1.4,190.030,M,-37.20,M,01,0000*67
$GPGGA,192522.25,4346.9358525,N,07927.9135086,W,4,07,1.3,190.035,M,-37.20,M,00,0000*68
$GPGGA,192522.50,4346.9358895,N,07927.9133528,W,4,07,1.3,190.024,M,-37.20,M,00,0000*6B
$GPGGA,192522.75,4346.9359213,N,07927.9131882,W,4,07,1.3,190.025,M,-37.20,M,00,0000*67
$GPGGA,192523.00,4346.9359623,N,07927.9130329,W,4,07,1.3,190.043,M,-37.20,M,01,0000*69
$GPGGA,192523.25,4346.9359988,N,07927.9128672,W,4,07,1.3,190.045,M,-37.20,M,00,0000*65
$GPGGA,192523.50,4346.9360336,N,07927.9127060,W,4,07,1.3,190.034,M,-37.20,M,00,0000*6E
$GPGGA,192523.75,4346.9360737,N,07927.9125459,W,4,07,1.3,190.024,M,-37.20,M,00,0000*61
$GPGGA,192524.00,4346.9361108,N,07927.9123849,W,4,07,1.3,190.024,M,-37.20,M,01,0000*65
$GPGGA,192524.25,4346.9361442,N,07927.9122129,W,4,07,1.3,189.997,M,-37.20,M,00,0000*6F
$GPGGA,192524.50,4346.9361793,N,07927.9120521,W,4,07,1.3,190.001,M,-37.20,M,00,0000*62
$GPGGA,192524.75,4346.9362191,N,07927.9118907,W,4,07,1.3,189.997,M,-37.20,M,00,0000*6F
$GPGGA,192525.00,4346.9362613,N,07927.9117344,W,4,07,1.3,190.000,M,-37.20,M,01,0000*6D
$GPGGA,192525.25,4346.9362901,N,07927.9115657,W,4,07,1.3,189.976,M,-37.20,M,00,0000*62
$GPGGA,192525.50,4346.9363268,N,07927.9114052,W,4,07,1.3,189.986,M,-37.20,M,00,0000*68
$GPGGA,192525.75,4346.9363651,N,07927.9112448,W,4,07,1.3,189.983,M,-37.20,M,00,0000*6D
$GPGGA,192526.00,4346.9364022,N,07927.9110832,W,4,07,1.3,189.968,M,-37.20,M,01,0000*6E
$GPGGA,192526.25,4346.9364354,N,07927.9109142,W,4,07,1.3,189.968,M,-37.20,M,00,0000*6C
$GPGGA,192526.50,4346.9364693,N,07927.9107604,W,4,07,1.3,189.961,M,-37.20,M,00,0000*62
$GPGGA,192526.75,4346.9365072,N,07927.9105937,W,4,07,1.3,189.949,M,-37.20,M,00,0000*6A
$GPGGA,192527.00,4346.9365443,N,07927.9104348,W,4,07,1.3,189.942,M,-37.20,M,01,0000*66
$GPGGA,192527.25,4346.9365722,N,07927.9102684,W,4,07,1.3,189.969,M,-37.20,M,00,0000*6E
$GPGGA,192527.50,4346.9366078,N,07927.9101033,W,4,07,1.3,189.959,M,-37.20,M,00,0000*6D
$GPGGA,192527.75,4346.9366428,N,07927.9099390,W,4,07,1.3,189.960,M,-37.20,M,00,0000*6B
$GPGGA,192528.00,4346.9366819,N,07927.9097798,W,4,07,1.3,189.932,M,-37.20,M,01,0000*6C
$GPGGA,192528.25,4346.9367201,N,07927.9096217,W,4,07,1.3,189.951,M,-37.20,M,00,0000*6E
$GPGGA,192528.50,4346.9367524,N,07927.9094637,W,4,07,1.3,189.969,M,-37.20,M,00,0000*63
$GPGGA,192528.75,4346.9367822,N,07927.9092982,W,4,07,1.3,189.948,M,-37.20,M,00,0000*6B
$GPGGA,192529.00,4346.9368145,N,07927.9091406,W,4,07,1.3,189.929,M,-37.20,M,01,0000*6B
$GPGGA,192529.25,4346.9368511,N,07927.9089795,W,4,07,1.3,189.924,M,-37.20,M,00,0000*65
$GPGGA,192529.50,4346.9368897,N,07927.9088201,W,4,07,1.3,189.909,M,-37.20,M,00,0000*62
$GPGGA,192529.75,4346.9369240,N,07927.9086513,W,4,07,1.3,189.917,M,-37.20,M,00,0000*61
$GPGGA,192530.00,4346.9369583,N,07927.9084862,W,4,07,1.3,189.901,M,-37.20,M,01,0000*6C
$GPGGA,192530.25,4346.9369818,N,07927.9083217,W,4,07,1.3,189.891,M,-37.20,M,00,0000*62
$GPGGA,192530.50,4346.9369894,N,07927.9081586,W,4,07,1.3,189.907,M,-37.20,M,00,0000*67
$GPGGA,192530.75,4346.9369917,N,07927.9079805,W,4,07,1.3,189.887,M,-37.20,M,00,0000*62
$GPGGA,192531.00,4346.9370140,N,07927.9078206,W,4,07,1.3,189.870,M,-37.20,M,01,0000*62
$GPGGA,192531.25,4346.9370323,N,07927.9076576,W,4,07,1.3,189.860,M,-37.20,M,00,0000*6C
$GPGGA,192531.50,4346.9370420,N,07927.9074826,W,4,07,1.3,189.871,M,-37.20,M,00,0000*60
$GPGGA,192531.75,4346.9370557,N,07927.9073199,W,4,07,1.3,189.853,M,-37.20,M,00,0000*6C
$GPGGA,192532.00,4346.9370780,N,07927.9071500,W,4,07,1.3,189.842,M,-37.20,M,01,0000*62
$GPGGA,192532.25,4346.9370943,N,07927.9069837,W,4,07,1.3,189.847,M,-37.20,M,00,0000*60
$GPGGA,192532.50,4346.9371136,N,07927.9068119,W,4,07,1.3,189.835,M,-37.20,M,00,0000*68
$GPGGA,192532.75,4346.9371267,N,07927.9066498,W,4,07,1.3,189.832,M,-37.20,M,00,0000*6D
$GPGGA,192533.00,4346.9371483,N,07927.9064771,W,4,07,1.3,189.831,M,-37.20,M,01,0000*66
$GPGGA,192533.25,4346.9371654,N,07927.9063069,W,4,07,1.3,189.850,M,-37.20,M,00,0000*66
$GPGGA,192533.50,4346.9371803,N,07927.9061413,W,4,07,1.3,189.851,M,-37.20,M,00,0000*62
$GPGGA,192533.75,4346.9371929,N,07927.9059713,W,4,07,1.3,189.831,M,-37.20,M,00,0000*62
$GPGGA,192534.00,4346.9372100,N,07927.9058008,W,4,07,1.3,189.824,M,-37.20,M,01,0000*6E
$GPGGA,192534.25,4346.9372246,N,07927.9056388,W,4,07,1.3,189.831,M,-37.20,M,00,0000*68
$GPGGA,192534.50,4346.9372386,N,07927.9054674,W,4,07,1.3,189.821,M,-37.20,M,00,0000*62
$GPGGA,192534.75,4346.9372528,N,07927.9053031,W,4,07,1.3,189.828,M,-37.20,M,00,0000*6E
$GPGGA,192535.00,4346.9372655,N,07927.9051302,W,4,07,1.3,189.825,M,-37.20,M,01,0000*69
$GPGGA,192535.25,4346.9372806,N,07927.9049596,W,4,07,1.3,189.823,M,-37.20,M,00,0000*63
$GPGGA,192535.50,4346.9372937,N,07927.9047884,W,4,07,1.3,189.811,M,-37.20,M,00,0000*63
$GPGGA,192535.75,4346.9373051,N,07927.9046301,W,4,07,1.3,189.833,M,-37.20,M,00,0000*6B
$GPGGA,192536.00,4346.9373202,N,07927.9044693,W,4,07,1.3,189.830,M,-37.20,M,01,0000*60
$GPGGA,192536.25,4346.9373343,N,07927.9043041,W,4,07,1.3,189.832,M,-37.20,M,00,0000*6E
$GPGGA,192536.50,4346.9373422,N,07927.9041322,W,4,07,1.3,189.824,M,-37.20,M,00,0000*6F
$GPGGA,192536.75,4346.9373523,N,07927.9039576,W,4,07,1.3,189.822,M,-37.20,M,00,0000*66
$GPGGA,192537.00,4346.9373718,N,07927.9037831,W,4,07,1.3,189.814,M,-37.20,M,01,0000*6B
$GPGGA,192537.25,4346.9373873,N,07927.9036179,W,4,07,1.3,189.812,M,-37.20,M,00,0000*6D
$GPGGA,192537.50,4346.9374006,N,07927.9034507,W,4,07,1.3,189.810,M,-37.20,M,00,0000*6F
$GPGGA,192537.75,4346.9374185,N,07927.9032798,W,4,07,1.3,189.805,M,-37.20,M,00,0000*64
$GPGGA,192538.00,4346.9374330,N,07927.9031138,W,4,07,1.3,189.802,M,-37.20,M,01,0000*6C
$GPGGA,192538.25,4346.9374455,N,07927.9029471,W,4,07,1.3,189.796,M,-37.20,M,00,0000*6D
$GPGGA,192538.50,4346.9374582,N,07927.9027676,W,4,07,1.3,189.788,M,-37.20,M,00,0000*60
$GPGGA,192538.75,4346.9374740,N,07927.9026083,W,4,07,1.3,189.791,M,-37.20,M,00,0000*6E
$GPGGA,192539.00,4346.9374908,N,07927.9024325,W,4,07,1.3,189.783,M,-37.20,M,01,0000*60
$GPGGA,192539.25,4346.9375130,N,07927.9022671,W,4,07,1.3,189.779,M,-37.20,M,00,0000*63
$GPGGA,192539.50,4346.9375295,N,07927.9020991,W,4,07,1.3,189.782,M,-37.20,M,00,0000*6A
$GPGGA,192539.75,4346.9375485,N,07927.9019370,W,4,07,1.3,189.742,M,-37.20,M,00,0000*69
$GPGGA,192540.00,4346.9375671,N,07927.9017604,W,4,07,1.3,189.768,M,-37.20,M,01,0000*6D
$GPGGA,192540.25,4346.9375843,N,07927.9016001,W,4,07,1.3,189.776,M,-37.20,M,00,0000*69
$GPGGA,192540.50,4346.9375975,N,07927.9014281,W,4,07,1.3,189.748,M,-37.20,M,00,0000*6A
$GPGGA,192540.75,4346.9376161,N,07927.9012589,W,4,07,1.3,189.743,M,-37.20,M,00,0000*61
$GPGGA,192541.00,4346.9376333,N,07927.9010855,W,4,07,1.3,189.727,M,-37.20,M,01,0000*6A
$GPGGA,192541.25,4346.9376448,N,07927.9009222,W,4,07,1.3,189.726,M,-37.20,M,00,0000*64
$GPGGA,192541.50,4346.9376581,N,07927.9007477,W,4,07,1.3,189.740,M,-37.20,M,00,0000*6A
$GPGGA,192541.75,4346.9376751,N,07927.9005902,W,4,07,1.3,189.725,M,-37.20,M,00,0000*6C
$GPGGA,192542.00,4346.9376921,N,07927.9004219,W,4,07,1.3,189.705,M,-37.20,M,01,0000*67
$GPGGA,192542.25,4346.9377042,N,07927.9002496,W,4,07,1.3,189.706,M,-37.20,M,00,0000*68
$GPGGA,192542.50,4346.9377139,N,07927.9000733,W,4,07,1.3,189.699,M,-37.20,M,00,0000*6E
$GPGGA,192542.75,4346.9377212,N,07927.8999109,W,4,07,1.3,189.683,M,-37.20,M,00,0000*6F
$GPGGA,192543.00,4346.9377207,N,07927.8997375,W,4,07,1.3,189.679,M,-37.20,M,01,0000*6B
$GPGGA,192543.25,4346.9377225,N,07927.8995696,W,4,07,1.3,189.681,M,-37.20,M,00,0000*60
$GPGGA,192543.50,4346.9377177,N,07927.8994008,W,4,07,1.3,189.666,M,-37.20,M,00,0000*6F
$GPGGA,192543.75,4346.9377117,N,07927.8992340,W,4,07,1.3,189.679,M,-37.20,M,00,0000*69
$GPGGA,192544.00,4346.9377001,N,07927.8990645,W,4,07,1.3,189.666,M,-37.20,M,01,0000*67
$GPGGA,192544.25,4346.9376837,N,07927.8989048,W,4,07,1.3,189.656,M,-37.20,M,00,0000*6D
$GPGGA,192544.50,4346.9376608,N,07927.8987420,W,4,07,1.3,189.651,M,-37.20,M,00,0000*6E
$GPGGA,192544.75,4346.9376303,N,07927.8985741,W,4,07,1.3,189.644,M,-37.20,M,00,0000*65
$GPGGA,192545.00,4346.9376015,N,07927.8984120,W,4,07,1.3,189.649,M,-37.20,M,01,0000*6E
$GPGGA,192545.25,4346.9375647,N,07927.8982450,W,4,07,1.3,189.665,M,-37.20,M,00,0000*60
$GPGGA,192545.50,4346.9375321,N,07927.8980840,W,4,07,1.3,189.669,M,-37.20,M,00,0000*64
$GPGGA,192545.75,4346.9374893,N,07927.8979207,W,4,07,1.3,189.658,M,-37.20,M,00,0000*6D
$GPGGA,192546.00,4346.9374424,N,07927.8977731,W,4,07,1.3,189.628,M,-37.20,M,01,0000*64
$GPGGA,192546.25,4346.9373858,N,07927.8976097,W,4,07,1.3,189.631,M,-37.20,M,00,0000*60
$GPGGA,192546.50,4346.9373321,N,07927.8974521,W,4,07,1.3,189.631,M,-37.20,M,00,0000*6D
$GPGGA,192546.75,4346.9372747,N,07927.8973072,W,4,07,1.3,189.630,M,-37.20,M,00,0000*6A
$GPGGA,192547.00,4346.9372177,N,07927.8971478,W,4,07,1.3,189.639,M,-37.20,M,01,0000*68
$GPGGA,192547.25,4346.9371651,N,07927.8969995,W,4,07,1.3,189.620,M,-37.20,M,00,0000*61
$GPGGA,192547.50,4346.9371065,N,07927.8968466,W,4,07,1.3,189.626,M,-37.20,M,00,0000*64
$GPGGA,192547.75,4346.9370502,N,07927.8966970,W,4,07,1.3,189.619,M,-37.20,M,00,0000*6E
$GPGGA,192548.00,4346.9369928,N,07927.8965501,W,4,07,1.3,189.638,M,-37.20,M,01,0000*64
$GPGGA,192548.25,4346.9369369,N,07927.8964053,W,4,07,1.3,189.615,M,-37.20,M,00,0000*61
$GPGGA,192548.50,4346.9368783,N,07927.8962567,W,4,07,1.3,189.616,M,-37.20,M,00,0000*65
$GPGGA,192548.75,4346.9368236,N,07927.8961027,W,4,07,1.3,189.608,M,-37.20,M,00,0000*64
$GPGGA,192549.00,4346.9367643,N,07927.8959557,W,4,07,1.3,189.600,M,-37.20,M,01,0000*6E
$GPGGA,192549.25,4346.9367019,N,07927.8957995,W,4,07,1.3,189.613,M,-37.20,M,00,0000*6F
$GPGGA,192549.50,4346.9366463,N,07927.8956444,W,4,07,1.3,189.597,M,-37.20,M,00,0000*6A
$GPGGA,192549.75,4346.9365872,N,07927.8954936,W,4,07,1.3,189.616,M,-37.20,M,00,0000*62
$GPGGA,192550.00,4346.9365314,N,07927.8953414,W,4,07,1.3,189.627,M,-37.20,M,01,0000*6A
$GPGGA,192550.25,4346.9364859,N,07927.8951986,W,4,07,1.3,189.604,M,-37.20,M,00,0000*6A
$GPGGA,192550.50,4346.9364408,N,07927.8950433,W,4,07,1.3,189.602,M,-37.20,M,00,0000*64
$GPGGA,192550.75,4346.9364046,N,07927.8948813,W,4,07,1.3,189.594,M,-37.20,M,00,0000*66
$GPGGA,192551.00,4346.9363645,N,07927.8947218,W,4,07,1.3,189.603,M,-37.20,M,01,0000*65
$GPGGA,192551.25,4346.9363214,N,07927.8945668,W,4,07,1.3,189.614,M,-37.20,M,00,0000*64
$GPGGA,192551.50,4346.9362742,N,07927.8944076,W,4,07,1.3,189.596,M,-37.20,M,00,0000*60
$GPGGA,192551.75,4346.9362284,N,07927.8942439,W,4,07,1.3,189.618,M,-37.20,M,00,0000*64
$GPGGA,192552.00,4346.9361773,N,07927.8940839,W,4,07,1.3,189.609,M,-37.20,M,01,0000*64
$GPGGA,192552.25,4346.9361424,N,07927.8939307,W,4,07,1.3,189.611,M,-37.20,M,00,0000*62
$GPGGA,192552.50,4346.9361011,N,07927.8937741,W,4,06,1.3,189.600,M,-37.20,M,00,0000*6B
$GPGGA,192552.75,4346.9360576,N,07927.8936151,W,4,06,1.3,189.598,M,-37.20,M,00,0000*6D
$GPGGA,192553.00,4346.9360084,N,07927.8934558,W,4,06,1.3,189.582,M,-37.20,M,01,0000*63
$GPGGA,192553.25,4346.9359521,N,07927.8933033,W,4,06,1.3,189.589,M,-37.20,M,00,0000*61
$GPGGA,192553.50,4346.9358977,N,07927.8931472,W,4,06,1.3,189.597,M,-37.20,M,00,0000*61
$GPGGA,192553.75,4346.9358455,N,07927.8930092,W,4,06,1.3,189.593,M,-37.20,M,00,0000*64
$GPGGA,192554.00,4346.9357893,N,07927.8928634,W,4,06,1.3,189.573,M,-37.20,M,01,0000*64
$GPGGA,192554.25,4346.9357354,N,07927.8927036,W,4,06,1.3,189.559,M,-37.20,M,00,0000*61
$GPGGA,192554.50,4346.9356810,N,07927.8925494,W,4,06,1.3,189.556,M,-37.20,M,00,0000*68
$GPGGA,192554.75,4346.9356225,N,07927.8923875,W,4,06,1.3,189.547,M,-37.20,M,00,0000*66
$GPGGA,192555.00,4346.9355513,N,07927.8922382,W,4,06,1.3,189.539,M,-37.20,M,01,0000*6E
$GPGGA,192555.25,4346.9354911,N,07927.8920883,W,4,06,1.3,189.546,M,-37.20,M,00,0000*67
$GPGGA,192555.50,4346.9354362,N,07927.8919429,W,4,06,1.3,189.547,M,-37.20,M,00,0000*6C
$GPGGA,192555.75,4346.9353752,N,07927.8917975,W,4,06,1.3,189.554,M,-37.20,M,00,0000*63
$GPGGA,192556.00,4346.9353196,N,07927.8916514,W,4,06,1.3,189.538,M,-37.20,M,01,0000*6D
$GPGGA,192556.25,4346.9352581,N,07927.8914992,W,4,06,1.3,189.516,M,-37.20,M,00,0000*64
$GPGGA,192556.50,4346.9351972,N,07927.8913488,W,4,06,1.3,189.502,M,-37.20,M,00,0000*61
$GPGGA,192556.75,4346.9351440,N,07927.8912205,W,4,06,1.3,189.520,M,-37.20,M,00,0000*68
$GPGGA,192557.00,4346.9350814,N,07927.8910577,W,4,07,1.3,189.504,M,-37.20,M,01,0000*61
$GPGGA,192557.25,4346.9350226,N,07927.8909104,W,4,07,1.3,189.501,M,-37.20,M,00,0000*61
$GPGGA,192557.50,4346.9349615,N,07927.8907699,W,4,07,1.3,189.501,M,-37.20,M,00,0000*62
$GPGGA,192557.75,4346.9348926,N,07927.8906081,W,4,06,1.3,189.479,M,-37.20,M,00,0000*6A
$GPGGA,192558.00,4346.9348353,N,07927.8904791,W,4,06,1.3,189.470,M,-37.20,M,01,0000*63
$GPGGA,192558.25,4346.9347698,N,07927.8903327,W,4,07,1.3,189.489,M,-37.20,M,00,0000*61
$GPGGA,192558.50,4346.9347006,N,07927.8901991,W,4,07,1.3,189.494,M,-37.20,M,00,0000*6B
$GPGGA,192558.75,4346.9346343,N,07927.8900678,W,4,07,1.3,189.490,M,-37.20,M,00,0000*62
$GPGGA,192559.00,4346.9345555,N,07927.8899298,W,4,07,1.3,189.481,M,-37.20,M,01,0000*69
$GPGGA,192559.25,4346.9344760,N,07927.8897883,W,4,07,1.3,189.474,M,-37.20,M,00,0000*6E
$GPGGA,192559.50,4346.9344026,N,07927.8896584,W,4,07,1.3,189.474,M,-37.20,M,00,0000*62
$GPGGA,192559.75,4346.9343275,N,07927.8895215,W,4,07,1.3,189.479,M,-37.20,M,00,0000*67
$GPGGA,192600.00,4346.9342557,N,07927.8893871,W,4,07,1.3,189.485,M,-37.20,M,01,0000*60
$GPGGA,192600.25,4346.9341755,N,07927.8892483,W,4,06,1.3,189.470,M,-37.20,M,00,0000*6E
$GPGGA,192600.50,4346.9341057,N,07927.8891208,W,4,06,1.3,189.484,M,-37.20,M,00,0000*64
$GPGGA,192600.75,4346.9340327,N,07927.8889958,W,4,06,1.3,189.464,M,-37.20,M,00,0000*6F
$GPGGA,192601.00,4346.9339586,N,07927.8888586,W,4,06,1.3,189.464,M,-37.20,M,01,0000*60
$GPGGA,192601.25,4346.9338743,N,07927.8887186,W,4,06,1.3,189.457,M,-37.20,M,00,0000*67
$GPGGA,192601.50,4346.9337930,N,07927.8885855,W,4,06,1.3,189.471,M,-37.20,M,00,0000*61
$GPGGA,192601.75,4346.9337165,N,07927.8884531,W,4,06,1.3,189.470,M,-37.20,M,00,0000*61
$GPGGA,192602.00,4346.9336381,N,07927.8883246,W,4,06,1.3,189.477,M,-37.20,M,01,0000*6F
$GPGGA,192602.25,4346.9335678,N,07927.8882109,W,4,06,1.3,189.453,M,-37.20,M,00,0000*66
$GPGGA,192602.50,4346.9334854,N,07927.8880934,W,4,06,1.3,189.448,M,-37.20,M,00,0000*6B
$GPGGA,192602.75,4346.9333991,N,07927.8879723,W,4,06,1.3,189.439,M,-37.20,M,00,0000*6B
$GPGGA,192603.00,4346.9333164,N,07927.8878571,W,4,06,1.3,189.450,M,-37.20,M,01,0000*60
$GPGGA,192603.25,4346.9332165,N,07927.8877276,W,4,06,1.3,189.448,M,-37.20,M,00,0000*60
$GPGGA,192603.50,4346.9331240,N,07927.8876196,W,4,06,1.3,189.446,M,-37.20,M,00,0000*67
$GPGGA,192603.75,4346.9330320,N,07927.8875190,W,4,06,1.3,189.447,M,-37.20,M,00,0000*62
$GPGGA,192604.00,4346.9329305,N,07927.8874155,W,4,06,1.3,189.471,M,-37.20,M,01,0000*64
$GPGGA,192604.25,4346.9328381,N,07927.8873195,W,4,06,1.3,189.457,M,-37.20,M,00,0000*60
$GPGGA,192604.50,4346.9327379,N,07927.8872242,W,4,06,1.3,189.476,M,-37.20,M,00,0000*61
$GPGGA,192604.75,4346.9326405,N,07927.8871258,W,4,06,1.3,189.475,M,-37.20,M,00,0000*60
$GPGGA,192605.00,4346.9325393,N,07927.8870218,W,4,06,1.3,189.460,M,-37.20,M,01,0000*68
$GPGGA,192605.25,4346.9324482,N,07927.8869288,W,4,06,1.3,189.467,M,-37.20,M,00,0000*6E
$GPGGA,192605.50,4346.9323432,N,07927.8868259,W,4,06,1.3,189.477,M,-37.20,M,00,0000*6C
$GPGGA,192605.75,4346.9322472,N,07927.8867284,W,4,06,1.3,189.480,M,-37.20,M,00,0000*69
$GPGGA,192606.00,4346.9321537,N,07927.8866336,W,4,06,1.3,189.506,M,-37.20,M,01,0000*6C
$GPGGA,192606.25,4346.9320517,N,07927.8865334,W,4,06,1.3,189.471,M,-37.20,M,00,0000*69
$GPGGA,192606.50,4346.9319514,N,07927.8864390,W,4,06,1.3,189.493,M,-37.20,M,00,0000*61
$GPGGA,192606.75,4346.9318516,N,07927.8863404,W,4,07,1.3,189.513,M,-37.20,M,00,0000*60
$GPGGA,192607.00,4346.9317474,N,07927.8862381,W,4,07,1.3,189.505,M,-37.20,M,01,0000*64
$GPGGA,192607.25,4346.9316477,N,07927.8861438,W,4,07,1.3,189.490,M,-37.20,M,00,0000*6B
$GPGGA,192607.50,4346.9315471,N,07927.8860425,W,4,07,1.3,189.519,M,-37.20,M,00,0000*61
$GPGGA,192607.75,4346.9314458,N,07927.8859477,W,4,06,1.3,189.521,M,-37.20,M,00,0000*6B
$GPGGA,192608.00,4346.9313469,N,07927.8858524,W,4,06,1.3,189.509,M,-37.20,M,01,0000*6E
$GPGGA,192608.25,4346.9312357,N,07927.8857580,W,4,06,1.3,189.501,M,-37.20,M,00,0000*6A
$GPGGA,192608.50,4346.9311357,N,07927.8856583,W,4,06,1.3,189.514,M,-37.20,M,00,0000*6D
$GPGGA,192608.75,4346.9310345,N,07927.8855684,W,4,06,1.3,189.517,M,-37.20,M,00,0000*6C
$GPGGA,192609.00,4346.9309312,N,07927.8854614,W,4,06,1.3,189.520,M,-37.20,M,01,0000*68
$GPGGA,192609.25,4346.9308257,N,07927.8853693,W,4,06,1.3,189.509,M,-37.20,M,01,0000*6D
$GPGGA,192609.50,4346.9307202,N,07927.8852772,W,4,06,1.3,189.521,M,-37.20,M,01,0000*65
$GPGGA,192609.75,4346.9306138,N,07927.8851818,W,4,06,1.3,189.513,M,-37.20,M,01,0000*68
$GPGGA,192610.00,4346.9305157,N,07927.8850924,W,4,06,1.3,189.512,M,-37.20,M,02,0000*65
$GPGGA,192610.25,4346.9304168,N,07927.8850041,W,4,06,1.3,189.526,M,-37.20,M,00,0000*60
$GPGGA,192610.50,4346.9303182,N,07927.8849116,W,4,06,1.3,189.540,M,-37.20,M,00,0000*6A
$GPGGA,192610.75,4346.9302096,N,07927.8848194,W,4,06,1.3,189.554,M,-37.20,M,00,0000*66
$GPGGA,192611.00,4346.9301097,N,07927.8847294,W,4,06,1.3,189.552,M,-37.20,M,01,0000*6C
$GPGGA,192611.25,4346.9300041,N,07927.8846325,W,4,06,1.3,189.564,M,-37.20,M,01,0000*6E
$GPGGA,192611.50,4346.9299071,N,07927.8845384,W,4,06,1.3,189.553,M,-37.20,M,01,0000*62
$GPGGA,192611.75,4346.9297991,N,07927.8844349,W,4,06,1.3,189.546,M,-37.20,M,01,0000*68
$GPGGA,192612.00,4346.9297054,N,07927.8843429,W,4,06,1.3,189.566,M,-37.20,M,02,0000*6E
$GPGGA,192612.25,4346.9296021,N,07927.8842428,W,4,06,1.3,189.541,M,-37.20,M,00,0000*6D
$GPGGA,192612.50,4346.9295079,N,07927.8841444,W,4,06,1.3,189.534,M,-37.20,M,00,0000*6A
$GPGGA,192612.75,4346.9294063,N,07927.8840486,W,4,06,1.3,189.526,M,-37.20,M,00,0000*6B
$GPGGA,192613.00,4346.9293140,N,07927.8839570,W,4,06,1.3,189.533,M,-37.20,M,01,0000*6C
$GPGGA,192613.25,4346.9292140,N,07927.8838656,W,4,06,1.3,189.543,M,-37.20,M,01,0000*6B
$GPGGA,192613.50,4346.9291096,N,07927.8837640,W,4,06,1.3,189.541,M,-37.20,M,01,0000*6A
$GPGGA,192613.75,4346.9290090,N,07927.8836677,W,4,06,1.3,189.532,M,-37.20,M,01,0000*6B
$GPGGA,192614.00,4346.9289128,N,07927.8835723,W,4,07,1.3,189.550,M,-37.20,M,02,0000*61
$GPGGA,192614.25,4346.9287911,N,07927.8834535,W,4,07,1.3,189.547,M,-37.20,M,00,0000*6A
$GPGGA,192614.50,4346.9286929,N,07927.8833526,W,4,07,1.3,189.564,M,-37.20,M,00,0000*66
$GPGGA,192614.75,4346.9285937,N,07927.8832588,W,4,07,1.3,189.569,M,-37.20,M,00,0000*65
$GPGGA,192615.00,4346.9284970,N,07927.8831587,W,4,07,1.3,189.572,M,-37.20,M,01,0000*63
$GPGGA,192615.25,4346.9284023,N,07927.8830680,W,4,07,1.3,189.584,M,-37.20,M,00,0000*66
$GPGGA,192615.50,4346.9283050,N,07927.8829688,W,4,07,1.3,189.583,M,-37.20,M,00,0000*60
$GPGGA,192615.75,4346.9282003,N,07927.8828674,W,4,07,1.3,189.579,M,-37.20,M,00,0000*67
$GPGGA,192616.00,4346.9281072,N,07927.8827699,W,4,07,1.3,189.593,M,-37.20,M,01,0000*6A
$GPGGA,192616.25,4346.9280051,N,07927.8826693,W,4,07,1.3,189.605,M,-37.20,M,00,0000*6B
$GPGGA,192616.50,4346.9279109,N,07927.8825687,W,4,07,1.3,189.602,M,-37.20,M,00,0000*62
$GPGGA,192616.75,4346.9278114,N,07927.8824677,W,4,07,1.3,189.604,M,-37.20,M,00,0000*60
$GPGGA,192617.00,4346.9277203,N,07927.8823652,W,4,07,1.3,189.619,M,-37.20,M,01,0000*64
$GPGGA,192617.25,4346.9276216,N,07927.8822725,W,4,07,1.3,189.603,M,-37.20,M,00,0000*6C
$GPGGA,192617.50,4346.9275220,N,07927.8821657,W,4,07,1.3,189.617,M,-37.20,M,00,0000*6A
$GPGGA,192617.75,4346.9274138,N,07927.8820579,W,4,07,1.3,189.614,M,-37.20,M,00,0000*6B
$GPGGA,192618.00,4346.9273255,N,07927.8819620,W,4,07,1.3,189.607,M,-37.20,M,01,0000*6F
$GPGGA,192618.25,4346.9272273,N,07927.8818575,W,4,07,1.3,189.603,M,-37.20,M,00,0000*6A
$GPGGA,192618.50,4346.9271337,N,07927.8817581,W,4,07,1.3,189.607,M,-37.20,M,00,0000*6A
$GPGGA,192618.75,4346.9270333,N,07927.8816506,W,4,07,1.3,189.633,M,-37.20,M,00,0000*61
$GPGGA,192619.00,4346.9269338,N,07927.8815432,W,4,07,1.3,189.632,M,-37.20,M,01,0000*64
$GPGGA,192619.25,4346.9268343,N,07927.8814373,W,4,07,1.3,189.582,M,-37.20,M,00,0000*64
$GPGGA,192619.50,4346.9267382,N,07927.8813359,W,4,07,1.3,189.597,M,-37.20,M,00,0000*6F
$GPGGA,192619.75,4346.9266378,N,07927.8812270,W,4,07,1.3,189.591,M,-37.20,M,00,0000*61
$GPGGA,192620.00,4346.9265459,N,07927.8811307,W,4,06,1.3,189.595,M,-37.20,M,01,0000*68
$GPGGA,192620.25,4346.9264362,N,07927.8810125,W,4,06,1.3,189.591,M,-37.20,M,00,0000*67
$GPGGA,192620.50,4346.9263463,N,07927.8809142,W,4,06,1.3,189.617,M,-37.20,M,00,0000*60
$GPGGA,192620.75,4346.9262472,N,07927.8808025,W,4,06,1.3,189.605,M,-37.20,M,00,0000*64
$GPGGA,192621.00,4346.9261534,N,07927.8806958,W,4,06,1.3,189.610,M,-37.20,M,01,0000*6F
$GPGGA,192621.25,4346.9260677,N,07927.8806110,W,4,06,1.3,189.608,M,-37.20,M,00,0000*61
$GPGGA,192621.50,4346.9259665,N,07927.8804946,W,4,06,1.3,189.610,M,-37.20,M,00,0000*6A
$GPGGA,192621.75,4346.9258699,N,07927.8803990,W,4,06,1.3,189.620,M,-37.20,M,00,0000*60
$GPGGA,192622.00,4346.9257724,N,07927.8802852,W,4,06,1.3,189.646,M,-37.20,M,01,0000*66
$GPGGA,192622.25,4346.9256706,N,07927.8801726,W,4,06,1.3,189.636,M,-37.20,M,00,0000*69
$GPGGA,192622.50,4346.9255767,N,07927.8800552,W,4,06,1.3,189.614,M,-37.20,M,00,0000*6F
$GPGGA,192622.75,4346.9254915,N,07927.8799563,W,4,06,1.3,189.584,M,-37.20,M,00,0000*65
$GPGGA,192623.00,4346.9253997,N,07927.8798522,W,4,06,1.3,189.597,M,-37.20,M,01,0000*6C
$GPGGA,192623.25,4346.9253105,N,07927.8797519,W,4,07,1.3,189.589,M,-37.20,M,00,0000*60
$GPGGA,192623.50,4346.9252114,N,07927.8796360,W,4,07,1.3,189.592,M,-37.20,M,00,0000*60
$GPGGA,192623.75,4346.9251083,N,07927.8795252,W,4,07,1.3,189.585,M,-37.20,M,00,0000*6E
$GPGGA,192624.00,4346.9250232,N,07927.8794181,W,4,07,1.3,189.593,M,-37.20,M,01,0000*68
$GPGGA,192624.25,4346.9249281,N,07927.8793077,W,4,07,1.3,189.573,M,-37.20,M,00,0000*6F
$GPGGA,192624.50,4346.9248354,N,07927.8792005,W,4,07,1.3,189.556,M,-37.20,M,00,0000*66
$GPGGA,192624.75,4346.9247405,N,07927.8790912,W,4,07,1.3,189.571,M,-37.20,M,00,0000*65
$GPGGA,192625.00,4346.9246435,N,07927.8789829,W,4,07,1.3,189.562,M,-37.20,M,01,0000*66
$GPGGA,192625.25,4346.9245423,N,07927.8788790,W,4,07,1.3,189.576,M,-37.20,M,00,0000*6D
$GPGGA,192625.50,4346.9244574,N,07927.8787765,W,4,07,1.3,189.565,M,-37.20,M,00,0000*6A
$GPGGA,192625.75,4346.9243529,N,07927.8786683,W,4,07,1.3,189.571,M,-37.20,M,00,0000*6F
$GPGGA,192626.00,4346.9242553,N,07927.8785661,W,4,07,1.3,189.565,M,-37.20,M,01,0000*69
$GPGGA,192626.25,4346.9241618,N,07927.8784768,W,4,07,1.3,189.556,M,-37.20,M,00,0000*69
$GPGGA,192626.50,4346.9240654,N,07927.8783719,W,4,07,1.3,189.571,M,-37.20,M,00,0000*66
$GPGGA,192626.75,4346.9239649,N,07927.8782717,W,4,07,1.3,189.569,M,-37.20,M,00,0000*65
$GPGGA,192627.00,4346.9238660,N,07927.8781673,W,4,07,1.3,189.585,M,-37.20,M,01,0000*6F
$GPGGA,192627.25,4346.9237723,N,07927.8780786,W,4,07,1.3,189.558,M,-37.20,M,00,0000*6A
$GPGGA,192627.50,4346.9236637,N,07927.8779759,W,4,07,1.3,189.575,M,-37.20,M,00,0000*66
$GPGGA,192627.75,4346.9235635,N,07927.8778826,W,4,07,1.3,189.559,M,-37.20,M,00,0000*68
$GPGGA,192628.00,4346.9234572,N,07927.8777873,W,4,07,1.3,189.562,M,-37.20,M,01,0000*62
$GPGGA,192628.25,4346.9233673,N,07927.8777023,W,4,07,1.3,189.575,M,-37.20,M,00,0000*6A
$GPGGA,192628.50,4346.9232565,N,07927.8776064,W,4,07,1.3,189.565,M,-37.20,M,00,0000*6E
$GPGGA,192628.75,4346.9231586,N,07927.8775265,W,4,07,1.3,189.559,M,-37.20,M,00,0000*68
$GPGGA,192629.00,4346.9230560,N,07927.8774361,W,4,07,1.3,189.566,M,-37.20,M,01,0000*6B
$GPGGA,192629.25,4346.9229461,N,07927.8773479,W,4,07,1.3,189.582,M,-37.20,M,01,0000*67
$GPGGA,192629.50,4346.9228453,N,07927.8772660,W,4,07,1.3,189.557,M,-37.20,M,01,0000*66
$GPGGA,192629.75,4346.9227292,N,07927.8771778,W,4,06,1.3,189.591,M,-37.20,M,01,0000*65
$GPGGA,192630.00,4346.9226231,N,07927.8770919,W,4,06,1.3,189.555,M,-37.20,M,02,0000*64
$GPGGA,192630.25,4346.9225191,N,07927.8770184,W,4,06,1.3,189.545,M,-37.20,M,00,0000*66
$GPGGA,192630.50,4346.9224093,N,07927.8769376,W,4,06,1.3,189.514,M,-37.20,M,00,0000*65
