$GPGGA,215009.25,4346.9272689,N,07927.9661799,W,4,08,1.2,189.380,M,-37.20,M,00,0000*60
$GPGGA,215009.50,4346.9272655,N,07927.9661817,W,4,08,1.2,189.376,M,-37.20,M,00,0000*63
$GPGGA,215009.75,4346.9272649,N,07927.9661809,W,4,08,1.2,189.388,M,-37.20,M,00,0000*67
$GPGGA,215010.00,4346.9272645,N,07927.9661797,W,4,08,1.2,189.386,M,-37.20,M,01,0000*66
$GPGGA,215010.25,4346.9272652,N,07927.9661808,W,4,08,1.2,189.380,M,-37.20,M,00,0000*69
$GPGGA,215010.50,4346.9272687,N,07927.9661778,W,4,08,1.2,189.379,M,-37.20,M,00,0000*6D
$GPGGA,215010.75,4346.9272679,N,07927.9661793,W,4,08,1.2,189.384,M,-37.20,M,00,0000*6C
$GPGGA,215011.00,4346.9272677,N,07927.9661806,W,4,08,1.2,189.380,M,-37.20,M,01,0000*67
$GPGGA,215011.25,4346.9272650,N,07927.9661783,W,4,08,1.2,189.384,M,-37.20,M,00,0000*62
$GPGGA,215011.50,4346.9272678,N,07927.9661754,W,4,08,1.2,189.383,M,-37.20,M,00,0000*67
$GPGGA,215011.75,4346.9272674,N,07927.9661744,W,4,08,1.2,189.384,M,-37.20,M,00,0000*6A
$GPGGA,215012.00,4346.9272691,N,07927.9661747,W,4,08,1.2,189.376,M,-37.20,M,01,0000*6F
$GPGGA,215012.25,4346.9272661,N,07927.9661774,W,4,08,1.2,189.386,M,-37.20,M,00,0000*69
$GPGGA,215012.50,4346.9272667,N,07927.9661786,W,4,08,1.2,189.387,M,-37.20,M,00,0000*61
$GPGGA,215012.75,4346.9272672,N,07927.9661764,W,4,08,1.2,189.387,M,-37.20,M,00,0000*6E
$GPGGA,215013.00,4346.9272682,N,07927.9661761,W,4,08,1.2,189.380,M,-37.20,M,01,0000*61
$GPGGA,215013.25,4346.9272658,N,07927.9661750,W,4,08,1.2,189.376,M,-37.20,M,00,0000*6B
$GPGGA,215013.50,4346.9272666,N,07927.9661765,W,4,08,1.2,189.378,M,-37.20,M,00,0000*6C
$GPGGA,215013.75,4346.9272660,N,07927.9661751,W,4,08,1.2,189.383,M,-37.20,M,00,0000*6E
$GPGGA,215014.00,4346.9272673,N,07927.9661743,W,4,08,1.2,189.389,M,-37.20,M,01,0000*61
$GPGGA,215014.25,4346.9272670,N,07927.9661748,W,4,08,1.2,189.387,M,-37.20,M,00,0000*61
$GPGGA,215014.50,4346.9272659,N,07927.9661754,W,4,08,1.2,189.383,M,-37.20,M,00,0000*61
$GPGGA,215014.75,4346.9272671,N,07927.9661742,W,4,08,1.2,189.391,M,-37.20,M,00,0000*68
$GPGGA,215015.00,4346.9272665,N,07927.9661757,W,4,08,1.2,189.390,M,-37.20,M,01,0000*6A
$GPGGA,215015.25,4346.9272674,N,07927.9661750,W,4,08,1.2,189.388,M,-37.20,M,00,0000*62
$GPGGA,215015.50,4346.9272669,N,07927.9661788,W,4,08,1.2,189.395,M,-37.20,M,00,0000*65
$GPGGA,215015.75,4346.9272673,N,07927.9661774,W,4,08,1.2,189.387,M,-37.20,M,00,0000*69
$GPGGA,215016.00,4346.9272671,N,07927.9661761,W,4,08,1.2,189.383,M,-37.20,M,01,0000*6B
$GPGGA,215016.25,4346.9272664,N,07927.9661785,W,4,08,1.2,189.384,M,-37.20,M,00,0000*64
$GPGGA,215016.50,4346.9272664,N,07927.9661787,W,4,08,1.2,189.402,M,-37.20,M,00,0000*6D
$GPGGA,215016.75,4346.9272680,N,07927.9661779,W,4,08,1.2,189.394,M,-37.20,M,00,0000*69
$GPGGA,215017.00,4346.9272672,N,07927.9661779,W,4,08,1.2,189.389,M,-37.20,M,01,0000*6A
$GPGGA,215017.25,4346.9272659,N,07927.9661794,W,4,08,1.2,189.388,M,-37.20,M,00,0000*67
$GPGGA,215017.50,4346.9272666,N,07927.9661785,W,4,08,1.2,189.374,M,-37.20,M,00,0000*6A
$GPGGA,215017.75,4346.9272651,N,07927.9661833,W,4,08,1.2,189.386,M,-37.20,M,00,0000*66
$GPGGA,215018.00,4346.9272666,N,07927.9661802,W,4,08,1.2,189.376,M,-37.20,M,01,0000*63
$GPGGA,215018.25,4346.9272655,N,07927.9661785,W,4,08,1.2,189.385,M,-37.20,M,00,0000*69
$GPGGA,215018.50,4346.9272636,N,07927.9661792,W,4,08,1.2,189.395,M,-37.20,M,00,0000*69
$GPGGA,215018.75,4346.9272671,N,07927.9661792,W,4,08,1.2,189.382,M,-37.20,M,00,0000*6B
$GPGGA,215019.00,4346.9272674,N,07927.9661767,W,4,08,1.2,189.388,M,-37.20,M,01,0000*6C
$GPGGA,215019.25,4346.9272654,N,07927.9661778,W,4,08,1.2,189.396,M,-37.20,M,00,0000*69
$GPGGA,215019.50,4346.9272657,N,07927.9661777,W,4,08,1.2,189.389,M,-37.20,M,00,0000*69
$GPGGA,215019.75,4346.9272680,N,07927.9661740,W,4,08,1.2,189.387,M,-37.20,M,00,0000*6E
$GPGGA,215020.00,4346.9272665,N,07927.9661763,W,4,08,1.2,189.386,M,-37.20,M,01,0000*6C
$GPGGA,215020.25,4346.9272660,N,07927.9661758,W,4,08,1.2,189.379,M,-37.20,M,00,0000*67
$GPGGA,215020.50,4346.9272672,N,07927.9661746,W,4,08,1.2,189.380,M,-37.20,M,00,0000*6F
$GPGGA,215020.75,4346.9272669,N,07927.9661747,W,4,08,1.2,189.387,M,-37.20,M,00,0000*64
$GPGGA,215021.00,4346.9272664,N,07927.9661750,W,4,08,1.2,189.382,M,-37.20,M,01,0000*68
$GPGGA,215021.25,4346.9272657,N,07927.9661758,W,4,08,1.2,189.386,M,-37.20,M,00,0000*62
$GPGGA,215021.50,4346.9272685,N,07927.9661745,W,4,08,1.2,189.387,M,-37.20,M,00,0000*62
$GPGGA,215021.75,4346.9272685,N,07927.9661733,W,4,08,1.2,189.386,M,-37.20,M,00,0000*65
$GPGGA,215022.00,4346.9272671,N,07927.9661736,W,4,08,1.2,189.399,M,-37.20,M,01,0000*65
$GPGGA,215022.25,4346.9272668,N,07927.9661758,W,4,08,1.2,189.392,M,-37.20,M,00,0000*68
$GPGGA,215022.50,4346.9272690,N,07927.9661765,W,4,08,1.2,189.378,M,-37.20,M,00,0000*67
$GPGGA,215022.75,4346.9272673,N,07927.9661779,W,4,08,1.2,189.382,M,-37.20,M,00,0000*65
$GPGGA,215023.00,4346.9272658,N,07927.9661771,W,4,08,1.2,189.381,M,-37.20,M,01,0000*65
$GPGGA,215023.25,4346.9272680,N,07927.9661746,W,4,08,1.2,189.386,M,-37.20,M,00,0000*65
$GPGGA,215023.50,4346.9272677,N,07927.9661751,W,4,08,1.2,189.390,M,-37.20,M,00,0000*6E
$GPGGA,215023.75,4346.9272675,N,07927.9661748,W,4,08,1.2,189.396,M,-37.20,M,00,0000*65
$GPGGA,215024.00,4346.9272692,N,07927.9661727,W,4,08,1.2,189.394,M,-37.20,M,01,0000*63
$GPGGA,215024.25,4346.9272667,N,07927.9661782,W,4,08,1.2,189.382,M,-37.20,M,00,0000*67
$GPGGA,215024.50,4346.9272659,N,07927.9661771,W,4,08,1.2,189.385,M,-37.20,M,00,0000*63
$GPGGA,215024.75,4346.9272677,N,07927.9661766,W,4,08,1.2,189.386,M,-37.20,M,00,0000*6D
$GPGGA,215025.00,4346.9272652,N,07927.9661801,W,4,08,1.2,189.375,M,-37.20,M,01,0000*6A
$GPGGA,215025.25,4346.9272669,N,07927.9661775,W,4,08,1.2,189.391,M,-37.20,M,00,0000*62
$GPGGA,215025.50,4346.9272674,N,07927.9661784,W,4,08,1.2,189.389,M,-37.20,M,00,0000*6B
$GPGGA,215025.75,4346.9272651,N,07927.9661788,W,4,08,1.2,189.398,M,-37.20,M,00,0000*67
$GPGGA,215026.00,4346.9272682,N,07927.9661780,W,4,08,1.2,189.394,M,-37.20,M,01,0000*6D
$GPGGA,215026.25,4346.9272700,N,07927.9661763,W,4,08,1.2,189.383,M,-37.20,M,00,0000*6B
$GPGGA,215026.50,4346.9272685,N,07927.9661775,W,4,08,1.2,189.395,M,-37.20,M,00,0000*65
$GPGGA,215026.75,4346.9272705,N,07927.9661768,W,4,08,1.2,189.389,M,-37.20,M,00,0000*6A
$GPGGA,215027.00,4346.9272702,N,07927.9661767,W,4,08,1.2,189.385,M,-37.20,M,01,0000*6C
$GPGGA,215027.25,4346.9272672,N,07927.9661981,W,4,08,1.2,189.381,M,-37.20,M,00,0000*6E
$GPGGA,215027.50,4346.9272631,N,07927.9662172,W,4,08,1.2,189.395,M,-37.20,M,00,0000*69
$GPGGA,215027.75,4346.9272594,N,07927.9662488,W,4,08,1.2,189.385,M,-37.20,M,00,0000*63
$GPGGA,215028.00,4346.9272536,N,07927.9662856,W,4,08,1.2,189.384,M,-37.20,M,01,0000*69
$GPGGA,215028.25,4346.9272475,N,07927.9663275,W,4,08,1.2,189.396,M,-37.20,M,00,0000*60
$GPGGA,215028.50,4346.9272406,N,07927.9663766,W,4,08,1.2,189.384,M,-37.20,M,00,0000*62
$GPGGA,215028.75,4346.9272344,N,07927.9664311,W,4,08,1.2,189.391,M,-37.20,M,00,0000*63
$GPGGA,215029.00,4346.9272226,N,07927.9664959,W,4,08,1.2,189.390,M,-37.20,M,01,0000*63
$GPGGA,215029.25,4346.9272108,N,07927.9665609,W,4,08,1.2,189.383,M,-37.20,M,00,0000*63
$GPGGA,215029.50,4346.9272034,N,07927.9666436,W,4,08,1.2,189.387,M,-37.20,M,00,0000*66
$GPGGA,215029.75,4346.9271933,N,07927.9667261,W,4,08,1.2,189.393,M,-37.20,M,00,0000*6C
$GPGGA,215030.00,4346.9271831,N,07927.9668180,W,4,08,1.2,189.370,M,-37.20,M,01,0000*6A
$GPGGA,215030.25,4346.9271643,N,07927.9669023,W,4,08,1.2,189.376,M,-37.20,M,00,0000*68
$GPGGA,215030.50,4346.9271516,N,07927.9669928,W,4,08,1.2,189.371,M,-37.20,M,00,0000*6C
$GPGGA,215030.75,4346.9271431,N,07927.9670953,W,4,08,1.2,189.389,M,-37.20,M,00,0000*6C
$GPGGA,215031.00,4346.9271251,N,07927.9672012,W,4,08,1.2,189.366,M,-37.20,M,01,0000*61
$GPGGA,215031.25,4346.9271155,N,07927.9673036,W,4,08,1.2,189.362,M,-37.20,M,00,0000*63
$GPGGA,215031.50,4346.9271043,N,07927.9674133,W,4,08,1.2,189.383,M,-37.20,M,00,0000*6B
$GPGGA,215031.75,4346.9270878,N,07927.9675296,W,4,08,1.2,189.382,M,-37.20,M,00,0000*61
$GPGGA,215032.00,4346.9270749,N,07927.9676434,W,4,08,1.2,189.393,M,-37.20,M,01,0000*61
$GPGGA,215032.25,4346.9270614,N,07927.9677594,W,4,08,1.2,189.328,M,-37.20,M,00,0000*64
$GPGGA,215032.50,4346.9270479,N,07927.9678784,W,4,08,1.2,189.316,M,-37.20,M,00,0000*6E
$GPGGA,215032.75,4346.9270367,N,07927.9679899,W,4,08,1.2,189.328,M,-37.20,M,00,0000*6E
$GPGGA,215033.00,4346.9270283,N,07927.9681137,W,4,08,1.2,189.331,M,-37.20,M,01,0000*65
$GPGGA,215033.25,4346.9270227,N,07927.9682328,W,4,08,1.2,189.354,M,-37.20,M,00,0000*61
$GPGGA,215033.50,4346.9270122,N,07927.9683559,W,4,08,1.2,189.338,M,-37.20,M,00,0000*6E
$GPGGA,215033.75,4346.9270029,N,07927.9684865,W,4,08,1.2,189.298,M,-37.20,M,00,0000*6D
$GPGGA,215034.00,4346.9269991,N,07927.9686074,W,4,08,1.2,189.328,M,-37.20,M,01,0000*6B
$GPGGA,215034.25,4346.9269962,N,07927.9687458,W,4,08,1.2,189.307,M,-37.20,M,00,0000*67
$GPGGA,215034.50,4346.9269931,N,07927.9688926,W,4,08,1.2,189.310,M,-37.20,M,00,0000*6E
$GPGGA,215034.75,4346.9269818,N,07927.9690348,W,4,08,1.2,189.324,M,-37.20,M,00,0000*6F
$GPGGA,215035.00,4346.9269713,N,07927.9691888,W,4,08,1.2,189.310,M,-37.20,M,01,0000*68
$GPGGA,215035.25,4346.9269703,N,07927.9693350,W,4,08,1.2,189.313,M,-37.20,M,00,0000*60
$GPGGA,215035.50,4346.9269541,N,07927.9695015,W,4,08,1.2,189.302,M,-37.20,M,00,0000*62
$GPGGA,215035.75,4346.9269492,N,07927.9696516,W,4,08,1.2,189.308,M,-37.20,M,00,0000*65
$GPGGA,215036.00,4346.9269404,N,07927.9698143,W,4,08,1.2,189.276,M,-37.20,M,01,0000*68
$GPGGA,215036.25,4346.9269353,N,07927.9699742,W,4,08,1.2,189.276,M,-37.20,M,00,0000*6D
$GPGGA,215036.50,4346.9269254,N,07927.9701362,W,4,08,1.2,189.267,M,-37.20,M,00,0000*6F
$GPGGA,215036.75,4346.9269181,N,07927.9702967,W,4,08,1.2,189.264,M,-37.20,M,00,0000*6C
$GPGGA,215037.00,4346.9269148,N,07927.9704515,W,4,08,1.2,189.274,M,-37.20,M,01,0000*65
$GPGGA,215037.25,4346.9269076,N,07927.9706248,W,4,08,1.2,189.243,M,-37.20,M,00,0000*66
$GPGGA,215037.50,4346.9269016,N,07927.9707856,W,4,08,1.2,189.238,M,-37.20,M,00,0000*6A
$GPGGA,215037.75,4346.9268912,N,07927.9709520,W,4,08,1.2,189.223,M,-37.20,M,00,0000*69
$GPGGA,215038.00,4346.9268798,N,07927.9711173,W,4,08,1.2,189.220,M,-37.20,M,01,0000*61
$GPGGA,215038.25,4346.9268750,N,07927.9712809,W,4,08,1.2,189.225,M,-37.20,M,00,0000*61
$GPGGA,215038.50,4346.9268638,N,07927.9714458,W,4,08,1.2,189.192,M,-37.20,M,00,0000*6D
$GPGGA,215038.75,4346.9268607,N,07927.9716121,W,4,08,1.2,189.174,M,-37.20,M,00,0000*67
$GPGGA,215039.00,4346.9268513,N,07927.9717727,W,4,08,1.2,189.195,M,-37.20,M,01,0000*6D
$GPGGA,215039.25,4346.9268485,N,07927.9719325,W,4,08,1.2,189.204,M,-37.20,M,00,0000*66
$GPGGA,215039.50,4346.9268371,N,07927.9720926,W,4,08,1.2,189.205,M,-37.20,M,00,0000*6A
$GPGGA,215039.75,4346.9268304,N,07927.9722656,W,4,08,1.2,189.184,M,-37.20,M,00,0000*6F
$GPGGA,215040.00,4346.9268236,N,07927.9724233,W,4,08,1.2,189.195,M,-37.20,M,01,0000*63
$GPGGA,215040.25,4346.9268161,N,07927.9725876,W,4,08,1.2,189.187,M,-37.20,M,00,0000*6D
$GPGGA,215040.50,4346.9268048,N,07927.9727510,W,4,08,1.2,189.182,M,-37.20,M,00,0000*6F
$GPGGA,215040.75,4346.9267999,N,07927.9729157,W,4,08,1.2,189.172,M,-37.20,M,00,0000*64
$GPGGA,215041.00,4346.9267872,N,07927.9730803,W,4,08,1.2,189.180,M,-37.20,M,01,0000*6F
$GPGGA,215041.25,4346.9267723,N,07927.9732436,W,4,08,1.2,189.178,M,-37.20,M,00,0000*6D
$GPGGA,215041.50,4346.9267658,N,07927.9734044,W,4,08,1.2,189.155,M,-37.20,M,00,0000*6A
$GPGGA,215041.75,4346.9267640,N,07927.9735685,W,4,08,1.2,189.177,M,-37.20,M,00,0000*6E
$GPGGA,215042.00,4346.9267493,N,07927.9737326,W,4,08,1.2,189.182,M,-37.20,M,01,0000*66
$GPGGA,215042.25,4346.9267445,N,07927.9738948,W,4,08,1.2,189.161,M,-37.20,M,00,0000*6B
$GPGGA,215042.50,4346.9267348,N,07927.9740569,W,4,08,1.2,189.140,M,-37.20,M,00,0000*60
$GPGGA,215042.75,4346.9267231,N,07927.9742224,W,4,08,1.2,189.141,M,-37.20,M,00,0000*65
$GPGGA,215043.00,4346.9267136,N,07927.9743894,W,4,08,1.2,189.154,M,-37.20,M,01,0000*67
$GPGGA,215043.25,4346.9267048,N,07927.9745529,W,4,08,1.2,189.125,M,-37.20,M,00,0000*62
$GPGGA,215043.50,4346.9266922,N,07927.9747163,W,4,08,1.2,189.120,M,-37.20,M,00,0000*69
$GPGGA,215043.75,4346.9266803,N,07927.9748852,W,4,08,1.2,189.100,M,-37.20,M,00,0000*6A
$GPGGA,215044.00,4346.9266759,N,07927.9750473,W,4,08,1.2,189.063,M,-37.20,M,01,0000*6C
$GPGGA,215044.25,4346.9266621,N,07927.9752129,W,4,08,1.2,189.057,M,-37.20,M,00,0000*6B
$GPGGA,215044.50,4346.9266533,N,07927.9753684,W,4,08,1.2,189.064,M,-37.20,M,00,0000*68
$GPGGA,215044.75,4346.9266392,N,07927.9755367,W,4,08,1.2,189.084,M,-37.20,M,00,0000*62
$GPGGA,215045.00,4346.9266284,N,07927.9756939,W,4,08,1.2,189.065,M,-37.20,M,01,0000*6B
$GPGGA,215045.25,4346.9266128,N,07927.9758514,W,4,08,1.2,189.028,M,-37.20,M,00,0000*6C
$GPGGA,215045.50,4346.9265966,N,07927.9760262,W,4,08,1.2,189.002,M,-37.20,M,00,0000*6A
$GPGGA,215045.75,4346.9265798,N,07927.9761898,W,4,08,1.2,188.982,M,-37.20,M,00,0000*6C
$GPGGA,215046.00,4346.9265691,N,07927.9763611,W,4,08,1.2,188.989,M,-37.20,M,01,0000*62
$GPGGA,215046.25,4346.9265599,N,07927.9765269,W,4,08,1.2,189.021,M,-37.20,M,00,0000*68
$GPGGA,215046.50,4346.9265484,N,07927.9766764,W,4,08,1.2,189.018,M,-37.20,M,00,0000*66
$GPGGA,215046.75,4346.9265291,N,07927.9768314,W,4,08,1.2,189.000,M,-37.20,M,00,0000*67
$GPGGA,215047.00,4346.9265202,N,07927.9769880,W,4,08,1.2,188.997,M,-37.20,M,01,0000*6E
$GPGGA,215047.25,4346.9265073,N,07927.9771354,W,4,08,1.2,189.006,M,-37.20,M,00,0000*67
$GPGGA,215047.50,4346.9265000,N,07927.9772763,W,4,08,1.2,189.010,M,-37.20,M,00,0000*65
$GPGGA,215047.75,4346.9264842,N,07927.9774299,W,4,08,1.2,188.982,M,-37.20,M,00,0000*68
$GPGGA,215048.00,4346.9264676,N,07927.9775774,W,4,08,1.2,188.984,M,-37.20,M,01,0000*6C
$GPGGA,215048.25,4346.9264584,N,07927.9777246,W,4,08,1.2,188.973,M,-37.20,M,00,0000*6A
$GPGGA,215048.50,4346.9264448,N,07927.9778726,W,4,08,1.2,188.978,M,-37.20,M,00,0000*6E
$GPGGA,215048.75,4346.9264341,N,07927.9780067,W,4,08,1.2,188.980,M,-37.20,M,00,0000*65
$GPGGA,215049.00,4346.9264232,N,07927.9781306,W,4,08,1.2,188.984,M,-37.20,M,01,0000*63
$GPGGA,215049.25,4346.9264063,N,07927.9782603,W,4,08,1.2,188.984,M,-37.20,M,00,0000*60
$GPGGA,215049.50,4346.9263973,N,07927.9783889,W,4,08,1.2,188.985,M,-37.20,M,00,0000*61
$GPGGA,215049.75,4346.9263871,N,07927.9785031,W,4,08,1.2,189.005,M,-37.20,M,00,0000*68
$GPGGA,215050.00,4346.9263724,N,07927.9786356,W,4,08,1.2,188.981,M,-37.20,M,01,0000*69
$GPGGA,215050.25,4346.9263585,N,07927.9787614,W,4,08,1.2,188.947,M,-37.20,M,00,0000*6E
$GPGGA,215050.50,4346.9263429,N,07927.9788926,W,4,07,1.2,188.954,M,-37.20,M,00,0000*67
$GPGGA,215050.75,4346.9263271,N,07927.9790206,W,4,07,1.4,188.924,M,-37.20,M,00,0000*6A
$GPGGA,215051.00,4346.9263132,N,07927.9791450,W,4,07,1.4,188.918,M,-37.20,M,01,0000*67
$GPGGA,215051.25,4346.9263003,N,07927.9792689,W,4,07,1.4,188.908,M,-37.20,M,00,0000*66
$GPGGA,215051.50,4346.9262860,N,07927.9793946,W,4,07,1.4,188.919,M,-37.20,M,00,0000*65
$GPGGA,215051.75,4346.9262740,N,07927.9795221,W,4,07,1.4,188.917,M,-37.20,M,00,0000*6D
$GPGGA,215052.00,4346.9262586,N,07927.9796470,W,4,07,1.4,188.891,M,-37.20,M,01,0000*6B
$GPGGA,215052.25,4346.9262457,N,07927.9797773,W,4,07,1.4,188.906,M,-37.20,M,00,0000*6E
$GPGGA,215052.50,4346.9262320,N,07927.9799017,W,4,07,1.4,188.906,M,-37.20,M,00,0000*60
$GPGGA,215052.75,4346.9262161,N,07927.9800294,W,4,07,1.4,188.908,M,-37.20,M,00,0000*68
$GPGGA,215053.00,4346.9262009,N,07927.9801581,W,4,07,1.4,188.933,M,-37.20,M,01,0000*6F
$GPGGA,215053.25,4346.9261798,N,07927.9803048,W,4,08,1.2,188.927,M,-37.20,M,00,0000*6B
$GPGGA,215053.50,4346.9261639,N,07927.9804501,W,4,08,1.2,188.913,M,-37.20,M,00,0000*6B
$GPGGA,215053.75,4346.9261413,N,07927.9806056,W,4,08,1.2,188.898,M,-37.20,M,00,0000*61
$GPGGA,215054.00,4346.9261323,N,07927.9807521,W,4,08,1.2,188.917,M,-37.20,M,01,0000*63
$GPGGA,215054.25,4346.9261060,N,07927.9809227,W,4,08,1.2,188.880,M,-37.20,M,00,0000*61
$GPGGA,215054.50,4346.9260857,N,07927.9810797,W,4,08,1.2,188.861,M,-37.20,M,00,0000*67
$GPGGA,215054.75,4346.9260679,N,07927.9812388,W,4,08,1.2,188.877,M,-37.20,M,00,0000*6D
$GPGGA,215055.00,4346.9260414,N,07927.9813985,W,4,08,1.2,188.860,M,-37.20,M,01,0000*66
$GPGGA,215055.25,4346.9260186,N,07927.9815608,W,4,08,1.2,188.819,M,-37.20,M,00,0000*6C
$GPGGA,215055.50,4346.9259953,N,07927.9817195,W,4,08,1.2,188.835,M,-37.20,M,00,0000*6B
$GPGGA,215055.75,4346.9259761,N,07927.9818764,W,4,08,1.2,188.836,M,-37.20,M,00,0000*67
$GPGGA,215056.00,4346.9259563,N,07927.9820367,W,4,08,1.2,188.831,M,-37.20,M,01,0000*6C
$GPGGA,215056.25,4346.9259373,N,07927.9821936,W,4,08,1.2,188.858,M,-37.20,M,00,0000*6D
$GPGGA,215056.50,4346.9259166,N,07927.9823504,W,4,08,1.2,188.857,M,-37.20,M,00,0000*69
$GPGGA,215056.75,4346.9258914,N,07927.9825143,W,4,08,1.2,188.850,M,-37.20,M,00,0000*64
$GPGGA,215057.00,4346.9258699,N,07927.9826869,W,4,08,1.2,188.818,M,-37.20,M,01,0000*62
$GPGGA,215057.25,4346.9258495,N,07927.9828499,W,4,08,1.2,188.835,M,-37.20,M,00,0000*68
$GPGGA,215057.50,4346.9258250,N,07927.9830207,W,4,08,1.2,188.812,M,-37.20,M,00,0000*68
$GPGGA,215057.75,4346.9257975,N,07927.9831817,W,4,08,1.2,188.831,M,-37.20,M,00,0000*67
$GPGGA,215058.00,4346.9257752,N,07927.9833444,W,4,08,1.2,188.833,M,-37.20,M,01,0000*6A
$GPGGA,215058.25,4346.9257450,N,07927.9835041,W,4,08,1.2,188.807,M,-37.20,M,00,0000*6D
$GPGGA,215058.50,4346.9257234,N,07927.9836658,W,4,08,1.2,188.793,M,-37.20,M,00,0000*64
$GPGGA,215058.75,4346.9256995,N,07927.9838297,W,4,08,1.2,188.806,M,-37.20,M,00,0000*68
$GPGGA,215059.00,4346.9256744,N,07927.9839971,W,4,08,1.2,188.792,M,-37.20,M,01,0000*68
$GPGGA,215059.25,4346.9256463,N,07927.9841655,W,4,08,1.2,188.790,M,-37.20,M,00,0000*6C
$GPGGA,215059.50,4346.9256214,N,07927.9843325,W,4,08,1.2,188.778,M,-37.20,M,00,0000*6E
$GPGGA,215059.75,4346.9255970,N,07927.9844964,W,4,08,1.2,188.781,M,-37.20,M,00,0000*6D
$GPGGA,215100.00,4346.9255670,N,07927.9846616,W,4,08,1.2,188.758,M,-37.20,M,01,0000*60
$GPGGA,215100.25,4346.9255408,N,07927.9848246,W,4,08,1.2,188.760,M,-37.20,M,00,0000*6F
$GPGGA,215100.50,4346.9255123,N,07927.9849921,W,4,08,1.2,188.754,M,-37.20,M,00,0000*6D
$GPGGA,215100.75,4346.9254842,N,07927.9851515,W,4,08,1.2,188.755,M,-37.20,M,00,0000*66
$GPGGA,215101.00,4346.9254532,N,07927.9853185,W,4,08,1.2,188.761,M,-37.20,M,01,0000*66
$GPGGA,215101.25,4346.9254378,N,07927.9854807,W,4,08,1.2,188.738,M,-37.20,M,00,0000*60
$GPGGA,215101.50,4346.9254189,N,07927.9856543,W,4,08,1.2,188.728,M,-37.20,M,00,0000*60
$GPGGA,215101.75,4346.9254095,N,07927.9858189,W,4,08,1.2,188.724,M,-37.20,M,00,0000*6B
$GPGGA,215102.00,4346.9254028,N,07927.9859897,W,4,08,1.2,188.708,M,-37.20,M,01,0000*64
$GPGGA,215102.25,4346.9253945,N,07927.9861607,W,4,08,1.2,188.728,M,-37.20,M,00,0000*69
$GPGGA,215102.50,4346.9253977,N,07927.9863252,W,4,08,1.2,188.725,M,-37.20,M,00,0000*61
$GPGGA,215102.75,4346.9254039,N,07927.9864957,W,4,08,1.2,188.721,M,-37.20,M,00,0000*6F
$GPGGA,215103.00,4346.9254224,N,07927.9866582,W,4,08,1.2,188.735,M,-37.20,M,01,0000*60
$GPGGA,215103.25,4346.9254380,N,07927.9868276,W,4,08,1.2,188.711,M,-37.20,M,00,0000*6D
$GPGGA,215103.50,4346.9254613,N,07927.9869966,W,4,08,1.2,188.703,M,-37.20,M,00,0000*68
$GPGGA,215103.75,4346.9254838,N,07927.9871632,W,4,08,1.2,188.706,M,-37.20,M,00,0000*6A
$GPGGA,215104.00,4346.9255058,N,07927.9873315,W,4,08,1.2,188.705,M,-37.20,M,01,0000*60
$GPGGA,215104.25,4346.9255323,N,07927.9874986,W,4,08,1.2,188.717,M,-37.20,M,00,0000*6D
$GPGGA,215104.50,4346.9255506,N,07927.9876689,W,4,08,1.2,188.697,M,-37.20,M,00,0000*65
$GPGGA,215104.75,4346.9255670,N,07927.9878331,W,4,08,1.2,188.675,M,-37.20,M,00,0000*64
$GPGGA,215105.00,4346.9255814,N,07927.9880035,W,4,08,1.2,188.698,M,-37.20,M,01,0000*69
$GPGGA,215105.25,4346.9255876,N,07927.9881705,W,4,08,1.2,188.698,M,-37.20,M,00,0000*6E
$GPGGA,215105.50,4346.9255878,N,07927.9883422,W,4,08,1.2,188.684,M,-37.20,M,00,0000*6B
$GPGGA,215105.75,4346.9255821,N,07927.9885111,W,4,08,1.2,188.680,M,-37.20,M,00,0000*67
$GPGGA,215106.00,4346.9255797,N,07927.9886808,W,4,08,1.2,188.682,M,-37.20,M,01,0000*65
$GPGGA,215106.25,4346.9255664,N,07927.9888503,W,4,08,1.2,188.656,M,-37.20,M,00,0000*6F
$GPGGA,215106.50,4346.9255495,N,07927.9890133,W,4,08,1.2,188.655,M,-37.20,M,00,0000*6C
$GPGGA,215106.75,4346.9255226,N,07927.9891858,W,4,08,1.2,188.635,M,-37.20,M,00,0000*66
$GPGGA,215107.00,4346.9254915,N,07927.9893412,W,4,08,1.2,188.641,M,-37.20,M,01,0000*6D
$GPGGA,215107.25,4346.9254561,N,07927.9895016,W,4,08,1.2,188.674,M,-37.20,M,00,0000*64
$GPGGA,215107.50,4346.9254130,N,07927.9896562,W,4,08,1.2,188.668,M,-37.20,M,00,0000*6E
$GPGGA,215107.75,4346.9253569,N,07927.9898101,W,4,08,1.2,188.667,M,-37.20,M,00,0000*66
$GPGGA,215108.00,4346.9252890,N,07927.9899708,W,4,08,1.2,188.680,M,-37.20,M,01,0000*67
$GPGGA,215108.25,4346.9252410,N,07927.9900972,W,4,08,1.2,188.624,M,-37.20,M,00,0000*69
$GPGGA,215108.50,4346.9251639,N,07927.9902325,W,4,08,1.2,188.640,M,-37.20,M,00,0000*69
$GPGGA,215108.75,4346.9250785,N,07927.9903657,W,4,08,1.2,188.579,M,-37.20,M,00,0000*61
$GPGGA,215109.00,4346.9250002,N,07927.9905001,W,4,08,1.2,188.582,M,-37.20,M,01,0000*6C
$GPGGA,215109.25,4346.9249090,N,07927.9906385,W,4,08,1.2,188.617,M,-37.20,M,00,0000*6A
$GPGGA,215109.50,4346.9248326,N,07927.9907584,W,4,08,1.2,188.612,M,-37.20,M,00,0000*64
$GPGGA,215109.75,4346.9247488,N,07927.9908892,W,4,08,1.2,188.624,M,-37.20,M,00,0000*6F
$GPGGA,215110.00,4346.9246672,N,07927.9910102,W,4,08,1.2,188.613,M,-37.20,M,01,0000*6F
$GPGGA,215110.25,4346.9245715,N,07927.9911408,W,4,08,1.2,188.608,M,-37.20,M,00,0000*6E
$GPGGA,215110.50,4346.9244876,N,07927.9912654,W,4,08,1.2,188.607,M,-37.20,M,00,0000*60
$GPGGA,215110.75,4346.9244056,N,07927.9913865,W,4,08,1.2,188.598,M,-37.20,M,00,0000*65
$GPGGA,215111.00,4346.9243161,N,07927.9915104,W,4,08,1.2,188.599,M,-37.20,M,01,0000*6C
$GPGGA,215111.25,4346.9242350,N,07927.9916272,W,4,08,1.2,188.602,M,-37.20,M,00,0000*6B
$GPGGA,215111.50,4346.9241459,N,07927.9917472,W,4,08,1.2,188.591,M,-37.20,M,00,0000*6A
$GPGGA,215111.75,4346.9240596,N,07927.9918648,W,4,08,1.2,188.600,M,-37.20,M,00,0000*61
$GPGGA,215112.00,4346.9239725,N,07927.9919810,W,4,08,1.2,188.567,M,-37.20,M,01,0000*65
$GPGGA,215112.25,4346.9238794,N,07927.9921012,W,4,08,1.2,188.578,M,-37.20,M,00,0000*67
$GPGGA,215112.50,4346.9237908,N,07927.9922193,W,4,08,1.2,188.577,M,-37.20,M,00,0000*65
$GPGGA,215112.75,4346.9237087,N,07927.9923466,W,4,08,1.2,188.562,M,-37.20,M,00,0000*66
$GPGGA,215113.00,4346.9236293,N,07927.9924808,W,4,08,1.2,188.552,M,-37.20,M,01,0000*62
$GPGGA,215113.25,4346.9235523,N,07927.9926057,W,4,08,1.2,188.538,M,-37.20,M,00,0000*67
$GPGGA,215113.50,4346.9234798,N,07927.9927426,W,4,08,1.2,188.526,M,-37.20,M,00,0000*6A
$GPGGA,215113.75,4346.9234095,N,07927.9928778,W,4,08,1.2,188.536,M,-37.20,M,00,0000*61
$GPGGA,215114.00,4346.9233542,N,07927.9930269,W,4,08,1.2,188.527,M,-37.20,M,01,0000*61
$GPGGA,215114.25,4346.9233026,N,07927.9931844,W,4,08,1.2,188.525,M,-37.20,M,00,0000*66
$GPGGA,215114.50,4346.9232628,N,07927.9933459,W,4,08,1.2,188.523,M,-37.20,M,00,0000*69
$GPGGA,215114.75,4346.9232254,N,07927.9935069,W,4,08,1.2,188.517,M,-37.20,M,00,0000*67
$GPGGA,215115.00,4346.9231860,N,07927.9936680,W,4,08,1.2,188.507,M,-37.20,M,01,0000*68
$GPGGA,215115.25,4346.9231640,N,07927.9938222,W,4,08,1.2,188.485,M,-37.20,M,00,0000*6B
$GPGGA,215115.50,4346.9231259,N,07927.9939828,W,4,08,1.2,188.486,M,-37.20,M,00,0000*67
$GPGGA,215115.75,4346.9231007,N,07927.9941458,W,4,08,1.2,188.460,M,-37.20,M,00,0000*65
$GPGGA,215116.00,4346.9230821,N,07927.9943153,W,4,08,1.2,188.468,M,-37.20,M,01,0000*6C
$GPGGA,215116.25,4346.9230689,N,07927.9944831,W,4,08,1.2,188.476,M,-37.20,M,00,0000*63
$GPGGA,215116.50,4346.9230626,N,07927.9946530,W,4,08,1.2,188.474,M,-37.20,M,00,0000*68
$GPGGA,215116.75,4346.9230601,N,07927.9948234,W,4,08,1.2,188.480,M,-37.20,M,00,0000*6C
$GPGGA,215117.00,4346.9230692,N,07927.9949934,W,4,08,1.2,188.462,M,-37.20,M,01,0000*62
$GPGGA,215117.25,4346.9230819,N,07927.9951559,W,4,08,1.2,188.461,M,-37.20,M,00,0000*64
$GPGGA,215117.50,4346.9230986,N,07927.9953236,W,4,08,1.2,188.485,M,-37.20,M,00,0000*67
$GPGGA,215117.75,4346.9231200,N,07927.9954923,W,4,08,1.2,188.470,M,-37.20,M,00,0000*66
$GPGGA,215118.00,4346.9231359,N,07927.9956562,W,4,08,1.2,188.479,M,-37.20,M,01,0000*65
$GPGGA,215118.25,4346.9231552,N,07927.9958294,W,4,08,1.2,188.474,M,-37.20,M,00,0000*63
$GPGGA,215118.50,4346.9231760,N,07927.9959917,W,4,08,1.2,188.462,M,-37.20,M,00,0000*64
$GPGGA,215118.75,4346.9231981,N,07927.9961593,W,4,08,1.2,188.471,M,-37.20,M,00,0000*6B
$GPGGA,215119.00,4346.9232189,N,07927.9963292,W,4,08,1.2,188.452,M,-37.20,M,01,0000*6F
$GPGGA,215119.25,4346.9232457,N,07927.9964906,W,4,08,1.2,188.473,M,-37.20,M,00,0000*6D
$GPGGA,215119.50,4346.9232674,N,07927.9966578,W,4,08,1.2,188.482,M,-37.20,M,00,0000*65
$GPGGA,215119.75,4346.9232840,N,07927.9968226,W,4,08,1.2,188.467,M,-37.20,M,00,0000*62
$GPGGA,215120.00,4346.9232950,N,07927.9969953,W,4,08,1.2,188.481,M,-37.20,M,01,0000*6B
$GPGGA,215120.25,4346.9233024,N,07927.9971677,W,4,08,1.2,188.465,M,-37.20,M,00,0000*6C
$GPGGA,215120.50,4346.9233056,N,07927.9973445,W,4,08,1.2,188.456,M,-37.20,M,00,0000*6A
$GPGGA,215120.75,4346.9233028,N,07927.9975118,W,4,08,1.2,188.446,M,-37.20,M,00,0000*6E
$GPGGA,215121.00,4346.9232926,N,07927.9976882,W,4,08,1.2,188.449,M,-37.20,M,01,0000*6C
$GPGGA,215121.25,4346.9232757,N,07927.9978572,W,4,08,1.2,188.445,M,-37.20,M,00,0000*62
$GPGGA,215121.50,4346.9232517,N,07927.9980226,W,4,08,1.2,188.436,M,-37.20,M,00,0000*63
$GPGGA,215121.75,4346.9232252,N,07927.9981874,W,4,08,1.2,188.440,M,-37.20,M,00,0000*6F
$GPGGA,215122.00,4346.9231924,N,07927.9983397,W,4,08,1.2,188.442,M,-37.20,M,01,0000*60
$GPGGA,215122.25,4346.9231499,N,07927.9985024,W,4,08,1.2,188.431,M,-37.20,M,00,0000*64
$GPGGA,215122.50,4346.9231039,N,07927.9986529,W,4,08,1.2,188.447,M,-37.20,M,00,0000*62
$GPGGA,215122.75,4346.9230560,N,07927.9988102,W,4,08,1.2,188.432,M,-37.20,M,00,0000*6C
$GPGGA,215123.00,4346.9230101,N,07927.9989694,W,4,08,1.2,188.427,M,-37.20,M,01,0000*60
$GPGGA,215123.25,4346.9229727,N,07927.9991194,W,4,08,1.2,188.435,M,-37.20,M,00,0000*61
$GPGGA,215123.50,4346.9229272,N,07927.9992773,W,4,08,1.2,188.422,M,-37.20,M,00,0000*6C
$GPGGA,215123.75,4346.9228771,N,07927.9994360,W,4,08,1.2,188.398,M,-37.20,M,00,0000*6A
$GPGGA,215124.00,4346.9228254,N,07927.9995968,W,4,08,1.2,188.422,M,-37.20,M,01,0000*69
$GPGGA,215124.25,4346.9227706,N,07927.9997482,W,4,08,1.2,188.428,M,-37.20,M,00,0000*63
$GPGGA,215124.50,4346.9227222,N,07927.9999016,W,4,08,1.2,188.406,M,-37.20,M,00,0000*69
$GPGGA,215124.75,4346.9226711,N,07928.0000532,W,4,08,1.2,188.421,M,-37.20,M,00,0000*63
$GPGGA,215125.00,4346.9226152,N,07928.0002122,W,4,08,1.2,188.423,M,-37.20,M,01,0000*65
$GPGGA,215125.25,4346.9225652,N,07928.0003622,W,4,08,1.2,188.394,M,-37.20,M,00,0000*6A
$GPGGA,215125.50,4346.9225092,N,07928.0005146,W,4,07,1.2,188.382,M,-37.20,M,00,0000*69
$GPGGA,215125.75,4346.9224554,N,07928.0006664,W,4,07,1.6,188.381,M,-37.20,M,00,0000*63
$GPGGA,215126.00,4346.9223946,N,07928.0008238,W,4,07,1.6,188.365,M,-37.20,M,01,0000*62
$GPGGA,215126.25,4346.9223464,N,07928.0009639,W,4,07,1.6,188.391,M,-37.20,M,00,0000*66
$GPGGA,215126.50,4346.9222931,N,07928.0011159,W,4,07,1.6,188.371,M,-37.20,M,00,0000*6E
$GPGGA,215126.75,4346.9222388,N,07928.0012618,W,4,07,1.6,188.387,M,-37.20,M,00,0000*69
$GPGGA,215127.00,4346.9221841,N,07928.0014176,W,4,07,1.6,188.420,M,-37.20,M,01,0000*65
$GPGGA,215127.25,4346.9221350,N,07928.0015705,W,4,07,1.6,188.367,M,-37.20,M,00,0000*6F
$GPGGA,215127.50,4346.9220909,N,07928.0017229,W,4,07,1.6,188.348,M,-37.20,M,00,0000*6E
$GPGGA,215127.75,4346.9220474,N,07928.0018778,W,4,07,1.6,188.360,M,-37.20,M,00,0000*6A
$GPGGA,215128.00,4346.9220086,N,07928.0020348,W,4,07,1.6,188.367,M,-37.20,M,01,0000*64
$GPGGA,215128.25,4346.9219657,N,07928.0021869,W,4,07,1.6,188.370,M,-37.20,M,00,0000*6D
$GPGGA,215128.50,4346.9219306,N,07928.0023472,W,4,07,1.6,188.357,M,-37.20,M,00,0000*6F
$GPGGA,215128.75,4346.9218889,N,07928.0025115,W,4,07,1.2,188.368,M,-37.20,M,00,0000*6F
$GPGGA,215129.00,4346.9218561,N,07928.0026705,W,4,07,1.2,188.367,M,-37.20,M,01,0000*6D
$GPGGA,215129.25,4346.9218199,N,07928.0028384,W,4,08,1.2,188.351,M,-37.20,M,00,0000*61
$GPGGA,215129.50,4346.9217830,N,07928.0029974,W,4,08,1.2,188.336,M,-37.20,M,00,0000*63
$GPGGA,215129.75,4346.9217474,N,07928.0031538,W,4,08,1.2,188.345,M,-37.20,M,00,0000*61
$GPGGA,215130.00,4346.9217176,N,07928.0033176,W,4,08,1.2,188.364,M,-37.20,M,01,0000*62
$GPGGA,215130.25,4346.9216808,N,07928.0034711,W,4,08,1.2,188.338,M,-37.20,M,00,0000*6C
$GPGGA,215130.50,4346.9216426,N,07928.0036369,W,4,08,1.2,188.355,M,-37.20,M,00,0000*6C
$GPGGA,215130.75,4346.9216111,N,07928.0037981,W,4,08,1.2,188.358,M,-37.20,M,00,0000*6A
$GPGGA,215131.00,4346.9215803,N,07928.0039614,W,4,08,1.2,188.332,M,-37.20,M,01,0000*60
$GPGGA,215131.25,4346.9215419,N,07928.0041295,W,4,08,1.2,188.350,M,-37.20,M,00,0000*67
$GPGGA,215131.50,4346.9215082,N,07928.0042916,W,4,08,1.2,188.371,M,-37.20,M,00,0000*63
$GPGGA,215131.75,4346.9214736,N,07928.0044555,W,4,08,1.2,188.349,M,-37.20,M,00,0000*6B
$GPGGA,215132.00,4346.9214432,N,07928.0046200,W,4,08,1.2,188.343,M,-37.20,M,01,0000*63
$GPGGA,215132.25,4346.9214290,N,07928.0047787,W,4,08,1.2,188.383,M,-37.20,M,00,0000*6C
$GPGGA,215132.50,4346.9214018,N,07928.0049449,W,4,08,1.2,188.365,M,-37.20,M,00,0000*6B
$GPGGA,215132.75,4346.9213809,N,07928.0051117,W,4,08,1.2,188.390,M,-37.20,M,00,0000*6E
$GPGGA,215133.00,4346.9213690,N,07928.0052796,W,4,08,1.2,188.416,M,-37.20,M,01,0000*67
$GPGGA,215133.25,4346.9213391,N,07928.0054626,W,4,08,1.2,188.352,M,-37.20,M,00,0000*6E
$GPGGA,215133.50,4346.9213199,N,07928.0056305,W,4,08,1.2,188.362,M,-37.20,M,00,0000*63
$GPGGA,215133.75,4346.9213005,N,07928.0058017,W,4,08,1.2,188.361,M,-37.20,M,00,0000*6D
$GPGGA,215134.00,4346.9212823,N,07928.0059595,W,4,08,1.2,188.352,M,-37.20,M,01,0000*6A
$GPGGA,215134.25,4346.9212758,N,07928.0061251,W,4,08,1.2,188.352,M,-37.20,M,00,0000*6B
$GPGGA,215134.50,4346.9212579,N,07928.0062932,W,4,08,1.2,188.373,M,-37.20,M,00,0000*66
$GPGGA,215134.75,4346.9212443,N,07928.0064628,W,4,08,1.2,188.380,M,-37.20,M,00,0000*67
$GPGGA,215135.00,4346.9212293,N,07928.0066246,W,4,08,1.2,188.387,M,-37.20,M,01,0000*67
$GPGGA,215135.25,4346.9212114,N,07928.0067945,W,4,08,1.2,188.388,M,-37.20,M,00,0000*6B
$GPGGA,215135.50,4346.9211947,N,07928.0069658,W,4,08,1.2,188.390,M,-37.20,M,00,0000*60
$GPGGA,215135.75,4346.9211781,N,07928.0071357,W,4,08,1.2,188.378,M,-37.20,M,00,0000*66
$GPGGA,215136.00,4346.9211635,N,07928.0072956,W,4,08,1.2,188.386,M,-37.20,M,01,0000*61
$GPGGA,215136.25,4346.9211522,N,07928.0074679,W,4,08,1.2,188.399,M,-37.20,M,00,0000*68
$GPGGA,215136.50,4346.9211341,N,07928.0076345,W,4,08,1.2,188.415,M,-37.20,M,00,0000*62
$GPGGA,215136.75,4346.9211240,N,07928.0078008,W,4,08,1.2,188.411,M,-37.20,M,00,0000*65
$GPGGA,215137.00,4346.9211039,N,07928.0079652,W,4,08,1.2,188.393,M,-37.20,M,01,0000*6E
$GPGGA,215137.25,4346.9210868,N,07928.0081358,W,4,08,1.2,188.418,M,-37.20,M,00,0000*69
$GPGGA,215137.50,4346.9210739,N,07928.0083043,W,4,08,1.2,188.412,M,-37.20,M,00,0000*61
$GPGGA,215137.75,4346.9210585,N,07928.0084737,W,4,08,1.2,188.412,M,-37.20,M,00,0000*60
$GPGGA,215138.00,4346.9210391,N,07928.0086445,W,4,08,1.2,188.403,M,-37.20,M,01,0000*6B
$GPGGA,215138.25,4346.9210268,N,07928.0088183,W,4,08,1.2,188.437,M,-37.20,M,00,0000*6C
$GPGGA,215138.50,4346.9210111,N,07928.0089860,W,4,08,1.2,188.429,M,-37.20,M,00,0000*69
$GPGGA,215138.75,4346.9209961,N,07928.0091545,W,4,08,1.2,188.412,M,-37.20,M,00,0000*62
$GPGGA,215139.00,4346.9209751,N,07928.0093236,W,4,08,1.2,188.429,M,-37.20,M,01,0000*64
$GPGGA,215139.25,4346.9209526,N,07928.0094916,W,4,08,1.2,188.424,M,-37.20,M,00,0000*63
$GPGGA,215139.50,4346.9209298,N,07928.0096606,W,4,08,1.2,188.420,M,-37.20,M,00,0000*6B
$GPGGA,215139.75,4346.9209100,N,07928.0098311,W,4,08,1.2,188.429,M,-37.20,M,00,0000*6A
$GPGGA,215140.00,4346.9208914,N,07928.0099942,W,4,08,1.2,188.426,M,-37.20,M,01,0000*69
$GPGGA,215140.25,4346.9208763,N,07928.0101571,W,4,08,1.2,188.422,M,-37.20,M,00,0000*69
$GPGGA,215140.50,4346.9208501,N,07928.0103216,W,4,08,1.2,188.399,M,-37.20,M,00,0000*6E
$GPGGA,215140.75,4346.9208346,N,07928.0104878,W,4,08,1.2,188.426,M,-37.20,M,00,0000*6A
$GPGGA,215141.00,4346.9208120,N,07928.0106569,W,4,08,1.2,188.420,M,-37.20,M,01,0000*63
$GPGGA,215141.25,4346.9207896,N,07928.0108231,W,4,08,1.2,188.401,M,-37.20,M,00,0000*69
$GPGGA,215141.50,4346.9207680,N,07928.0109928,W,4,08,1.2,188.406,M,-37.20,M,00,0000*67
$GPGGA,215141.75,4346.9207466,N,07928.0111558,W,4,08,1.2,188.418,M,-37.20,M,00,0000*67
$GPGGA,215142.00,4346.9207206,N,07928.0113236,W,4,08,1.2,188.411,M,-37.20,M,01,0000*63
$GPGGA,215142.25,4346.9207005,N,07928.0114878,W,4,08,1.2,188.415,M,-37.20,M,00,0000*67
$GPGGA,215142.50,4346.9206759,N,07928.0116508,W,4,08,1.2,188.436,M,-37.20,M,00,0000*63
$GPGGA,215142.75,4346.9206556,N,07928.0118168,W,4,08,1.2,188.438,M,-37.20,M,00,0000*6B
$GPGGA,215143.00,4346.9206300,N,07928.0119802,W,4,08,1.2,188.433,M,-37.20,M,01,0000*63
$GPGGA,215143.25,4346.9205984,N,07928.0121560,W,4,08,1.2,188.403,M,-37.20,M,00,0000*61
$GPGGA,215143.50,4346.9205797,N,07928.0123157,W,4,08,1.2,188.448,M,-37.20,M,00,0000*62
$GPGGA,215143.75,4346.9205583,N,07928.0124785,W,4,08,1.2,188.431,M,-37.20,M,00,0000*62
$GPGGA,215144.00,4346.9205337,N,07928.0126446,W,4,08,1.2,188.416,M,-37.20,M,01,0000*64
$GPGGA,215144.25,4346.9205086,N,07928.0128184,W,4,08,1.2,188.455,M,-37.20,M,00,0000*69
$GPGGA,215144.50,4346.9204798,N,07928.0129787,W,4,08,1.2,188.443,M,-37.20,M,00,0000*61
$GPGGA,215144.75,4346.9204574,N,07928.0131469,W,4,08,1.2,188.453,M,-37.20,M,00,0000*6D
$GPGGA,215145.00,4346.9204291,N,07928.0133099,W,4,07,1.2,188.439,M,-37.20,M,01,0000*69
$GPGGA,215145.25,4346.9204014,N,07928.0134770,W,4,07,1.4,188.442,M,-37.20,M,00,0000*6D
$GPGGA,215145.50,4346.9203752,N,07928.0136438,W,4,07,1.4,188.439,M,-37.20,M,00,0000*6C
$GPGGA,215145.75,4346.9203469,N,07928.0138109,W,4,07,1.4,188.418,M,-37.20,M,00,0000*6A
$GPGGA,215146.00,4346.9203181,N,07928.0139748,W,4,07,1.4,188.431,M,-37.20,M,01,0000*60
$GPGGA,215146.25,4346.9202929,N,07928.0141395,W,4,07,1.4,188.452,M,-37.20,M,00,0000*63
$GPGGA,215146.50,4346.9202653,N,07928.0143001,W,4,07,1.4,188.441,M,-37.20,M,00,0000*6D
$GPGGA,215146.75,4346.9202396,N,07928.0144612,W,4,07,1.4,188.435,M,-37.20,M,00,0000*66
$GPGGA,215147.00,4346.9202042,N,07928.0146283,W,4,07,1.4,188.418,M,-37.20,M,01,0000*6F
$GPGGA,215147.25,4346.9201795,N,07928.0147854,W,4,07,1.4,188.434,M,-37.20,M,00,0000*68
$GPGGA,215147.50,4346.9201508,N,07928.0149520,W,4,07,1.4,188.446,M,-37.20,M,00,0000*69
$GPGGA,215147.75,4346.9201241,N,07928.0151191,W,4,07,1.4,188.450,M,-37.20,M,00,0000*64
$GPGGA,215148.00,4346.9200947,N,07928.0152828,W,4,07,1.4,188.429,M,-37.20,M,01,0000*62
$GPGGA,215148.25,4346.9200616,N,07928.0154590,W,4,07,1.4,188.455,M,-37.20,M,00,0000*6C
$GPGGA,215148.50,4346.9200335,N,07928.0156187,W,4,07,1.4,188.462,M,-37.20,M,00,0000*6E
$GPGGA,215148.75,4346.9200031,N,07928.0157850,W,4,07,1.4,188.439,M,-37.20,M,00,0000*62
$GPGGA,215149.00,4346.9199698,N,07928.0159541,W,4,07,1.4,188.435,M,-37.20,M,01,0000*69
$GPGGA,215149.25,4346.9199397,N,07928.0161200,W,4,07,1.4,188.423,M,-37.20,M,00,0000*6B
$GPGGA,215149.50,4346.9199103,N,07928.0162822,W,4,07,1.4,188.415,M,-37.20,M,00,0000*6A
$GPGGA,215149.75,4346.9198795,N,07928.0164497,W,4,07,1.2,188.386,M,-37.20,M,00,0000*6A
$GPGGA,215150.00,4346.9198478,N,07928.0166115,W,4,07,1.2,188.385,M,-37.20,M,01,0000*6F
$GPGGA,215150.25,4346.9198208,N,07928.0167735,W,4,08,1.2,188.402,M,-37.20,M,00,0000*6A
$GPGGA,215150.50,4346.9197829,N,07928.0169348,W,4,08,1.2,188.401,M,-37.20,M,00,0000*6D
$GPGGA,215150.75,4346.9197531,N,07928.0170995,W,4,08,1.2,188.407,M,-37.20,M,00,0000*6A
$GPGGA,215151.00,4346.9197167,N,07928.0172660,W,4,08,1.2,188.386,M,-37.20,M,01,0000*66
$GPGGA,215151.25,4346.9196839,N,07928.0174319,W,4,08,1.2,188.361,M,-37.20,M,00,0000*67
$GPGGA,215151.50,4346.9196445,N,07928.0175995,W,4,08,1.2,188.356,M,-37.20,M,00,0000*69
$GPGGA,215151.75,4346.9196117,N,07928.0177621,W,4,08,1.2,188.339,M,-37.20,M,00,0000*67
$GPGGA,215152.00,4346.9195795,N,07928.0179190,W,4,08,1.2,188.338,M,-37.20,M,01,0000*6A
$GPGGA,215152.25,4346.9195447,N,07928.0180838,W,4,08,1.2,188.329,M,-37.20,M,00,0000*6D
$GPGGA,215152.50,4346.9195061,N,07928.0182431,W,4,08,1.2,188.356,M,-37.20,M,00,0000*60
$GPGGA,215152.75,4346.9194769,N,07928.0184020,W,4,08,1.2,188.311,M,-37.20,M,00,0000*68
$GPGGA,215153.00,4346.9194406,N,07928.0185687,W,4,08,1.2,188.330,M,-37.20,M,01,0000*69
$GPGGA,215153.25,4346.9194203,N,07928.0187298,W,4,08,1.2,188.319,M,-37.20,M,00,0000*6F
$GPGGA,215153.50,4346.9193900,N,07928.0189025,W,4,08,1.2,188.279,M,-37.20,M,00,0000*6F
$GPGGA,215153.75,4346.9193633,N,07928.0190720,W,4,08,1.2,188.286,M,-37.20,M,00,0000*6D
$GPGGA,215154.00,4346.9193365,N,07928.0192330,W,4,08,1.2,188.288,M,-37.20,M,01,0000*66
$GPGGA,215154.25,4346.9193035,N,07928.0194026,W,4,08,1.2,188.267,M,-37.20,M,00,0000*65
$GPGGA,215154.50,4346.9192720,N,07928.0195663,W,4,08,1.2,188.249,M,-37.20,M,00,0000*6F
$GPGGA,215154.75,4346.9192443,N,07928.0197327,W,4,08,1.2,188.234,M,-37.20,M,00,0000*63
$GPGGA,215155.00,4346.9192055,N,07928.0199010,W,4,08,1.2,188.230,M,-37.20,M,01,0000*6F
$GPGGA,215155.25,4346.9191776,N,07928.0200635,W,4,08,1.2,188.202,M,-37.20,M,00,0000*6F
$GPGGA,215155.50,4346.9191503,N,07928.0202259,W,4,08,1.2,188.198,M,-37.20,M,00,0000*61
$GPGGA,215155.75,4346.9191192,N,07928.0203912,W,4,08,1.2,188.196,M,-37.20,M,00,0000*61
$GPGGA,215156.00,4346.9190851,N,07928.0205606,W,4,08,1.2,188.175,M,-37.20,M,01,0000*67
$GPGGA,215156.25,4346.9190568,N,07928.0207257,W,4,08,1.2,188.163,M,-37.20,M,00,0000*63
$GPGGA,215156.50,4346.9190261,N,07928.0208888,W,4,08,1.2,188.157,M,-37.20,M,00,0000*6F
$GPGGA,215156.75,4346.9189980,N,07928.0210503,W,4,08,1.2,188.145,M,-37.20,M,00,0000*60
$GPGGA,215157.00,4346.9189636,N,07928.0212175,W,4,08,1.2,188.137,M,-37.20,M,01,0000*62
$GPGGA,215157.25,4346.9189439,N,07928.0213686,W,4,08,1.2,188.137,M,-37.20,M,00,0000*63
$GPGGA,215157.50,4346.9189100,N,07928.0215355,W,4,08,1.2,188.116,M,-37.20,M,00,0000*60
$GPGGA,215157.75,4346.9188833,N,07928.0216967,W,4,08,1.2,188.127,M,-37.20,M,00,0000*65
$GPGGA,215158.00,4346.9188537,N,07928.0218584,W,4,08,1.2,188.134,M,-37.20,M,01,0000*6D
$GPGGA,215158.25,4346.9188167,N,07928.0220315,W,4,08,1.2,188.075,M,-37.20,M,00,0000*6B
$GPGGA,215158.50,4346.9187857,N,07928.0221966,W,4,08,1.2,188.077,M,-37.20,M,00,0000*61
$GPGGA,215158.75,4346.9187544,N,07928.0223628,W,4,08,1.2,188.042,M,-37.20,M,00,0000*68
$GPGGA,215159.00,4346.9187238,N,07928.0225237,W,4,08,1.2,188.030,M,-37.20,M,01,0000*6F
$GPGGA,215159.25,4346.9186976,N,07928.0226813,W,4,08,1.2,188.011,M,-37.20,M,00,0000*65
$GPGGA,215159.50,4346.9186701,N,07928.0228392,W,4,08,1.2,188.011,M,-37.20,M,00,0000*65
$GPGGA,215159.75,4346.9186368,N,07928.0230037,W,4,08,1.2,187.975,M,-37.20,M,00,0000*68
$GPGGA,215200.00,4346.9186038,N,07928.0231695,W,4,08,1.2,187.989,M,-37.20,M,01,0000*6E
$GPGGA,215200.25,4346.9185732,N,07928.0233297,W,4,08,1.2,187.994,M,-37.20,M,00,0000*6E
$GPGGA,215200.50,4346.9185402,N,07928.0234956,W,4,08,1.2,187.978,M,-37.20,M,00,0000*6F
$GPGGA,215200.75,4346.9185112,N,07928.0236573,W,4,08,1.2,187.967,M,-37.20,M,00,0000*6B
$GPGGA,215201.00,4346.9184735,N,07928.0238231,W,4,08,1.2,187.954,M,-37.20,M,01,0000*64
$GPGGA,215201.25,4346.9184448,N,07928.0239878,W,4,08,1.2,187.952,M,-37.20,M,00,0000*6B
$GPGGA,215201.50,4346.9184078,N,07928.0241553,W,4,08,1.2,187.934,M,-37.20,M,00,0000*65
$GPGGA,215201.75,4346.9183790,N,07928.0243083,W,4,08,1.2,187.949,M,-37.20,M,00,0000*64
$GPGGA,215202.00,4346.9183448,N,07928.0244686,W,4,08,1.2,187.915,M,-37.20,M,01,0000*6F
$GPGGA,215202.25,4346.9183117,N,07928.0246237,W,4,08,1.2,187.875,M,-37.20,M,00,0000*6D
$GPGGA,215202.50,4346.9182777,N,07928.0247883,W,4,08,1.2,187.881,M,-37.20,M,00,0000*61
$GPGGA,215202.75,4346.9182407,N,07928.0249555,W,4,08,1.2,187.877,M,-37.20,M,00,0000*63
$GPGGA,215203.00,4346.9182018,N,07928.0251151,W,4,08,1.2,187.841,M,-37.20,M,01,0000*67
$GPGGA,215203.25,4346.9181621,N,07928.0252755,W,4,08,1.2,187.846,M,-37.20,M,00,0000*68
$GPGGA,215203.50,4346.9181303,N,07928.0254387,W,4,07,1.2,187.821,M,-37.20,M,00,0000*6C
$GPGGA,215203.75,4346.9180871,N,07928.0256093,W,4,07,1.4,187.770,M,-37.20,M,00,0000*6D
$GPGGA,215204.00,4346.9180592,N,07928.0257611,W,4,07,1.4,187.797,M,-37.20,M,01,0000*6D
$GPGGA,215204.25,4346.9180373,N,07928.0259092,W,4,07,1.4,187.797,M,-37.20,M,00,0000*61
$GPGGA,215204.50,4346.9179907,N,07928.0260833,W,4,07,1.4,187.767,M,-37.20,M,00,0000*6A
$GPGGA,215204.75,4346.9179562,N,07928.0262428,W,4,07,1.4,187.784,M,-37.20,M,00,0000*6B
$GPGGA,215205.00,4346.9179184,N,07928.0264130,W,4,07,1.4,187.763,M,-37.20,M,01,0000*66
$GPGGA,215205.25,4346.9178818,N,07928.0265911,W,4,07,1.4,187.726,M,-37.20,M,00,0000*66
$GPGGA,215205.50,4346.9178645,N,07928.0267622,W,4,07,1.4,187.696,M,-37.20,M,00,0000*65
$GPGGA,215205.75,4346.9178539,N,07928.0269230,W,4,07,1.4,187.695,M,-37.20,M,00,0000*60
$GPGGA,215206.00,4346.9178401,N,07928.0270943,W,4,07,1.4,187.681,M,-37.20,M,01,0000*68
$GPGGA,215206.25,4346.9178342,N,07928.0272619,W,4,07,1.4,187.675,M,-37.20,M,00,0000*67
$GPGGA,215206.50,4346.9178335,N,07928.0274291,W,4,07,1.4,187.669,M,-37.20,M,00,0000*6A
$GPGGA,215206.75,4346.9178413,N,07928.0275909,W,4,07,1.4,187.680,M,-37.20,M,00,0000*62
$GPGGA,215207.00,4346.9178467,N,07928.0277599,W,4,07,1.4,187.649,M,-37.20,M,01,0000*61
$GPGGA,215207.25,4346.9178705,N,07928.0279268,W,4,07,1.4,187.647,M,-37.20,M,00,0000*69
$GPGGA,215207.50,4346.9178913,N,07928.0280942,W,4,07,1.4,187.664,M,-37.20,M,00,0000*66
$GPGGA,215207.75,4346.9179135,N,07928.0282626,W,4,07,1.4,187.651,M,-37.20,M,00,0000*65
$GPGGA,215208.00,4346.9179320,N,07928.0284316,W,4,07,1.4,187.643,M,-37.20,M,01,0000*6C
$GPGGA,215208.25,4346.9179585,N,07928.0285982,W,4,07,1.4,187.641,M,-37.20,M,00,0000*67
$GPGGA,215208.50,4346.9179815,N,07928.0287658,W,4,07,1.4,187.647,M,-37.20,M,00,0000*6D
$GPGGA,215208.75,4346.9180010,N,07928.0289284,W,4,07,1.4,187.614,M,-37.20,M,00,0000*6C
$GPGGA,215209.00,4346.9180277,N,07928.0290953,W,4,07,1.4,187.629,M,-37.20,M,01,0000*6A
$GPGGA,215209.25,4346.9180560,N,07928.0292516,W,4,07,1.2,187.639,M,-37.20,M,00,0000*65
$GPGGA,215209.50,4346.9180875,N,07928.0294181,W,4,07,1.2,187.621,M,-37.20,M,00,0000*6B
$GPGGA,215209.75,4346.9181133,N,07928.0295752,W,4,07,1.2,187.650,M,-37.20,M,00,0000*69
$GPGGA,215210.00,4346.9181380,N,07928.0297430,W,4,07,1.2,187.640,M,-37.20,M,01,0000*6C
$GPGGA,215210.25,4346.9181661,N,07928.0299124,W,4,08,1.2,187.631,M,-37.20,M,00,0000*67
$GPGGA,215210.50,4346.9182024,N,07928.0300827,W,4,08,1.2,187.637,M,-37.20,M,00,0000*6C
$GPGGA,215210.75,4346.9182296,N,07928.0302504,W,4,07,1.2,187.586,M,-37.20,M,00,0000*68
$GPGGA,215211.00,4346.9182597,N,07928.0304232,W,4,07,1.2,187.585,M,-37.20,M,01,0000*6B
$GPGGA,215211.25,4346.9182900,N,07928.0305799,W,4,07,1.4,187.600,M,-37.20,M,00,0000*62
$GPGGA,215211.50,4346.9183212,N,07928.0307396,W,4,07,1.4,187.596,M,-37.20,M,00,0000*6C
$GPGGA,215211.75,4346.9183483,N,07928.0309027,W,4,07,1.4,187.596,M,-37.20,M,00,0000*62
$GPGGA,215212.00,4346.9183874,N,07928.0310568,W,4,07,1.4,187.581,M,-37.20,M,01,0000*66
$GPGGA,215212.25,4346.9184207,N,07928.0312205,W,4,07,1.4,187.551,M,-37.20,M,00,0000*6A
$GPGGA,215212.50,4346.9184659,N,07928.0313865,W,4,07,1.4,187.563,M,-37.20,M,00,0000*6B
$GPGGA,215212.75,4346.9185043,N,07928.0315383,W,4,07,1.4,187.532,M,-37.20,M,00,0000*61
$GPGGA,215213.00,4346.9185580,N,07928.0316967,W,4,07,1.4,187.543,M,-37.20,M,01,0000*6C
$GPGGA,215213.25,4346.9186065,N,07928.0318463,W,4,07,1.4,187.547,M,-37.20,M,00,0000*64
$GPGGA,215213.50,4346.9186599,N,07928.0319985,W,4,07,1.4,187.560,M,-37.20,M,00,0000*61
$GPGGA,215213.75,4346.9187206,N,07928.0321504,W,4,07,1.4,187.577,M,-37.20,M,00,0000*6E
$GPGGA,215214.00,4346.9187730,N,07928.0323012,W,4,07,1.4,187.523,M,-37.20,M,01,0000*6B
$GPGGA,215214.25,4346.9188429,N,07928.0324462,W,4,07,1.4,187.538,M,-37.20,M,00,0000*67
$GPGGA,215214.50,4346.9189004,N,07928.0325916,W,4,07,1.4,187.542,M,-37.20,M,00,0000*6D
$GPGGA,215214.75,4346.9189762,N,07928.0327311,W,4,07,1.4,187.566,M,-37.20,M,00,0000*64
$GPGGA,215215.00,4346.9190490,N,07928.0328740,W,4,07,1.4,187.536,M,-37.20,M,01,0000*6A
$GPGGA,215215.25,4346.9191427,N,07928.0330098,W,4,07,1.4,187.568,M,-37.20,M,00,0000*61
$GPGGA,215215.50,4346.9192196,N,07928.0331337,W,4,07,1.4,187.533,M,-37.20,M,00,0000*66
$GPGGA,215215.75,4346.9193047,N,07928.0332548,W,4,07,1.4,187.541,M,-37.20,M,00,0000*65
$GPGGA,215216.00,4346.9193853,N,07928.0333806,W,4,07,1.4,187.501,M,-37.20,M,01,0000*6A
$GPGGA,215216.25,4346.9194760,N,07928.0334950,W,4,07,1.4,187.582,M,-37.20,M,00,0000*6A
$GPGGA,215216.50,4346.9195653,N,07928.0336146,W,4,07,1.4,187.597,M,-37.20,M,00,0000*61
$GPGGA,215216.75,4346.9196469,N,07928.0337386,W,4,07,1.4,187.569,M,-37.20,M,00,0000*60
$GPGGA,215217.00,4346.9197248,N,07928.0338642,W,4,07,1.4,187.530,M,-37.20,M,01,0000*68
$GPGGA,215217.25,4346.9198200,N,07928.0339794,W,4,07,1.4,187.602,M,-37.20,M,00,0000*64
$GPGGA,215217.50,4346.9199038,N,07928.0341040,W,4,07,1.4,187.554,M,-37.20,M,00,0000*6F
$GPGGA,215217.75,4346.9199890,N,07928.0342226,W,4,07,1.4,187.578,M,-37.20,M,00,0000*6D
$GPGGA,215218.00,4346.9200705,N,07928.0343410,W,4,07,1.4,187.548,M,-37.20,M,01,0000*60
$GPGGA,215218.25,4346.9201615,N,07928.0344597,W,4,07,1.4,187.542,M,-37.20,M,00,0000*64
$GPGGA,215218.50,4346.9202465,N,07928.0345764,W,4,07,1.4,187.574,M,-37.20,M,00,0000*6A
$GPGGA,215218.75,4346.9203283,N,07928.0346923,W,4,07,1.4,187.573,M,-37.20,M,00,0000*6B
$GPGGA,215219.00,4346.9204156,N,07928.0348094,W,4,07,1.4,187.542,M,-37.20,M,01,0000*6C
$GPGGA,215219.25,4346.9205021,N,07928.0349222,W,4,08,1.2,187.576,M,-37.20,M,00,0000*6A
$GPGGA,215219.50,4346.9205915,N,07928.0350410,W,4,08,1.2,187.575,M,-37.20,M,00,0000*6A
$GPGGA,215219.75,4346.9206737,N,07928.0351588,W,4,08,1.2,187.582,M,-37.20,M,00,0000*69
$GPGGA,215220.00,4346.9207629,N,07928.0352718,W,4,08,1.2,187.603,M,-37.20,M,01,0000*6D
$GPGGA,215220.25,4346.9208512,N,07928.0353903,W,4,08,1.2,187.585,M,-37.20,M,00,0000*67
$GPGGA,215220.50,4346.9209392,N,07928.0355012,W,4,08,1.2,187.565,M,-37.20,M,00,0000*6B
$GPGGA,215220.75,4346.9210255,N,07928.0356226,W,4,08,1.2,187.597,M,-37.20,M,00,0000*65
$GPGGA,215221.00,4346.9211173,N,07928.0357372,W,4,08,1.2,187.580,M,-37.20,M,01,0000*66
$GPGGA,215221.25,4346.9211995,N,07928.0358631,W,4,08,1.2,187.583,M,-37.20,M,00,0000*6E
$GPGGA,215221.50,4346.9212957,N,07928.0359768,W,4,08,1.2,187.563,M,-37.20,M,00,0000*63
$GPGGA,215221.75,4346.9213825,N,07928.0360934,W,4,08,1.2,187.574,M,-37.20,M,00,0000*6A
$GPGGA,215222.00,4346.9214715,N,07928.0362159,W,4,08,1.2,187.581,M,-37.20,M,01,0000*6A
$GPGGA,215222.25,4346.9215591,N,07928.0363325,W,4,08,1.2,187.533,M,-37.20,M,00,0000*62
$GPGGA,215222.50,4346.9216472,N,07928.0364459,W,4,08,1.2,187.566,M,-37.20,M,00,0000*64
$GPGGA,215222.75,4346.9217363,N,07928.0365641,W,4,08,1.2,187.546,M,-37.20,M,00,0000*6D
$GPGGA,215223.00,4346.9218325,N,07928.0366882,W,4,08,1.2,187.556,M,-37.20,M,01,0000*61
$GPGGA,215223.25,4346.9219176,N,07928.0368023,W,4,08,1.2,187.562,M,-37.20,M,00,0000*68
$GPGGA,215223.50,4346.9220102,N,07928.0369231,W,4,08,1.2,187.557,M,-37.20,M,00,0000*65
$GPGGA,215223.75,4346.9220951,N,07928.0370368,W,4,08,1.2,187.568,M,-37.20,M,00,0000*65
$GPGGA,215224.00,4346.9221904,N,07928.0371529,W,4,08,1.2,187.565,M,-37.20,M,01,0000*6F
$GPGGA,215224.25,4346.9222712,N,07928.0372676,W,4,08,1.2,187.531,M,-37.20,M,00,0000*68
$GPGGA,215224.50,4346.9223636,N,07928.0373854,W,4,08,1.2,187.552,M,-37.20,M,00,0000*66
$GPGGA,215224.75,4346.9224546,N,07928.0375036,W,4,08,1.2,187.557,M,-37.20,M,00,0000*6D
$GPGGA,215225.00,4346.9225478,N,07928.0376198,W,4,08,1.2,187.537,M,-37.20,M,01,0000*62
$GPGGA,215225.25,4346.9226382,N,07928.0377320,W,4,08,1.2,187.577,M,-37.20,M,00,0000*61
$GPGGA,215225.50,4346.9227247,N,07928.0378435,W,4,08,1.2,187.601,M,-37.20,M,00,0000*64
$GPGGA,215225.75,4346.9228108,N,07928.0379627,W,4,08,1.2,187.541,M,-37.20,M,00,0000*63
$GPGGA,215226.00,4346.9228952,N,07928.0380813,W,4,08,1.2,187.581,M,-37.20,M,01,0000*67
$GPGGA,215226.25,4346.9229860,N,07928.0381952,W,4,08,1.2,187.571,M,-37.20,M,00,0000*6A
$GPGGA,215226.50,4346.9230705,N,07928.0383166,W,4,08,1.2,187.570,M,-37.20,M,00,0000*60
$GPGGA,215226.75,4346.9231623,N,07928.0384338,W,4,08,1.2,187.561,M,-37.20,M,00,0000*6D
$GPGGA,215227.00,4346.9232587,N,07928.0385376,W,4,08,1.2,187.553,M,-37.20,M,01,0000*6B
$GPGGA,215227.25,4346.9233587,N,07928.0386433,W,4,08,1.2,187.582,M,-37.20,M,00,0000*65
$GPGGA,215227.50,4346.9234548,N,07928.0387401,W,4,08,1.2,187.549,M,-37.20,M,00,0000*64
$GPGGA,215227.75,4346.9235501,N,07928.0388298,W,4,08,1.2,187.587,M,-37.20,M,00,0000*64
$GPGGA,215228.00,4346.9236565,N,07928.0389133,W,4,08,1.2,187.593,M,-37.20,M,01,0000*6F
$GPGGA,215228.25,4346.9237678,N,07928.0389936,W,4,08,1.2,187.650,M,-37.20,M,00,0000*66
$GPGGA,215228.50,4346.9238797,N,07928.0390685,W,4,08,1.2,187.628,M,-37.20,M,00,0000*6B
$GPGGA,215228.75,4346.9239916,N,07928.0391427,W,4,08,1.2,187.674,M,-37.20,M,00,0000*68
$GPGGA,215229.00,4346.9241042,N,07928.0392131,W,4,08,1.2,187.599,M,-37.20,M,01,0000*6C
$GPGGA,215229.25,4346.9242102,N,07928.0392669,W,4,08,1.2,187.586,M,-37.20,M,00,0000*68
$GPGGA,215229.50,4346.9243273,N,07928.0393226,W,4,08,1.2,187.573,M,-37.20,M,00,0000*6A
$GPGGA,215229.75,4346.9244443,N,07928.0393628,W,4,08,1.2,187.590,M,-37.20,M,00,0000*68
$GPGGA,215230.00,4346.9245771,N,07928.0394032,W,4,08,1.2,187.590,M,-37.20,M,01,0000*6A
$GPGGA,215230.25,4346.9246834,N,07928.0394312,W,4,08,1.2,187.555,M,-37.20,M,00,0000*69
$GPGGA,215230.50,4346.9248052,N,07928.0394578,W,4,08,1.2,187.560,M,-37.20,M,00,0000*61
$GPGGA,215230.75,4346.9249266,N,07928.0394838,W,4,08,1.2,187.557,M,-37.20,M,00,0000*6F
$GPGGA,215231.00,4346.9250488,N,07928.0395084,W,4,08,1.2,187.541,M,-37.20,M,01,0000*6A
$GPGGA,215231.25,4346.9251744,N,07928.0395226,W,4,08,1.2,187.606,M,-37.20,M,00,0000*64
$GPGGA,215231.50,4346.9252870,N,07928.0395517,W,4,08,1.2,187.548,M,-37.20,M,00,0000*61
$GPGGA,215231.75,4346.9254115,N,07928.0395698,W,4,08,1.2,187.553,M,-37.20,M,00,0000*64
$GPGGA,215232.00,4346.9255237,N,07928.0395933,W,4,08,1.2,187.614,M,-37.20,M,01,0000*68
$GPGGA,215232.25,4346.9256541,N,07928.0396071,W,4,07,1.2,187.627,M,-37.20,M,00,0000*68
$GPGGA,215232.50,4346.9257673,N,07928.0396227,W,4,07,1.2,187.597,M,-37.20,M,00,0000*60
$GPGGA,215232.75,4346.9258907,N,07928.0396397,W,4,07,1.4,187.606,M,-37.20,M,00,0000*63
$GPGGA,215233.00,4346.9260104,N,07928.0396544,W,4,07,1.4,187.631,M,-37.20,M,01,0000*6D
$GPGGA,215233.25,4346.9261364,N,07928.0396683,W,4,07,1.4,187.613,M,-37.20,M,00,0000*66
$GPGGA,215233.50,4346.9262586,N,07928.0396852,W,4,07,1.4,187.637,M,-37.20,M,00,0000*69
$GPGGA,215233.75,4346.9263824,N,07928.0396978,W,4,07,1.4,187.614,M,-37.20,M,00,0000*62
$GPGGA,215234.00,4346.9265076,N,07928.0397105,W,4,07,1.4,187.615,M,-37.20,M,01,0000*6D
$GPGGA,215234.25,4346.9266347,N,07928.0397178,W,4,07,1.4,187.657,M,-37.20,M,00,0000*65
$GPGGA,215234.50,4346.9267596,N,07928.0397322,W,4,07,1.4,187.668,M,-37.20,M,00,0000*6D
$GPGGA,215234.75,4346.9268770,N,07928.0397446,W,4,07,1.4,187.643,M,-37.20,M,00,0000*63
$GPGGA,215235.00,4346.9270003,N,07928.0397472,W,4,07,1.4,187.655,M,-37.20,M,01,0000*6B
$GPGGA,215235.25,4346.9271273,N,07928.0397426,W,4,07,1.4,187.686,M,-37.20,M,00,0000*66
$GPGGA,215235.50,4346.9272489,N,07928.0397393,W,4,07,1.4,187.663,M,-37.20,M,00,0000*66
$GPGGA,215235.75,4346.9273734,N,07928.0397264,W,4,07,1.4,187.704,M,-37.20,M,00,0000*6C
$GPGGA,215236.00,4346.9274990,N,07928.0397127,W,4,07,1.4,187.644,M,-37.20,M,01,0000*6A
$GPGGA,215236.25,4346.9276116,N,07928.0396950,W,4,07,1.4,187.656,M,-37.20,M,01,0000*63
$GPGGA,215236.50,4346.9277437,N,07928.0396697,W,4,07,1.4,187.703,M,-37.20,M,01,0000*63
$GPGGA,215236.75,4346.9278627,N,07928.0396364,W,4,07,1.4,187.682,M,-37.20,M,01,0000*69
$GPGGA,215237.00,4346.9279824,N,07928.0396024,W,4,07,1.4,187.667,M,-37.20,M,02,0000*69
$GPGGA,215237.25,4346.9280984,N,07928.0395545,W,4,07,1.4,187.709,M,-37.20,M,00,0000*69
$GPGGA,215237.50,4346.9282145,N,07928.0394966,W,4,07,1.4,187.709,M,-37.20,M,00,0000*60
$GPGGA,215237.75,4346.9283297,N,07928.0394334,W,4,07,1.4,187.734,M,-37.20,M,00,0000*69
$GPGGA,215238.00,4346.9284420,N,07928.0393657,W,4,07,1.4,187.687,M,-37.20,M,01,0000*66
$GPGGA,215238.25,4346.9285564,N,07928.0392867,W,4,07,1.4,187.707,M,-37.20,M,01,0000*64
$GPGGA,215238.50,4346.9286585,N,07928.0392040,W,4,07,1.4,187.729,M,-37.20,M,01,0000*6B
$GPGGA,215238.75,4346.9287621,N,07928.0391187,W,4,07,1.4,187.691,M,-37.20,M,01,0000*6B
$GPGGA,215239.00,4346.9288603,N,07928.0390312,W,4,07,1.4,187.694,M,-37.20,M,02,0000*6E
$GPGGA,215239.25,4346.9289536,N,07928.0389297,W,4,07,1.4,187.692,M,-37.20,M,00,0000*6D
$GPGGA,215239.50,4346.9290372,N,07928.0388292,W,4,07,1.4,187.724,M,-37.20,M,00,0000*69
$GPGGA,215239.75,4346.9291329,N,07928.0387039,W,4,07,1.4,187.766,M,-37.20,M,00,0000*6B
$GPGGA,215240.00,4346.9292095,N,07928.0385761,W,4,07,1.4,187.725,M,-37.20,M,01,0000*6E
$GPGGA,215240.25,4346.9292820,N,07928.0384353,W,4,07,1.4,187.777,M,-37.20,M,00,0000*6D
$GPGGA,215240.50,4346.9293504,N,07928.0382984,W,4,07,1.4,187.777,M,-37.20,M,00,0000*63
$GPGGA,215240.75,4346.9294090,N,07928.0381466,W,4,07,1.4,187.753,M,-37.20,M,00,0000*6F
$GPGGA,215241.00,4346.9294494,N,07928.0379951,W,4,07,1.4,187.775,M,-37.20,M,01,0000*67
$GPGGA,215241.25,4346.9294807,N,07928.0378268,W,4,07,1.4,187.784,M,-37.20,M,00,0000*69
$GPGGA,215241.50,4346.9295022,N,07928.0376551,W,4,07,1.4,187.742,M,-37.20,M,00,0000*6C
$GPGGA,215241.75,4346.9295192,N,07928.0374859,W,4,07,1.4,187.729,M,-37.20,M,00,0000*6B
$GPGGA,215242.00,4346.9295161,N,07928.0373121,W,4,07,1.4,187.720,M,-37.20,M,01,0000*6F
$GPGGA,215242.25,4346.9295028,N,07928.0371583,W,4,07,1.4,187.712,M,-37.20,M,00,0000*6A
$GPGGA,215242.50,4346.9294870,N,07928.0370204,W,4,07,1.4,187.716,M,-37.20,M,00,0000*61
$GPGGA,215242.75,4346.9294450,N,07928.0368732,W,4,07,1.4,187.737,M,-37.20,M,00,0000*62
$GPGGA,215243.00,4346.9294005,N,07928.0367331,W,4,07,1.4,187.774,M,-37.20,M,01,0000*6B
$GPGGA,215243.25,4346.9293401,N,07928.0365930,W,4,07,1.4,187.802,M,-37.20,M,00,0000*6D
$GPGGA,215243.50,4346.9292706,N,07928.0364602,W,4,07,1.4,187.837,M,-37.20,M,00,0000*63
$GPGGA,215243.75,4346.9292063,N,07928.0363480,W,4,07,1.4,187.836,M,-37.20,M,00,0000*6E
$GPGGA,215244.00,4346.9291229,N,07928.0362407,W,4,07,1.4,187.829,M,-37.20,M,01,0000*65
$GPGGA,215244.25,4346.9290451,N,07928.0361492,W,4,07,1.4,187.847,M,-37.20,M,00,0000*6C
$GPGGA,215244.50,4346.9289531,N,07928.0360617,W,4,07,1.4,187.872,M,-37.20,M,00,0000*69
$GPGGA,215244.75,4346.9288650,N,07928.0359957,W,4,07,1.4,187.829,M,-37.20,M,00,0000*64
$GPGGA,215245.00,4346.9287738,N,07928.0359370,W,4,07,1.4,187.715,M,-37.20,M,01,0000*69
$GPGGA,215245.25,4346.9286753,N,07928.0358663,W,4,07,1.4,187.741,M,-37.20,M,01,0000*65
$GPGGA,215245.50,4346.9285813,N,07928.0358155,W,4,07,1.4,187.694,M,-37.20,M,01,0000*64
$GPGGA,215245.75,4346.9284707,N,07928.0357707,W,4,07,1.4,187.710,M,-37.20,M,01,0000*6B
$GPGGA,215246.00,4346.9283721,N,07928.0357227,W,4,07,1.4,187.763,M,-37.20,M,02,0000*69
$GPGGA,215246.25,4346.9282671,N,07928.0356814,W,4,07,1.1,187.731,M,-37.20,M,02,0000*62
$GPGGA,215246.50,4346.9281670,N,07928.0356451,W,4,07,1.1,187.742,M,-37.20,M,02,0000*6B
$GPGGA,215246.75,4346.9280779,N,07928.0356013,W,4,07,1.4,187.762,M,-37.20,M,02,0000*60
$GPGGA,215247.00,4346.9279704,N,07928.0355656,W,4,07,1.4,187.735,M,-37.20,M,03,0000*68
$GPGGA,215247.25,4346.9278744,N,07928.0355277,W,4,07,1.4,187.737,M,-37.20,M,03,0000*6F
$GPGGA,215247.50,4346.9277774,N,07928.0354870,W,4,07,1.4,187.762,M,-37.20,M,03,0000*6D
$GPGGA,215247.75,4346.9276802,N,07928.0354498,W,4,07,1.4,187.757,M,-37.20,M,03,0000*69
$GPGGA,215248.00,4346.9275801,N,07928.0354146,W,4,07,1.4,187.781,M,-37.20,M,04,0000*6E
$GPGGA,215248.25,4346.9274783,N,07928.0353855,W,4,07,1.4,187.777,M,-37.20,M,04,0000*68
$GPGGA,215248.50,4346.9273738,N,07928.0353518,W,4,07,1.4,187.777,M,-37.20,M,04,0000*69
$GPGGA,215248.75,4346.9272693,N,07928.0353161,W,4,07,1.4,187.757,M,-37.20,M,04,0000*67
$GPGGA,215249.00,4346.9271567,N,07928.0352897,W,4,07,1.4,187.764,M,-37.20,M,05,0000*6F
$GPGGA,215249.25,4346.9270485,N,07928.0352614,W,4,07,1.4,187.785,M,-37.20,M,05,0000*6E
$GPGGA,215249.50,4346.9269347,N,07928.0352285,W,4,07,1.4,187.772,M,-37.20,M,05,0000*69
$GPGGA,215249.75,4346.9268245,N,07928.0352093,W,4,07,1.4,187.794,M,-37.20,M,05,0000*61
$GPGGA,215250.00,4346.9267055,N,07928.0351740,W,4,07,1.4,187.779,M,-37.20,M,06,0000*6D
$GPGGA,215250.25,4346.9265746,N,07928.0351478,W,4,07,1.4,187.768,M,-37.20,M,00,0000*63
$GPGGA,215250.50,4346.9264608,N,07928.0351258,W,4,07,1.4,187.813,M,-37.20,M,00,0000*6C
$GPGGA,215250.75,4346.9263489,N,07928.0350959,W,4,07,1.4,187.793,M,-37.20,M,00,0000*6B
$GPGGA,215251.00,4346.9262279,N,07928.0350688,W,4,07,1.4,187.786,M,-37.20,M,01,0000*66
$GPGGA,215251.25,4346.9261153,N,07928.0350438,W,4,07,1.4,187.801,M,-37.20,M,01,0000*60
$GPGGA,215251.50,4346.9259947,N,07928.0350217,W,4,07,1.4,187.811,M,-37.20,M,01,0000*6E
$GPGGA,215251.75,4346.9258745,N,07928.0349909,W,4,07,1.4,187.806,M,-37.20,M,01,0000*6E
$GPGGA,215252.00,4346.9257514,N,07928.0349694,W,4,07,1.4,187.803,M,-37.20,M,02,0000*6B
$GPGGA,215252.25,4346.9256335,N,07928.0349376,W,4,08,1.1,187.814,M,-37.20,M,02,0000*6D
$GPGGA,215252.50,4346.9255059,N,07928.0349157,W,4,08,1.1,187.803,M,-37.20,M,02,0000*62
$GPGGA,215252.75,4346.9253843,N,07928.0348812,W,4,08,1.1,187.776,M,-37.20,M,02,0000*64
$GPGGA,215253.00,4346.9252625,N,07928.0348473,W,4,08,1.1,187.787,M,-37.20,M,03,0000*6C
$GPGGA,215253.25,4346.9251424,N,07928.0348009,W,4,08,1.1,187.777,M,-37.20,M,03,0000*6D
$GPGGA,215253.50,4346.9250267,N,07928.0347472,W,4,08,1.1,187.806,M,-37.20,M,03,0000*61
$GPGGA,215253.75,4346.9249132,N,07928.0346915,W,4,08,1.1,187.805,M,-37.20,M,03,0000*63
$GPGGA,215254.00,4346.9247991,N,07928.0346338,W,4,08,1.1,187.803,M,-37.20,M,04,0000*6D
$GPGGA,215254.25,4346.9246898,N,07928.0345619,W,4,08,1.1,187.800,M,-37.20,M,04,0000*65
$GPGGA,215254.50,4346.9245797,N,07928.0344894,W,4,08,1.1,187.783,M,-37.20,M,04,0000*6A
$GPGGA,215254.75,4346.9244664,N,07928.0344012,W,4,08,1.1,187.762,M,-37.20,M,04,0000*68
$GPGGA,215255.00,4346.9243610,N,07928.0343107,W,4,08,1.1,187.764,M,-37.20,M,05,0000*6A
$GPGGA,215255.25,4346.9242562,N,07928.0342065,W,4,08,1.1,187.750,M,-37.20,M,05,0000*69
$GPGGA,215255.50,4346.9241616,N,07928.0341064,W,4,08,1.1,187.770,M,-37.20,M,05,0000*68
$GPGGA,215255.75,4346.9240791,N,07928.0340037,W,4,08,1.1,187.757,M,-37.20,M,05,0000*62
$GPGGA,215256.00,4346.9239898,N,07928.0338902,W,4,08,1.1,187.747,M,-37.20,M,06,0000*69
$GPGGA,215256.25,4346.9239048,N,07928.0337740,W,4,08,1.1,187.754,M,-37.20,M,06,0000*6E
$GPGGA,215256.50,4346.9238265,N,07928.0336502,W,4,08,1.1,187.786,M,-37.20,M,06,0000*6A
$GPGGA,215256.75,4346.9237473,N,07928.0335162,W,4,08,1.1,187.811,M,-37.20,M,06,0000*63
$GPGGA,215257.00,4346.9236694,N,07928.0333849,W,4,08,1.1,187.820,M,-37.20,M,07,0000*6F
$GPGGA,215257.25,4346.9235978,N,07928.0332406,W,4,08,1.1,187.781,M,-37.20,M,07,0000*64
$GPGGA,215257.50,4346.9235340,N,07928.0331032,W,4,08,1.1,187.806,M,-37.20,M,07,0000*67
$GPGGA,215257.75,4346.9234602,N,07928.0329570,W,4,08,1.1,187.798,M,-37.20,M,07,0000*60
$GPGGA,215258.00,4346.9234036,N,07928.0328173,W,4,08,1.1,187.796,M,-37.20,M,08,0000*6B
$GPGGA,215258.25,4346.9233393,N,07928.0326728,W,4,08,1.1,187.797,M,-37.20,M,08,0000*60
$GPGGA,215258.50,4346.9232784,N,07928.0325258,W,4,08,1.1,187.799,M,-37.20,M,08,0000*6E
$GPGGA,215258.75,4346.9232145,N,07928.0323837,W,4,08,1.1,187.809,M,-37.20,M,08,0000*61
$GPGGA,215259.00,4346.9231583,N,07928.0322328,W,4,08,1.1,187.793,M,-37.20,M,09,0000*66
$GPGGA,215259.25,4346.9231013,N,07928.0320699,W,4,08,1.1,187.833,M,-37.20,M,00,0000*6C
$GPGGA,215259.50,4346.9230500,N,07928.0319188,W,4,08,1.1,187.852,M,-37.20,M,00,0000*62
$GPGGA,215259.75,4346.9229992,N,07928.0317714,W,4,08,1.1,187.894,M,-37.20,M,00,0000*6D
$GPGGA,215300.00,4346.9229506,N,07928.0316224,W,4,08,1.1,187.881,M,-37.20,M,01,0000*61
$GPGGA,215300.25,4346.9228978,N,07928.0314717,W,4,08,1.1,187.774,M,-37.20,M,00,0000*61
$GPGGA,215300.50,4346.9228500,N,07928.0313116,W,4,08,1.1,187.770,M,-37.20,M,00,0000*64
$GPGGA,215300.75,4346.9228076,N,07928.0311523,W,4,08,1.1,187.776,M,-37.20,M,00,0000*61
$GPGGA,215301.00,4346.9227637,N,07928.0309897,W,4,08,1.1,187.777,M,-37.20,M,01,0000*65
$GPGGA,215301.25,4346.9227269,N,07928.0308346,W,4,08,1.1,187.764,M,-37.20,M,00,0000*68
