$GPGGA,164454.75,4346.9297207,N,07927.9654131,W,4,07,1.3,189.452,M,-37.20,M,00,0000*61
$GPGGA,164455.00,4346.9297156,N,07927.9654089,W,4,07,1.3,189.446,M,-37.20,M,01,0000*63
$GPGGA,164455.25,4346.9297202,N,07927.9654129,W,4,07,1.3,189.462,M,-37.20,M,00,0000*6A
$GPGGA,164455.50,4346.9297179,N,07927.9654113,W,4,07,1.3,189.452,M,-37.20,M,00,0000*6D
$GPGGA,164455.75,4346.9297232,N,07927.9654104,W,4,07,1.3,189.455,M,-37.20,M,00,0000*67
$GPGGA,164456.00,4346.9297209,N,07927.9654139,W,4,07,1.3,189.459,M,-37.20,M,01,0000*6D
$GPGGA,164456.25,4346.9297197,N,07927.9654111,W,4,07,1.3,189.444,M,-37.20,M,00,0000*69
$GPGGA,164456.50,4346.9297233,N,07927.9654139,W,4,07,1.3,189.448,M,-37.20,M,00,0000*60
$GPGGA,164456.75,4346.9297293,N,07927.9654159,W,4,07,1.3,189.434,M,-37.20,M,00,0000*60
$GPGGA,164457.00,4346.9297282,N,07927.9654190,W,4,07,1.3,189.447,M,-37.20,M,01,0000*63
$GPGGA,164457.25,4346.9297208,N,07927.9654136,W,4,07,1.3,189.446,M,-37.20,M,00,0000*6A
$GPGGA,164457.50,4346.9297187,N,07927.9654111,W,4,07,1.3,189.442,M,-37.20,M,00,0000*6D
$GPGGA,164457.75,4346.9297203,N,07927.9654099,W,4,07,1.3,189.447,M,-37.20,M,00,0000*61
$GPGGA,164458.00,4346.9297189,N,07927.9654089,W,4,07,1.3,189.438,M,-37.20,M,01,0000*65
$GPGGA,164458.25,4346.9297239,N,07927.9654132,W,4,07,1.3,189.450,M,-37.20,M,00,0000*64
$GPGGA,164458.50,4346.9297207,N,07927.9654092,W,4,07,1.3,189.442,M,-37.20,M,00,0000*63
$GPGGA,164458.75,4346.9297205,N,07927.9654115,W,4,07,1.3,189.447,M,-37.20,M,00,0000*6D
$GPGGA,164459.00,4346.9297224,N,07927.9654098,W,4,07,1.3,189.434,M,-37.20,M,01,0000*6C
$GPGGA,164459.25,4346.9297230,N,07927.9654132,W,4,07,1.3,189.443,M,-37.20,M,00,0000*6E
$GPGGA,164459.50,4346.9297215,N,07927.9654137,W,4,07,1.3,189.448,M,-37.20,M,00,0000*65
$GPGGA,164459.75,4346.9297225,N,07927.9654121,W,4,07,1.3,189.436,M,-37.20,M,00,0000*6F
$GPGGA,164500.00,4346.9297212,N,07927.9654120,W,4,07,1.3,189.438,M,-37.20,M,01,0000*6A
$GPGGA,164500.25,4346.9297179,N,07927.9654103,W,4,07,1.3,189.442,M,-37.20,M,00,0000*6E
$GPGGA,164500.50,4346.9297186,N,07927.9654084,W,4,07,1.3,189.436,M,-37.20,M,00,0000*61
$GPGGA,164500.75,4346.9297173,N,07927.9654094,W,4,07,1.3,189.437,M,-37.20,M,00,0000*6C
$GPGGA,164501.00,4346.9297186,N,07927.9654081,W,4,07,1.3,189.431,M,-37.20,M,01,0000*66
$GPGGA,164501.25,4346.9297228,N,07927.9654120,W,4,07,1.3,189.438,M,-37.20,M,00,0000*64
$GPGGA,164501.50,4346.9297199,N,07927.9654084,W,4,07,1.3,189.439,M,-37.20,M,00,0000*61
$GPGGA,164501.75,4346.9297222,N,07927.9654122,W,4,07,1.3,189.451,M,-37.20,M,00,0000*66
$GPGGA,164502.00,4346.9297221,N,07927.9654119,W,4,07,1.3,189.440,M,-37.20,M,01,0000*6D
$GPGGA,164502.25,4346.9297222,N,07927.9654113,W,4,07,1.3,189.439,M,-37.20,M,00,0000*6C
$GPGGA,164502.50,4346.9297244,N,07927.9654098,W,4,07,1.3,189.433,M,-37.20,M,00,0000*66
$GPGGA,164502.75,4346.9297220,N,07927.9654083,W,4,07,1.3,189.434,M,-37.20,M,00,0000*6E
$GPGGA,164503.00,4346.9297248,N,07927.9654087,W,4,07,1.3,189.431,M,-37.20,M,01,0000*63
$GPGGA,164503.25,4346.9297235,N,07927.9654148,W,4,07,1.3,189.441,M,-37.20,M,00,0000*6A
$GPGGA,164503.50,4346.9297248,N,07927.9654140,W,4,07,1.3,189.447,M,-37.20,M,00,0000*6C
$GPGGA,164503.75,4346.9297253,N,07927.9654116,W,4,07,1.3,189.432,M,-37.20,M,00,0000*60
$GPGGA,164504.00,4346.9297201,N,07927.9654127,W,4,07,1.3,189.454,M,-37.20,M,01,0000*61
$GPGGA,164504.25,4346.9297263,N,07927.9654175,W,4,07,1.3,189.443,M,-37.20,M,00,0000*62
$GPGGA,164504.50,4346.9297269,N,07927.9654178,W,4,07,1.3,189.451,M,-37.20,M,00,0000*64
$GPGGA,164504.75,4346.9297207,N,07927.9654139,W,4,07,1.3,189.451,M,-37.20,M,00,0000*6E
$GPGGA,164505.00,4346.9297235,N,07927.9654153,W,4,07,1.3,189.449,M,-37.20,M,01,0000*68
$GPGGA,164505.25,4346.9297292,N,07927.9654171,W,4,07,1.3,189.441,M,-37.20,M,00,0000*6B
$GPGGA,164505.50,4346.9297260,N,07927.9654191,W,4,07,1.3,189.458,M,-37.20,M,00,0000*62
$GPGGA,164505.75,4346.9297225,N,07927.9654171,W,4,07,1.3,189.462,M,-37.20,M,00,0000*63
$GPGGA,164506.00,4346.9297257,N,07927.9654162,W,4,07,1.3,189.460,M,-37.20,M,01,0000*66
$GPGGA,164506.25,4346.9297249,N,07927.9654176,W,4,07,1.3,189.449,M,-37.20,M,00,0000*61
$GPGGA,164506.50,4346.9297260,N,07927.9654160,W,4,07,1.3,189.443,M,-37.20,M,00,0000*65
$GPGGA,164506.75,4346.9297242,N,07927.9654174,W,4,07,1.3,189.452,M,-37.20,M,00,0000*67
$GPGGA,164507.00,4346.9297264,N,07927.9654144,W,4,07,1.3,189.437,M,-37.20,M,01,0000*61
$GPGGA,164507.25,4346.9297204,N,07927.9654153,W,4,07,1.3,189.448,M,-37.20,M,00,0000*6F
$GPGGA,164507.50,4346.9297082,N,07927.9654108,W,4,06,1.3,189.451,M,-37.20,M,00,0000*66
$GPGGA,164507.75,4346.9296913,N,07927.9654002,W,4,06,1.5,189.446,M,-37.20,M,00,0000*6A
$GPGGA,164508.00,4346.9296722,N,07927.9653963,W,4,06,1.5,189.444,M,-37.20,M,01,0000*61
$GPGGA,164508.25,4346.9296585,N,07927.9653769,W,4,06,1.5,189.443,M,-37.20,M,00,0000*6B
$GPGGA,164508.50,4346.9296368,N,07927.9653542,W,4,06,1.5,189.450,M,-37.20,M,00,0000*65
$GPGGA,164508.75,4346.9296131,N,07927.9653338,W,4,06,1.5,189.451,M,-37.20,M,00,0000*66
$GPGGA,164509.00,4346.9295886,N,07927.9653104,W,4,06,1.5,189.479,M,-37.20,M,01,0000*65
$GPGGA,164509.25,4346.9295441,N,07927.9652767,W,4,06,1.5,189.480,M,-37.20,M,00,0000*60
$GPGGA,164509.50,4346.9295011,N,07927.9652409,W,4,06,1.5,189.468,M,-37.20,M,00,0000*6E
$GPGGA,164509.75,4346.9294651,N,07927.9652010,W,4,06,1.5,189.497,M,-37.20,M,00,0000*66
$GPGGA,164510.00,4346.9294243,N,07927.9651497,W,4,06,1.5,189.474,M,-37.20,M,01,0000*6F
$GPGGA,164510.25,4346.9293874,N,07927.9650826,W,4,06,1.5,189.490,M,-37.20,M,00,0000*6D
$GPGGA,164510.50,4346.9293537,N,07927.9650179,W,4,06,1.5,189.474,M,-37.20,M,00,0000*6C
$GPGGA,164510.75,4346.9293093,N,07927.9649474,W,4,06,1.5,189.473,M,-37.20,M,00,0000*67
$GPGGA,164511.00,4346.9292790,N,07927.9648731,W,4,06,1.5,189.475,M,-37.20,M,01,0000*65
$GPGGA,164511.25,4346.9292320,N,07927.9647895,W,4,06,1.5,189.465,M,-37.20,M,00,0000*63
$GPGGA,164511.50,4346.9292080,N,07927.9647158,W,4,06,1.5,189.479,M,-37.20,M,00,0000*6D
$GPGGA,164511.75,4346.9291810,N,07927.9646401,W,4,06,1.5,189.474,M,-37.20,M,00,0000*6D
$GPGGA,164512.00,4346.9291526,N,07927.9645510,W,4,06,1.5,189.473,M,-37.20,M,01,0000*60
$GPGGA,164512.25,4346.9291317,N,07927.9644600,W,4,06,1.5,189.459,M,-37.20,M,00,0000*69
$GPGGA,164512.50,4346.9291148,N,07927.9643731,W,4,06,1.5,189.453,M,-37.20,M,00,0000*6D
$GPGGA,164512.75,4346.9291084,N,07927.9642878,W,4,06,1.5,189.465,M,-37.20,M,00,0000*6D
$GPGGA,164513.00,4346.9290976,N,07927.9642008,W,4,06,1.5,189.461,M,-37.20,M,01,0000*61
$GPGGA,164513.25,4346.9291044,N,07927.9641175,W,4,06,1.5,189.481,M,-37.20,M,00,0000*68
$GPGGA,164513.50,4346.9291046,N,07927.9640332,W,4,06,1.5,189.473,M,-37.20,M,00,0000*65
$GPGGA,164513.75,4346.9291075,N,07927.9639367,W,4,06,1.5,189.488,M,-37.20,M,00,0000*68
$GPGGA,164514.00,4346.9291129,N,07927.9638419,W,4,06,1.5,189.473,M,-37.20,M,01,0000*6F
$GPGGA,164514.25,4346.9291214,N,07927.9637451,W,4,06,1.5,189.471,M,-37.20,M,00,0000*65
$GPGGA,164514.50,4346.9291342,N,07927.9636482,W,4,06,1.5,189.463,M,-37.20,M,00,0000*69
$GPGGA,164514.75,4346.9291466,N,07927.9635467,W,4,06,1.5,189.457,M,-37.20,M,00,0000*60
$GPGGA,164515.00,4346.9291656,N,07927.9634566,W,4,06,1.5,189.486,M,-37.20,M,01,0000*6E
$GPGGA,164515.25,4346.9291766,N,07927.9633636,W,4,06,1.5,189.453,M,-37.20,M,00,0000*63
$GPGGA,164515.50,4346.9291969,N,07927.9632751,W,4,06,1.5,189.488,M,-37.20,M,00,0000*67
$GPGGA,164515.75,4346.9292059,N,07927.9631856,W,4,06,1.5,189.470,M,-37.20,M,00,0000*65
$GPGGA,164516.00,4346.9292247,N,07927.9630875,W,4,06,1.5,189.491,M,-37.20,M,01,0000*67
$GPGGA,164516.25,4346.9292443,N,07927.9629842,W,4,06,1.5,189.456,M,-37.20,M,00,0000*64
$GPGGA,164516.50,4346.9292672,N,07927.9628517,W,4,06,1.5,189.466,M,-37.20,M,00,0000*69
$GPGGA,164516.75,4346.9292873,N,07927.9627165,W,4,06,1.5,189.477,M,-37.20,M,00,0000*6F
$GPGGA,164517.00,4346.9293112,N,07927.9625829,W,4,06,1.5,189.480,M,-37.20,M,01,0000*69
$GPGGA,164517.25,4346.9293341,N,07927.9624334,W,4,06,1.5,189.487,M,-37.20,M,00,0000*6A
$GPGGA,164517.50,4346.9293647,N,07927.9622834,W,4,06,1.5,189.490,M,-37.20,M,00,0000*60
$GPGGA,164517.75,4346.9293932,N,07927.9621381,W,4,07,1.3,189.485,M,-37.20,M,00,0000*6F
$GPGGA,164518.00,4346.9294245,N,07927.9619920,W,4,07,1.3,189.491,M,-37.20,M,01,0000*60
$GPGGA,164518.25,4346.9294494,N,07927.9618482,W,4,07,1.3,189.506,M,-37.20,M,00,0000*67
$GPGGA,164518.50,4346.9294624,N,07927.9616890,W,4,06,1.3,189.510,M,-37.20,M,00,0000*6B
$GPGGA,164518.75,4346.9294829,N,07927.9615399,W,4,06,1.5,189.509,M,-37.20,M,00,0000*60
$GPGGA,164519.00,4346.9294935,N,07927.9613767,W,4,06,1.5,189.503,M,-37.20,M,01,0000*67
$GPGGA,164519.25,4346.9295197,N,07927.9612206,W,4,06,1.5,189.507,M,-37.20,M,00,0000*67
$GPGGA,164519.50,4346.9295492,N,07927.9610610,W,4,06,1.5,189.503,M,-37.20,M,00,0000*60
$GPGGA,164519.75,4346.9295689,N,07927.9609062,W,4,06,1.5,189.528,M,-37.20,M,00,0000*6D
$GPGGA,164520.00,4346.9295947,N,07927.9607390,W,4,06,1.5,189.509,M,-37.20,M,01,0000*6A
$GPGGA,164520.25,4346.9296144,N,07927.9605821,W,4,06,1.5,189.501,M,-37.20,M,00,0000*6F
$GPGGA,164520.50,4346.9296426,N,07927.9604184,W,4,06,1.5,189.510,M,-37.20,M,00,0000*6B
$GPGGA,164520.75,4346.9296676,N,07927.9602516,W,4,06,1.5,189.510,M,-37.20,M,00,0000*62
$GPGGA,164521.00,4346.9296927,N,07927.9600875,W,4,06,1.5,189.529,M,-37.20,M,01,0000*6B
$GPGGA,164521.25,4346.9297194,N,07927.9599259,W,4,06,1.5,189.514,M,-37.20,M,00,0000*65
$GPGGA,164521.50,4346.9297447,N,07927.9597676,W,4,06,1.5,189.534,M,-37.20,M,00,0000*69
$GPGGA,164521.75,4346.9297659,N,07927.9596036,W,4,06,1.5,189.547,M,-37.20,M,00,0000*64
$GPGGA,164522.00,4346.9297946,N,07927.9594489,W,4,06,1.5,189.559,M,-37.20,M,01,0000*68
$GPGGA,164522.25,4346.9298162,N,07927.9592842,W,4,07,1.3,189.555,M,-37.20,M,00,0000*69
$GPGGA,164522.50,4346.9298427,N,07927.9591194,W,4,07,1.3,189.569,M,-37.20,M,00,0000*61
$GPGGA,164522.75,4346.9298623,N,07927.9589558,W,4,07,1.3,189.571,M,-37.20,M,00,0000*64
$GPGGA,164523.00,4346.9298883,N,07927.9587893,W,4,07,1.3,189.568,M,-37.20,M,01,0000*6E
$GPGGA,164523.25,4346.9299102,N,07927.9586226,W,4,07,1.3,189.558,M,-37.20,M,00,0000*6F
$GPGGA,164523.50,4346.9299341,N,07927.9584664,W,4,07,1.3,189.579,M,-37.20,M,00,0000*6B
$GPGGA,164523.75,4346.9299531,N,07927.9582978,W,4,07,1.3,189.580,M,-37.20,M,00,0000*6F
$GPGGA,164524.00,4346.9299700,N,07927.9581306,W,4,07,1.3,189.584,M,-37.20,M,01,0000*6F
$GPGGA,164524.25,4346.9299846,N,07927.9579666,W,4,07,1.3,189.592,M,-37.20,M,00,0000*67
$GPGGA,164524.50,4346.9300067,N,07927.9577997,W,4,07,1.3,189.590,M,-37.20,M,00,0000*62
$GPGGA,164524.75,4346.9300248,N,07927.9576372,W,4,07,1.3,189.607,M,-37.20,M,00,0000*67
$GPGGA,164525.00,4346.9300471,N,07927.9574620,W,4,07,1.3,189.602,M,-37.20,M,01,0000*6C
$GPGGA,164525.25,4346.9300716,N,07927.9572992,W,4,07,1.3,189.597,M,-37.20,M,00,0000*67
$GPGGA,164525.50,4346.9300922,N,07927.9571354,W,4,07,1.3,189.613,M,-37.20,M,00,0000*60
$GPGGA,164525.75,4346.9301188,N,07927.9569683,W,4,06,1.3,189.613,M,-37.20,M,00,0000*69
$GPGGA,164526.00,4346.9301399,N,07927.9567922,W,4,06,1.3,189.596,M,-37.20,M,01,0000*6F
$GPGGA,164526.25,4346.9301587,N,07927.9566374,W,4,06,1.6,189.600,M,-37.20,M,00,0000*61
$GPGGA,164526.50,4346.9301787,N,07927.9564635,W,4,06,1.6,189.597,M,-37.20,M,00,0000*6E
$GPGGA,164526.75,4346.9302027,N,07927.9563023,W,4,06,1.6,189.607,M,-37.20,M,00,0000*6B
$GPGGA,164527.00,4346.9302255,N,07927.9561387,W,4,06,1.6,189.605,M,-37.20,M,01,0000*63
$GPGGA,164527.25,4346.9302370,N,07927.9559769,W,4,06,1.6,189.630,M,-37.20,M,00,0000*6A
$GPGGA,164527.50,4346.9302606,N,07927.9558189,W,4,06,1.6,189.630,M,-37.20,M,00,0000*65
$GPGGA,164527.75,4346.9302775,N,07927.9556513,W,4,06,1.6,189.630,M,-37.20,M,00,0000*6E
$GPGGA,164528.00,4346.9303041,N,07927.9554906,W,4,06,1.6,189.651,M,-37.20,M,01,0000*6E
$GPGGA,164528.25,4346.9303337,N,07927.9553244,W,4,06,1.6,189.664,M,-37.20,M,00,0000*66
$GPGGA,164528.50,4346.9303549,N,07927.9551621,W,4,06,1.6,189.691,M,-37.20,M,00,0000*64
$GPGGA,164528.75,4346.9303690,N,07927.9549921,W,4,06,1.6,189.706,M,-37.20,M,00,0000*6D
$GPGGA,164529.00,4346.9303849,N,07927.9548205,W,4,06,1.6,189.702,M,-37.20,M,01,0000*6D
$GPGGA,164529.25,4346.9304048,N,07927.9546509,W,4,06,1.6,189.739,M,-37.20,M,00,0000*68
$GPGGA,164529.50,4346.9304204,N,07927.9544772,W,4,06,1.6,189.731,M,-37.20,M,00,0000*64
$GPGGA,164529.75,4346.9304396,N,07927.9543069,W,4,06,1.3,189.738,M,-37.20,M,00,0000*6F
$GPGGA,164530.00,4346.9304593,N,07927.9541367,W,4,06,1.3,189.756,M,-37.20,M,01,0000*60
$GPGGA,164530.25,4346.9304840,N,07927.9539807,W,4,07,1.3,189.781,M,-37.20,M,00,0000*6C
$GPGGA,164530.50,4346.9305033,N,07927.9538128,W,4,07,1.3,189.789,M,-37.20,M,00,0000*6E
$GPGGA,164530.75,4346.9305227,N,07927.9536476,W,4,07,1.3,189.796,M,-37.20,M,00,0000*60
$GPGGA,164531.00,4346.9305392,N,07927.9534696,W,4,06,1.3,189.775,M,-37.20,M,01,0000*6F
$GPGGA,164531.25,4346.9305613,N,07927.9532991,W,4,06,1.5,189.777,M,-37.20,M,00,0000*6F
$GPGGA,164531.50,4346.9305807,N,07927.9531382,W,4,07,1.5,189.793,M,-37.20,M,00,0000*66
$GPGGA,164531.75,4346.9306022,N,07927.9529674,W,4,07,1.3,189.804,M,-37.20,M,00,0000*6F
$GPGGA,164532.00,4346.9306297,N,07927.9528010,W,4,07,1.3,189.805,M,-37.20,M,01,0000*67
$GPGGA,164532.25,4346.9306498,N,07927.9526369,W,4,07,1.3,189.802,M,-37.20,M,00,0000*6C
$GPGGA,164532.50,4346.9306757,N,07927.9524760,W,4,06,1.3,189.808,M,-37.20,M,00,0000*6A
$GPGGA,164532.75,4346.9306943,N,07927.9523056,W,4,06,1.5,189.814,M,-37.20,M,00,0000*68
$GPGGA,164533.00,4346.9307220,N,07927.9521370,W,4,07,1.5,189.836,M,-37.20,M,01,0000*61
$GPGGA,164533.25,4346.9307445,N,07927.9519621,W,4,07,1.3,189.833,M,-37.20,M,00,0000*6B
$GPGGA,164533.50,4346.9307748,N,07927.9518076,W,4,07,1.3,189.853,M,-37.20,M,00,0000*64
$GPGGA,164533.75,4346.9307935,N,07927.9516346,W,4,07,1.3,189.845,M,-37.20,M,00,0000*6E
$GPGGA,164534.00,4346.9308219,N,07927.9514676,W,4,07,1.3,189.851,M,-37.20,M,01,0000*61
$GPGGA,164534.25,4346.9308474,N,07927.9513086,W,4,07,1.3,189.884,M,-37.20,M,00,0000*6C
$GPGGA,164534.50,4346.9308739,N,07927.9511360,W,4,07,1.3,189.874,M,-37.20,M,00,0000*62
$GPGGA,164534.75,4346.9308982,N,07927.9509746,W,4,06,1.3,189.883,M,-37.20,M,00,0000*6B
$GPGGA,164535.00,4346.9309257,N,07927.9508087,W,4,06,1.3,189.874,M,-37.20,M,01,0000*68
$GPGGA,164535.25,4346.9309530,N,07927.9506452,W,4,06,1.5,189.897,M,-37.20,M,00,0000*61
$GPGGA,164535.50,4346.9309735,N,07927.9504853,W,4,06,1.5,189.925,M,-37.20,M,00,0000*63
$GPGGA,164535.75,4346.9310033,N,07927.9503172,W,4,06,1.5,189.909,M,-37.20,M,00,0000*6E
$GPGGA,164536.00,4346.9310296,N,07927.9501561,W,4,06,1.5,189.939,M,-37.20,M,01,0000*64
$GPGGA,164536.25,4346.9310529,N,07927.9499872,W,4,06,1.5,189.905,M,-37.20,M,00,0000*61
$GPGGA,164536.50,4346.9310822,N,07927.9498217,W,4,06,1.5,189.920,M,-37.20,M,00,0000*6A
$GPGGA,164536.75,4346.9311092,N,07927.9496622,W,4,06,1.5,189.931,M,-37.20,M,00,0000*63
$GPGGA,164537.00,4346.9311416,N,07927.9494888,W,4,06,1.5,189.935,M,-37.20,M,01,0000*61
$GPGGA,164537.25,4346.9311756,N,07927.9493225,W,4,06,1.5,189.937,M,-37.20,M,00,0000*68
$GPGGA,164537.50,4346.9311995,N,07927.9491688,W,4,06,1.5,189.962,M,-37.20,M,00,0000*6A
$GPGGA,164537.75,4346.9312376,N,07927.9490040,W,4,07,1.3,189.967,M,-37.20,M,00,0000*68
$GPGGA,164538.00,4346.9312771,N,07927.9488377,W,4,07,1.3,189.963,M,-37.20,M,01,0000*6D
$GPGGA,164538.25,4346.9313137,N,07927.9486846,W,4,07,1.3,189.963,M,-37.20,M,00,0000*69
$GPGGA,164538.50,4346.9313474,N,07927.9485162,W,4,07,1.3,189.960,M,-37.20,M,00,0000*66
$GPGGA,164538.75,4346.9313900,N,07927.9483554,W,4,07,1.3,189.966,M,-37.20,M,00,0000*6E
$GPGGA,164539.00,4346.9314281,N,07927.9481904,W,4,07,1.3,189.950,M,-37.20,M,01,0000*67
$GPGGA,164539.25,4346.9314742,N,07927.9480290,W,4,07,1.3,189.948,M,-37.20,M,00,0000*65
$GPGGA,164539.50,4346.9315099,N,07927.9478748,W,4,07,1.3,189.950,M,-37.20,M,00,0000*69
$GPGGA,164539.75,4346.9315596,N,07927.9477118,W,4,07,1.3,189.952,M,-37.20,M,00,0000*6A
$GPGGA,164540.00,4346.9315982,N,07927.9475638,W,4,07,1.3,189.971,M,-37.20,M,01,0000*68
$GPGGA,164540.25,4346.9316515,N,07927.9474128,W,4,07,1.3,189.978,M,-37.20,M,00,0000*61
$GPGGA,164540.50,4346.9316946,N,07927.9472493,W,4,07,1.3,189.978,M,-37.20,M,00,0000*6A
$GPGGA,164540.75,4346.9317450,N,07927.9470967,W,4,07,1.3,189.969,M,-37.20,M,00,0000*62
$GPGGA,164541.00,4346.9317866,N,07927.9469337,W,4,07,1.3,189.979,M,-37.20,M,01,0000*6F
$GPGGA,164541.25,4346.9318257,N,07927.9467755,W,4,07,1.3,189.957,M,-37.20,M,00,0000*6C
$GPGGA,164541.50,4346.9318761,N,07927.9466296,W,4,07,1.3,190.007,M,-37.20,M,00,0000*61
$GPGGA,164541.75,4346.9319318,N,07927.9464757,W,4,07,1.3,189.967,M,-37.20,M,00,0000*60
$GPGGA,164542.00,4346.9319873,N,07927.9463339,W,4,07,1.3,190.007,M,-37.20,M,01,0000*6A
$GPGGA,164542.25,4346.9320401,N,07927.9461909,W,4,07,1.3,189.980,M,-37.20,M,00,0000*6A
$GPGGA,164542.50,4346.9321039,N,07927.9460446,W,4,07,1.3,189.987,M,-37.20,M,00,0000*66
$GPGGA,164542.75,4346.9321637,N,07927.9458996,W,4,07,1.3,189.982,M,-37.20,M,00,0000*67
$GPGGA,164543.00,4346.9322264,N,07927.9457543,W,4,06,1.3,189.971,M,-37.20,M,01,0000*62
$GPGGA,164543.25,4346.9322986,N,07927.9456074,W,4,06,1.6,189.963,M,-37.20,M,00,0000*65
$GPGGA,164543.50,4346.9323621,N,07927.9454799,W,4,06,1.6,189.997,M,-37.20,M,00,0000*69
$GPGGA,164543.75,4346.9324394,N,07927.9453380,W,4,06,1.6,189.984,M,-37.20,M,00,0000*6B
$GPGGA,164544.00,4346.9325111,N,07927.9452086,W,4,06,1.6,189.992,M,-37.20,M,01,0000*62
$GPGGA,164544.25,4346.9325955,N,07927.9450904,W,4,06,1.6,190.042,M,-37.20,M,00,0000*61
$GPGGA,164544.50,4346.9326722,N,07927.9449861,W,4,06,1.6,190.069,M,-37.20,M,00,0000*6D
$GPGGA,164544.75,4346.9327476,N,07927.9448613,W,4,06,1.6,190.093,M,-37.20,M,00,0000*66
$GPGGA,164545.00,4346.9328269,N,07927.9447446,W,4,06,1.6,190.105,M,-37.20,M,01,0000*60
$GPGGA,164545.25,4346.9328923,N,07927.9446113,W,4,06,1.6,190.098,M,-37.20,M,00,0000*62
$GPGGA,164545.50,4346.9329721,N,07927.9444712,W,4,05,1.6,190.091,M,-37.20,M,00,0000*62
$GPGGA,164545.75,4346.9330471,N,07927.9443517,W,4,05,1.7,190.136,M,-37.20,M,00,0000*66
$GPGGA,164546.00,4346.9331359,N,07927.9442381,W,4,05,1.7,190.153,M,-37.20,M,01,0000*61
$GPGGA,164546.25,4346.9332221,N,07927.9441123,W,4,05,1.7,190.149,M,-37.20,M,00,0000*68
$GPGGA,164546.50,4346.9333102,N,07927.9439980,W,4,05,1.7,190.140,M,-37.20,M,00,0000*6E
$GPGGA,164546.75,4346.9333979,N,07927.9438827,W,4,05,1.7,190.141,M,-37.20,M,00,0000*61
$GPGGA,164547.00,4346.9334720,N,07927.9437943,W,4,05,1.7,190.153,M,-37.20,M,01,0000*69
$GPGGA,164547.25,4346.9335394,N,07927.9436925,W,4,05,1.7,190.154,M,-37.20,M,00,0000*63
$GPGGA,164547.50,4346.9335984,N,07927.9435931,W,4,05,1.7,190.155,M,-37.20,M,00,0000*6D
$GPGGA,164547.75,4346.9336519,N,07927.9434872,W,4,05,1.7,190.152,M,-37.20,M,00,0000*61
$GPGGA,164548.00,4346.9337040,N,07927.9433982,W,4,05,1.7,190.206,M,-37.20,M,01,0000*6E
$GPGGA,164548.25,4346.9337523,N,07927.9432859,W,4,05,1.7,190.190,M,-37.20,M,00,0000*62
$GPGGA,164548.50,4346.9337878,N,07927.9431678,W,4,05,1.7,190.191,M,-37.20,M,00,0000*6C
$GPGGA,164548.75,4346.9338237,N,07927.9430451,W,4,05,1.7,190.196,M,-37.20,M,00,0000*6A
$GPGGA,164549.00,4346.9338490,N,07927.9429162,W,4,06,1.7,190.185,M,-37.20,M,01,0000*6F
$GPGGA,164549.25,4346.9338707,N,07927.9427837,W,4,06,1.6,190.195,M,-37.20,M,00,0000*63
$GPGGA,164549.50,4346.9339007,N,07927.9426668,W,4,06,1.6,190.202,M,-37.20,M,00,0000*6F
$GPGGA,164549.75,4346.9339173,N,07927.9425413,W,4,06,1.6,190.198,M,-37.20,M,00,0000*67
$GPGGA,164550.00,4346.9339431,N,07927.9424232,W,4,06,1.6,190.209,M,-37.20,M,01,0000*60
$GPGGA,164550.25,4346.9339577,N,07927.9422969,W,4,06,1.6,190.232,M,-37.20,M,00,0000*6E
$GPGGA,164550.50,4346.9339671,N,07927.9421775,W,4,06,1.6,190.261,M,-37.20,M,00,0000*6F
$GPGGA,164550.75,4346.9339647,N,07927.9420413,W,4,06,1.6,190.225,M,-37.20,M,00,0000*6F
$GPGGA,164551.00,4346.9339592,N,07927.9419099,W,4,06,1.6,190.214,M,-37.20,M,01,0000*68
$GPGGA,164551.25,4346.9339334,N,07927.9417859,W,4,06,1.6,190.173,M,-37.20,M,00,0000*6C
$GPGGA,164551.50,4346.9339074,N,07927.9416588,W,4,06,1.6,190.202,M,-37.20,M,00,0000*6C
$GPGGA,164551.75,4346.9338760,N,07927.9415262,W,4,06,1.6,190.189,M,-37.20,M,00,0000*68
$GPGGA,164552.00,4346.9338376,N,07927.9413992,W,4,06,1.6,190.174,M,-37.20,M,01,0000*6B
$GPGGA,164552.25,4346.9337962,N,07927.9412678,W,4,06,1.6,190.150,M,-37.20,M,00,0000*61
$GPGGA,164552.50,4346.9337476,N,07927.9411611,W,4,06,1.6,190.190,M,-37.20,M,00,0000*6B
$GPGGA,164552.75,4346.9336918,N,07927.9410347,W,4,06,1.6,190.150,M,-37.20,M,00,0000*63
$GPGGA,164553.00,4346.9336366,N,07927.9409281,W,4,06,1.6,190.176,M,-37.20,M,01,0000*65
$GPGGA,164553.25,4346.9335748,N,07927.9408290,W,4,06,1.6,190.173,M,-37.20,M,00,0000*6C
$GPGGA,164553.50,4346.9335048,N,07927.9407391,W,4,06,1.6,190.179,M,-37.20,M,00,0000*6C
$GPGGA,164553.75,4346.9334331,N,07927.9406537,W,4,06,1.6,190.181,M,-37.20,M,00,0000*6B
$GPGGA,164554.00,4346.9333679,N,07927.9405723,W,4,06,1.6,190.206,M,-37.20,M,01,0000*69
$GPGGA,164554.25,4346.9332961,N,07927.9404899,W,4,06,1.6,190.186,M,-37.20,M,00,0000*6C
$GPGGA,164554.50,4346.9332174,N,07927.9404100,W,4,06,1.6,190.156,M,-37.20,M,00,0000*66
$GPGGA,164554.75,4346.9331412,N,07927.9403347,W,4,06,1.6,190.153,M,-37.20,M,00,0000*64
$GPGGA,164555.00,4346.9330567,N,07927.9402748,W,4,06,1.6,190.162,M,-37.20,M,01,0000*6C
$GPGGA,164555.25,4346.9329601,N,07927.9402265,W,4,06,1.6,190.168,M,-37.20,M,00,0000*61
$GPGGA,164555.50,4346.9328711,N,07927.9401884,W,4,06,1.6,190.182,M,-37.20,M,00,0000*60
$GPGGA,164555.75,4346.9327737,N,07927.9401493,W,4,06,1.6,190.178,M,-37.20,M,00,0000*63
$GPGGA,164556.00,4346.9326795,N,07927.9401147,W,4,06,1.6,190.177,M,-37.20,M,01,0000*69
$GPGGA,164556.25,4346.9325865,N,07927.9400905,W,4,06,1.6,190.178,M,-37.20,M,00,0000*6C
$GPGGA,164556.50,4346.9324838,N,07927.9400700,W,4,06,1.6,190.172,M,-37.20,M,00,0000*66
$GPGGA,164556.75,4346.9323852,N,07927.9400267,W,4,06,1.6,190.163,M,-37.20,M,00,0000*6E
$GPGGA,164557.00,4346.9322869,N,07927.9399938,W,4,06,1.6,190.152,M,-37.20,M,01,0000*61
$GPGGA,164557.25,4346.9321832,N,07927.9399815,W,4,06,1.6,190.158,M,-37.20,M,00,0000*6E
$GPGGA,164557.50,4346.9320898,N,07927.9399641,W,4,06,1.6,190.151,M,-37.20,M,00,0000*6B
$GPGGA,164557.75,4346.9319941,N,07927.9399421,W,4,06,1.6,190.161,M,-37.20,M,00,0000*64
$GPGGA,164558.00,4346.9319030,N,07927.9399218,W,4,06,1.6,190.168,M,-37.20,M,01,0000*62
$GPGGA,164558.25,4346.9318030,N,07927.9398897,W,4,06,1.6,190.160,M,-37.20,M,00,0000*61
$GPGGA,164558.50,4346.9317062,N,07927.9398686,W,4,06,1.6,190.166,M,-37.20,M,00,0000*63
$GPGGA,164558.75,4346.9316128,N,07927.9398434,W,4,06,1.6,190.167,M,-37.20,M,00,0000*60
$GPGGA,164559.00,4346.9315131,N,07927.9398222,W,4,06,1.6,190.186,M,-37.20,M,01,0000*67
$GPGGA,164559.25,4346.9314252,N,07927.9398061,W,4,06,1.6,190.182,M,-37.20,M,00,0000*67
$GPGGA,164559.50,4346.9313263,N,07927.9397962,W,4,06,1.6,190.192,M,-37.20,M,00,0000*64
$GPGGA,164559.75,4346.9312262,N,07927.9397804,W,4,06,1.6,190.197,M,-37.20,M,00,0000*67
$GPGGA,164600.00,4346.9311304,N,07927.9397649,W,4,06,1.6,190.198,M,-37.20,M,01,0000*61
$GPGGA,164600.25,4346.9310249,N,07927.9397591,W,4,06,1.6,190.188,M,-37.20,M,00,0000*69
$GPGGA,164600.50,4346.9309183,N,07927.9397509,W,4,06,1.6,190.194,M,-37.20,M,00,0000*6A
$GPGGA,164600.75,4346.9308224,N,07927.9397425,W,4,06,1.6,190.204,M,-37.20,M,00,0000*67
$GPGGA,164601.00,4346.9307210,N,07927.9397244,W,4,06,1.6,190.183,M,-37.20,M,01,0000*60
$GPGGA,164601.25,4346.9306272,N,07927.9397159,W,4,06,1.6,190.204,M,-37.20,M,00,0000*60
$GPGGA,164601.50,4346.9305266,N,07927.9396922,W,4,06,1.6,190.194,M,-37.20,M,00,0000*6B
$GPGGA,164601.75,4346.9304273,N,07927.9396876,W,4,06,1.6,190.209,M,-37.20,M,00,0000*6E
$GPGGA,164602.00,4346.9303177,N,07927.9396650,W,4,06,1.6,190.177,M,-37.20,M,01,0000*6E
$GPGGA,164602.25,4346.9302247,N,07927.9396611,W,4,06,1.6,190.187,M,-37.20,M,00,0000*63
$GPGGA,164602.50,4346.9301337,N,07927.9396505,W,4,06,1.6,190.204,M,-37.20,M,00,0000*6A
$GPGGA,164602.75,4346.9300415,N,07927.9396343,W,4,06,1.6,190.206,M,-37.20,M,00,0000*6D
$GPGGA,164603.00,4346.9299435,N,07927.9396276,W,4,06,1.6,190.225,M,-37.20,M,01,0000*6A
$GPGGA,164603.25,4346.9298468,N,07927.9396117,W,4,06,1.6,190.208,M,-37.20,M,00,0000*6E
$GPGGA,164603.50,4346.9297396,N,07927.9396070,W,4,06,1.6,190.212,M,-37.20,M,00,0000*6E
$GPGGA,164603.75,4346.9296358,N,07927.9395896,W,4,06,1.6,190.209,M,-37.20,M,00,0000*63
$GPGGA,164604.00,4346.9295286,N,07927.9395690,W,4,06,1.6,190.218,M,-37.20,M,01,0000*6E
$GPGGA,164604.25,4346.9294240,N,07927.9395647,W,4,06,1.6,190.195,M,-37.20,M,00,0000*6F
$GPGGA,164604.50,4346.9293205,N,07927.9395518,W,4,06,1.6,190.189,M,-37.20,M,00,0000*6F
$GPGGA,164604.75,4346.9292173,N,07927.9395428,W,4,06,1.6,190.183,M,-37.20,M,00,0000*63
$GPGGA,164605.00,4346.9291154,N,07927.9395302,W,4,06,1.6,190.172,M,-37.20,M,01,0000*66
$GPGGA,164605.25,4346.9290147,N,07927.9395179,W,4,06,1.6,190.221,M,-37.20,M,00,0000*68
$GPGGA,164605.50,4346.9289202,N,07927.9395180,W,4,06,1.6,190.219,M,-37.20,M,00,0000*6D
$GPGGA,164605.75,4346.9288186,N,07927.9395033,W,4,06,1.6,190.216,M,-37.20,M,00,0000*62
$GPGGA,164606.00,4346.9287123,N,07927.9395009,W,4,06,1.6,190.241,M,-37.20,M,01,0000*69
$GPGGA,164606.25,4346.9285968,N,07927.9394781,W,4,06,1.6,190.196,M,-37.20,M,00,0000*65
$GPGGA,164606.50,4346.9284891,N,07927.9394740,W,4,06,1.6,190.209,M,-37.20,M,00,0000*69
$GPGGA,164606.75,4346.9283744,N,07927.9394657,W,4,06,1.6,190.207,M,-37.20,M,00,0000*67
$GPGGA,164607.00,4346.9282552,N,07927.9394565,W,4,06,1.6,190.178,M,-37.20,M,01,0000*68
$GPGGA,164607.25,4346.9281615,N,07927.9394487,W,4,06,1.6,190.209,M,-37.20,M,00,0000*65
$GPGGA,164607.50,4346.9280596,N,07927.9394460,W,4,06,1.6,190.232,M,-37.20,M,00,0000*6F
$GPGGA,164607.75,4346.9279343,N,07927.9394301,W,4,06,1.6,190.201,M,-37.20,M,00,0000*60
$GPGGA,164608.00,4346.9278248,N,07927.9394254,W,4,06,1.6,190.213,M,-37.20,M,01,0000*65
$GPGGA,164608.25,4346.9277090,N,07927.9394023,W,4,06,1.6,190.188,M,-37.20,M,00,0000*68
$GPGGA,164608.50,4346.9275939,N,07927.9393852,W,4,06,1.6,190.218,M,-37.20,M,00,0000*61
$GPGGA,164608.75,4346.9274879,N,07927.9393684,W,4,06,1.6,190.216,M,-37.20,M,00,0000*69
$GPGGA,164609.00,4346.9273696,N,07927.9393466,W,4,06,1.6,190.234,M,-37.20,M,01,0000*6D
$GPGGA,164609.25,4346.9272548,N,07927.9393281,W,4,06,1.6,190.229,M,-37.20,M,00,0000*69
$GPGGA,164609.50,4346.9271621,N,07927.9393166,W,4,06,1.6,190.269,M,-37.20,M,00,0000*6A
$GPGGA,164609.75,4346.9270326,N,07927.9392992,W,4,06,1.6,190.273,M,-37.20,M,00,0000*67
$GPGGA,164610.00,4346.9269154,N,07927.9392735,W,4,06,1.6,190.280,M,-37.20,M,01,0000*6C
$GPGGA,164610.25,4346.9267955,N,07927.9392638,W,4,06,1.6,190.299,M,-37.20,M,00,0000*69
$GPGGA,164610.50,4346.9266848,N,07927.9392397,W,4,06,1.6,190.331,M,-37.20,M,00,0000*64
$GPGGA,164610.75,4346.9265585,N,07927.9392172,W,4,06,1.6,190.308,M,-37.20,M,00,0000*6F
$GPGGA,164611.00,4346.9264156,N,07927.9392263,W,4,06,1.6,190.293,M,-37.20,M,01,0000*66
$GPGGA,164611.25,4346.9262930,N,07927.9392182,W,4,06,1.6,190.279,M,-37.20,M,00,0000*66
$GPGGA,164611.50,4346.9261622,N,07927.9392015,W,4,06,1.6,190.268,M,-37.20,M,00,0000*64
$GPGGA,164611.75,4346.9260387,N,07927.9391960,W,4,06,1.6,190.270,M,-37.20,M,00,0000*69
$GPGGA,164612.00,4346.9259259,N,07927.9392024,W,4,06,1.6,190.291,M,-37.20,M,01,0000*64
$GPGGA,164612.25,4346.9258078,N,07927.9392032,W,4,06,1.6,190.308,M,-37.20,M,00,0000*64
$GPGGA,164612.50,4346.9256790,N,07927.9391869,W,4,06,1.6,190.283,M,-37.20,M,00,0000*6E
$GPGGA,164612.75,4346.9255559,N,07927.9391908,W,4,06,1.6,190.272,M,-37.20,M,00,0000*65
$GPGGA,164613.00,4346.9254347,N,07927.9391798,W,4,06,1.6,190.286,M,-37.20,M,01,0000*63
$GPGGA,164613.25,4346.9253022,N,07927.9391781,W,4,06,1.6,190.250,M,-37.20,M,00,0000*61
$GPGGA,164613.50,4346.9251819,N,07927.9391530,W,4,06,1.6,190.245,M,-37.20,M,00,0000*6D
$GPGGA,164613.75,4346.9250680,N,07927.9391696,W,4,06,1.6,190.257,M,-37.20,M,00,0000*69
$GPGGA,164614.00,4346.9249362,N,07927.9391508,W,4,06,1.6,190.244,M,-37.20,M,01,0000*6A
$GPGGA,164614.25,4346.9248161,N,07927.9391681,W,4,06,1.6,190.244,M,-37.20,M,00,0000*6E
$GPGGA,164614.50,4346.9246827,N,07927.9391530,W,4,06,1.6,190.232,M,-37.20,M,00,0000*61
$GPGGA,164614.75,4346.9245538,N,07927.9391645,W,4,06,1.6,190.234,M,-37.20,M,00,0000*61
$GPGGA,164615.00,4346.9244341,N,07927.9391587,W,4,06,1.6,190.207,M,-37.20,M,01,0000*67
$GPGGA,164615.25,4346.9243112,N,07927.9391476,W,4,06,1.6,190.208,M,-37.20,M,00,0000*62
$GPGGA,164615.50,4346.9241867,N,07927.9391516,W,4,06,1.6,190.206,M,-37.20,M,00,0000*60
$GPGGA,164615.75,4346.9240694,N,07927.9391428,W,4,06,1.6,190.198,M,-37.20,M,00,0000*6C
$GPGGA,164616.00,4346.9239434,N,07927.9391536,W,4,06,1.6,190.193,M,-37.20,M,01,0000*6F
$GPGGA,164616.25,4346.9238116,N,07927.9391520,W,4,06,1.6,190.138,M,-37.20,M,00,0000*6B
$GPGGA,164616.50,4346.9236895,N,07927.9391660,W,4,06,1.6,190.148,M,-37.20,M,00,0000*65
$GPGGA,164616.75,4346.9235687,N,07927.9391953,W,4,06,1.6,190.123,M,-37.20,M,00,0000*6E
$GPGGA,164617.00,4346.9234531,N,07927.9392240,W,4,06,1.6,190.134,M,-37.20,M,01,0000*6F
$GPGGA,164617.25,4346.9233275,N,07927.9392506,W,4,06,1.6,190.117,M,-37.20,M,00,0000*6D
$GPGGA,164617.50,4346.9232094,N,07927.9393010,W,4,06,1.6,190.115,M,-37.20,M,00,0000*62
$GPGGA,164617.75,4346.9230902,N,07927.9393583,W,4,06,1.6,190.105,M,-37.20,M,00,0000*6F
$GPGGA,164618.00,4346.9229694,N,07927.9393929,W,4,06,1.6,190.101,M,-37.20,M,01,0000*63
$GPGGA,164618.25,4346.9228532,N,07927.9394482,W,4,06,1.6,190.096,M,-37.20,M,00,0000*6F
$GPGGA,164618.50,4346.9227352,N,07927.9394869,W,4,06,1.6,190.105,M,-37.20,M,00,0000*60
$GPGGA,164618.75,4346.9226189,N,07927.9395254,W,4,06,1.6,190.100,M,-37.20,M,00,0000*62
$GPGGA,164619.00,4346.9224973,N,07927.9395688,W,4,06,1.6,190.101,M,-37.20,M,01,0000*6B
$GPGGA,164619.25,4346.9223826,N,07927.9396254,W,4,06,1.6,190.102,M,-37.20,M,00,0000*6E
$GPGGA,164619.50,4346.9222541,N,07927.9396887,W,4,06,1.6,190.076,M,-37.20,M,00,0000*67
$GPGGA,164619.75,4346.9221412,N,07927.9397662,W,4,07,1.6,190.067,M,-37.20,M,00,0000*61
$GPGGA,164620.00,4346.9220314,N,07927.9398543,W,4,07,1.6,190.052,M,-37.20,M,01,0000*61
$GPGGA,164620.25,4346.9219252,N,07927.9399295,W,4,07,1.6,190.059,M,-37.20,M,00,0000*68
$GPGGA,164620.50,4346.9218147,N,07927.9400283,W,4,07,1.6,190.043,M,-37.20,M,00,0000*67
$GPGGA,164620.75,4346.9217224,N,07927.9401239,W,4,07,1.4,190.045,M,-37.20,M,00,0000*6D
$GPGGA,164621.00,4346.9216406,N,07927.9402211,W,4,07,1.4,190.036,M,-37.20,M,01,0000*65
$GPGGA,164621.25,4346.9215746,N,07927.9403067,W,4,07,1.4,190.040,M,-37.20,M,00,0000*64
$GPGGA,164621.50,4346.9215121,N,07927.9403974,W,4,07,1.4,190.032,M,-37.20,M,00,0000*6F
$GPGGA,164621.75,4346.9214552,N,07927.9404894,W,4,07,1.4,190.034,M,-37.20,M,00,0000*67
$GPGGA,164622.00,4346.9213956,N,07927.9405869,W,4,07,1.4,190.014,M,-37.20,M,01,0000*69
$GPGGA,164622.25,4346.9213393,N,07927.9406946,W,4,07,1.4,190.028,M,-37.20,M,00,0000*6C
$GPGGA,164622.50,4346.9212831,N,07927.9408038,W,4,07,1.4,190.017,M,-37.20,M,00,0000*6E
$GPGGA,164622.75,4346.9212308,N,07927.9409250,W,4,07,1.4,190.005,M,-37.20,M,00,0000*66
$GPGGA,164623.00,4346.9211731,N,07927.9410723,W,4,07,1.4,190.022,M,-37.20,M,01,0000*65
$GPGGA,164623.25,4346.9211192,N,07927.9412131,W,4,06,1.4,190.019,M,-37.20,M,00,0000*62
$GPGGA,164623.50,4346.9210647,N,07927.9413574,W,4,06,1.4,190.004,M,-37.20,M,00,0000*66
$GPGGA,164623.75,4346.9210203,N,07927.9415066,W,4,06,1.6,190.011,M,-37.20,M,00,0000*63
$GPGGA,164624.00,4346.9209702,N,07927.9416546,W,4,06,1.6,190.003,M,-37.20,M,01,0000*6C
$GPGGA,164624.25,4346.9209325,N,07927.9418140,W,4,06,1.6,190.007,M,-37.20,M,00,0000*63
$GPGGA,164624.50,4346.9209010,N,07927.9419816,W,4,06,1.6,190.015,M,-37.20,M,00,0000*6C
$GPGGA,164624.75,4346.9208700,N,07927.9421462,W,4,06,1.6,189.987,M,-37.20,M,00,0000*62
$GPGGA,164625.00,4346.9208420,N,07927.9423095,W,4,06,1.6,189.981,M,-37.20,M,01,0000*69
$GPGGA,164625.25,4346.9208237,N,07927.9424771,W,4,06,1.6,189.982,M,-37.20,M,00,0000*66
$GPGGA,164625.50,4346.9208117,N,07927.9426382,W,4,06,1.6,189.964,M,-37.20,M,00,0000*67
$GPGGA,164625.75,4346.9208124,N,07927.9428001,W,4,06,1.6,189.940,M,-37.20,M,00,0000*60
$GPGGA,164626.00,4346.9208203,N,07927.9429686,W,4,06,1.6,189.910,M,-37.20,M,01,0000*6B
$GPGGA,164626.25,4346.9208284,N,07927.9431388,W,4,06,1.6,189.894,M,-37.20,M,00,0000*6D
$GPGGA,164626.50,4346.9208479,N,07927.9433051,W,4,06,1.6,189.859,M,-37.20,M,00,0000*6F
$GPGGA,164626.75,4346.9208668,N,07927.9434772,W,4,06,1.6,189.890,M,-37.20,M,00,0000*6E
$GPGGA,164627.00,4346.9208909,N,07927.9436500,W,4,07,1.6,189.882,M,-37.20,M,01,0000*63
$GPGGA,164627.25,4346.9209106,N,07927.9438173,W,4,07,1.4,189.874,M,-37.20,M,00,0000*66
$GPGGA,164627.50,4346.9209374,N,07927.9439890,W,4,07,1.4,189.863,M,-37.20,M,00,0000*60
$GPGGA,164627.75,4346.9209639,N,07927.9441587,W,4,07,1.4,189.852,M,-37.20,M,00,0000*6D
$GPGGA,164628.00,4346.9209885,N,07927.9443221,W,4,07,1.4,189.850,M,-37.20,M,01,0000*63
$GPGGA,164628.25,4346.9210184,N,07927.9444821,W,4,07,1.4,189.829,M,-37.20,M,00,0000*66
$GPGGA,164628.50,4346.9210460,N,07927.9446417,W,4,07,1.4,189.836,M,-37.20,M,00,0000*6E
$GPGGA,164628.75,4346.9210713,N,07927.9447975,W,4,07,1.4,189.840,M,-37.20,M,00,0000*67
$GPGGA,164629.00,4346.9211004,N,07927.9449568,W,4,07,1.4,189.835,M,-37.20,M,01,0000*69
$GPGGA,164629.25,4346.9211306,N,07927.9451210,W,4,07,1.4,189.832,M,-37.20,M,00,0000*68
$GPGGA,164629.50,4346.9211612,N,07927.9452790,W,4,07,1.4,189.835,M,-37.20,M,00,0000*63
$GPGGA,164629.75,4346.9211932,N,07927.9454445,W,4,07,1.4,189.844,M,-37.20,M,00,0000*62
$GPGGA,164630.00,4346.9212252,N,07927.9456096,W,4,07,1.4,189.843,M,-37.20,M,01,0000*68
$GPGGA,164630.25,4346.9212590,N,07927.9457794,W,4,07,1.4,189.851,M,-37.20,M,00,0000*60
$GPGGA,164630.50,4346.9212969,N,07927.9459517,W,4,07,1.4,189.858,M,-37.20,M,00,0000*66
$GPGGA,164630.75,4346.9213388,N,07927.9461196,W,4,07,1.4,189.854,M,-37.20,M,00,0000*6F
$GPGGA,164631.00,4346.9213787,N,07927.9462770,W,4,07,1.4,189.859,M,-37.20,M,01,0000*66
$GPGGA,164631.25,4346.9214183,N,07927.9464445,W,4,07,1.4,189.800,M,-37.20,M,00,0000*6A
$GPGGA,164631.50,4346.9214633,N,07927.9466094,W,4,07,1.4,189.785,M,-37.20,M,00,0000*6C
$GPGGA,164631.75,4346.9215170,N,07927.9467866,W,4,07,1.4,189.743,M,-37.20,M,00,0000*64
$GPGGA,164632.00,4346.9215695,N,07927.9469535,W,4,07,1.4,189.708,M,-37.20,M,01,0000*62
$GPGGA,164632.25,4346.9216238,N,07927.9471157,W,4,07,1.4,189.740,M,-37.20,M,00,0000*61
$GPGGA,164632.50,4346.9216839,N,07927.9472529,W,4,07,1.4,189.730,M,-37.20,M,00,0000*61
$GPGGA,164632.75,4346.9217467,N,07927.9474019,W,4,07,1.4,189.747,M,-37.20,M,00,0000*60
$GPGGA,164633.00,4346.9218180,N,07927.9475381,W,4,07,1.4,189.735,M,-37.20,M,01,0000*67
$GPGGA,164633.25,4346.9218908,N,07927.9476625,W,4,07,1.4,189.731,M,-37.20,M,00,0000*65
$GPGGA,164633.50,4346.9219705,N,07927.9477843,W,4,07,1.4,189.729,M,-37.20,M,00,0000*63
$GPGGA,164633.75,4346.9220521,N,07927.9479038,W,4,07,1.4,189.740,M,-37.20,M,00,0000*6F
$GPGGA,164634.00,4346.9221445,N,07927.9480166,W,4,07,1.4,189.751,M,-37.20,M,01,0000*65
$GPGGA,164634.25,4346.9222461,N,07927.9481247,W,4,07,1.4,189.760,M,-37.20,M,00,0000*65
$GPGGA,164634.50,4346.9223442,N,07927.9482307,W,4,07,1.4,189.763,M,-37.20,M,00,0000*62
$GPGGA,164634.75,4346.9224488,N,07927.9483138,W,4,07,1.4,189.749,M,-37.20,M,00,0000*63
$GPGGA,164635.00,4346.9225538,N,07927.9484030,W,4,07,1.4,189.767,M,-37.20,M,01,0000*68
$GPGGA,164635.25,4346.9226636,N,07927.9484781,W,4,07,1.4,189.771,M,-37.20,M,00,0000*6A
$GPGGA,164635.50,4346.9227760,N,07927.9485510,W,4,07,1.4,189.763,M,-37.20,M,00,0000*63
$GPGGA,164635.75,4346.9228815,N,07927.9486338,W,4,07,1.4,189.779,M,-37.20,M,00,0000*62
$GPGGA,164636.00,4346.9229984,N,07927.9487110,W,4,07,1.4,189.788,M,-37.20,M,01,0000*6D
$GPGGA,164636.25,4346.9231121,N,07927.9487819,W,4,07,1.4,189.788,M,-37.20,M,00,0000*65
$GPGGA,164636.50,4346.9232195,N,07927.9488526,W,4,07,1.4,189.795,M,-37.20,M,00,0000*69
$GPGGA,164636.75,4346.9233316,N,07927.9489189,W,4,07,1.4,189.797,M,-37.20,M,00,0000*64
$GPGGA,164637.00,4346.9234383,N,07927.9489899,W,4,07,1.4,189.801,M,-37.20,M,01,0000*65
$GPGGA,164637.25,4346.9235554,N,07927.9490548,W,4,07,1.4,189.791,M,-37.20,M,00,0000*61
$GPGGA,164637.50,4346.9236663,N,07927.9491221,W,4,07,1.4,189.796,M,-37.20,M,00,0000*69
$GPGGA,164637.75,4346.9237725,N,07927.9491806,W,4,07,1.4,189.813,M,-37.20,M,00,0000*61
$GPGGA,164638.00,4346.9238811,N,07927.9492501,W,4,07,1.4,189.838,M,-37.20,M,01,0000*6A
$GPGGA,164638.25,4346.9239924,N,07927.9493169,W,4,07,1.4,189.846,M,-37.20,M,00,0000*68
$GPGGA,164638.50,4346.9240979,N,07927.9493842,W,4,07,1.4,189.866,M,-37.20,M,00,0000*6E
$GPGGA,164638.75,4346.9242094,N,07927.9494588,W,4,07,1.4,189.867,M,-37.20,M,00,0000*6C
$GPGGA,164639.00,4346.9243196,N,07927.9495244,W,4,07,1.4,189.878,M,-37.20,M,01,0000*64
$GPGGA,164639.25,4346.9244252,N,07927.9496002,W,4,07,1.4,189.915,M,-37.20,M,00,0000*67
$GPGGA,164639.50,4346.9245410,N,07927.9496675,W,4,07,1.4,189.914,M,-37.20,M,00,0000*63
$GPGGA,164639.75,4346.9246574,N,07927.9497350,W,4,07,1.4,189.917,M,-37.20,M,00,0000*64
$GPGGA,164640.00,4346.9247672,N,07927.9498003,W,4,07,1.4,189.945,M,-37.20,M,01,0000*60
$GPGGA,164640.25,4346.9248837,N,07927.9498669,W,4,07,1.4,189.940,M,-37.20,M,00,0000*69
$GPGGA,164640.50,4346.9249952,N,07927.9499319,W,4,07,1.4,189.946,M,-37.20,M,00,0000*6D
$GPGGA,164640.75,4346.9251130,N,07927.9499970,W,4,07,1.4,189.945,M,-37.20,M,00,0000*69
$GPGGA,164641.00,4346.9252265,N,07927.9500657,W,4,07,1.4,189.944,M,-37.20,M,01,0000*61
$GPGGA,164641.25,4346.9253335,N,07927.9501362,W,4,07,1.4,189.986,M,-37.20,M,00,0000*6E
$GPGGA,164641.50,4346.9254485,N,07927.9502086,W,4,07,1.4,189.998,M,-37.20,M,00,0000*62
$GPGGA,164641.75,4346.9255656,N,07927.9502744,W,4,07,1.1,190.006,M,-37.20,M,00,0000*62
$GPGGA,164642.00,4346.9256836,N,07927.9503332,W,4,07,1.1,189.996,M,-37.20,M,01,0000*65
$GPGGA,164642.25,4346.9258050,N,07927.9503911,W,4,07,1.1,190.000,M,-37.20,M,00,0000*60
$GPGGA,164642.50,4346.9259273,N,07927.9504544,W,4,07,1.1,189.978,M,-37.20,M,00,0000*65
$GPGGA,164642.75,4346.9260503,N,07927.9505143,W,4,07,1.1,189.971,M,-37.20,M,00,0000*63
$GPGGA,164643.00,4346.9261712,N,07927.9505646,W,4,07,1.1,189.958,M,-37.20,M,01,0000*6B
$GPGGA,164643.25,4346.9262832,N,07927.9506186,W,4,07,1.1,189.964,M,-37.20,M,00,0000*64
$GPGGA,164643.50,4346.9263929,N,07927.9506717,W,4,07,1.1,189.964,M,-37.20,M,00,0000*62
$GPGGA,164643.75,4346.9265056,N,07927.9507230,W,4,07,1.4,189.972,M,-37.20,M,00,0000*61
$GPGGA,164644.00,4346.9266034,N,07927.9507818,W,4,07,1.4,189.992,M,-37.20,M,01,0000*6C
$GPGGA,164644.25,4346.9267061,N,07927.9508571,W,4,07,1.4,189.994,M,-37.20,M,00,0000*60
$GPGGA,164644.50,4346.9268104,N,07927.9509326,W,4,07,1.4,189.994,M,-37.20,M,00,0000*6A
$GPGGA,164644.75,4346.9269243,N,07927.9510169,W,4,07,1.4,190.000,M,-37.20,M,00,0000*61
$GPGGA,164645.00,4346.9270332,N,07927.9511048,W,4,07,1.4,189.998,M,-37.20,M,01,0000*6F
$GPGGA,164645.25,4346.9271392,N,07927.9512018,W,4,07,1.4,189.988,M,-37.20,M,00,0000*65
$GPGGA,164645.50,4346.9272512,N,07927.9512904,W,4,07,1.4,189.968,M,-37.20,M,00,0000*60
$GPGGA,164645.75,4346.9273546,N,07927.9513878,W,4,07,1.4,189.970,M,-37.20,M,00,0000*65
$GPGGA,164646.00,4346.9274622,N,07927.9514905,W,4,07,1.4,189.949,M,-37.20,M,01,0000*65
$GPGGA,164646.25,4346.9275655,N,07927.9516026,W,4,07,1.4,189.943,M,-37.20,M,00,0000*62
$GPGGA,164646.50,4346.9276648,N,07927.9517212,W,4,07,1.4,189.914,M,-37.20,M,00,0000*69
$GPGGA,164646.75,4346.9277523,N,07927.9518364,W,4,07,1.4,189.919,M,-37.20,M,00,0000*63
$GPGGA,164647.00,4346.9278342,N,07927.9519655,W,4,07,1.4,189.902,M,-37.20,M,01,0000*63
$GPGGA,164647.25,4346.9279156,N,07927.9521003,W,4,07,1.4,189.891,M,-37.20,M,00,0000*66
$GPGGA,164647.50,4346.9279799,N,07927.9522267,W,4,07,1.4,189.906,M,-37.20,M,00,0000*6D
$GPGGA,164647.75,4346.9280414,N,07927.9523603,W,4,07,1.4,189.890,M,-37.20,M,00,0000*63
$GPGGA,164648.00,4346.9281050,N,07927.9524947,W,4,07,1.4,189.897,M,-37.20,M,01,0000*65
$GPGGA,164648.25,4346.9281599,N,07927.9526520,W,4,07,1.4,189.910,M,-37.20,M,00,0000*62
$GPGGA,164648.50,4346.9282137,N,07927.9528066,W,4,07,1.4,189.895,M,-37.20,M,00,0000*66
$GPGGA,164648.75,4346.9282570,N,07927.9529610,W,4,07,1.4,189.873,M,-37.20,M,00,0000*68
$GPGGA,164649.00,4346.9283091,N,07927.9531003,W,4,07,1.4,189.881,M,-37.20,M,01,0000*61
$GPGGA,164649.25,4346.9283768,N,07927.9532393,W,4,07,1.4,189.882,M,-37.20,M,00,0000*6C
$GPGGA,164649.50,4346.9284380,N,07927.9533814,W,4,07,1.4,189.868,M,-37.20,M,00,0000*6A
$GPGGA,164649.75,4346.9285024,N,07927.9535425,W,4,07,1.4,189.850,M,-37.20,M,00,0000*62
$GPGGA,164650.00,4346.9285648,N,07927.9537050,W,4,07,1.4,189.844,M,-37.20,M,01,0000*64
$GPGGA,164650.25,4346.9286116,N,07927.9538543,W,4,07,1.4,189.824,M,-37.20,M,00,0000*63
$GPGGA,164650.50,4346.9286611,N,07927.9540117,W,4,07,1.4,189.816,M,-37.20,M,00,0000*6A
$GPGGA,164650.75,4346.9287114,N,07927.9541674,W,4,07,1.4,189.805,M,-37.20,M,00,0000*6F
$GPGGA,164651.00,4346.9287532,N,07927.9543253,W,4,07,1.4,189.810,M,-37.20,M,01,0000*6A
$GPGGA,164651.25,4346.9287940,N,07927.9544794,W,4,07,1.4,189.803,M,-37.20,M,00,0000*6E
$GPGGA,164651.50,4346.9288328,N,07927.9546376,W,4,07,1.4,189.792,M,-37.20,M,00,0000*6A
$GPGGA,164651.75,4346.9288657,N,07927.9547991,W,4,07,1.4,189.785,M,-37.20,M,00,0000*64
$GPGGA,164652.00,4346.9289011,N,07927.9549658,W,4,07,1.4,189.761,M,-37.20,M,01,0000*6F
$GPGGA,164652.25,4346.9289289,N,07927.9551241,W,4,07,1.4,189.778,M,-37.20,M,00,0000*67
$GPGGA,164652.50,4346.9289552,N,07927.9552886,W,4,07,1.4,189.760,M,-37.20,M,00,0000*6F
$GPGGA,164652.75,4346.9289822,N,07927.9554533,W,4,07,1.4,189.773,M,-37.20,M,00,0000*65
$GPGGA,164653.00,4346.9290085,N,07927.9556152,W,4,07,1.4,189.754,M,-37.20,M,01,0000*6E
$GPGGA,164653.25,4346.9290268,N,07927.9557869,W,4,07,1.4,189.724,M,-37.20,M,00,0000*6E
$GPGGA,164653.50,4346.9290458,N,07927.9559506,W,4,07,1.4,189.702,M,-37.20,M,00,0000*67
$GPGGA,164653.75,4346.9290708,N,07927.9561281,W,4,07,1.4,189.689,M,-37.20,M,00,0000*67
$GPGGA,164654.00,4346.9290862,N,07927.9562993,W,4,07,1.4,189.676,M,-37.20,M,01,0000*6B
$GPGGA,164654.25,4346.9291016,N,07927.9564652,W,4,07,1.4,189.669,M,-37.20,M,00,0000*6D
$GPGGA,164654.50,4346.9291202,N,07927.9566292,W,4,07,1.4,189.661,M,-37.20,M,00,0000*6A
$GPGGA,164654.75,4346.9291301,N,07927.9567864,W,4,07,1.4,189.672,M,-37.20,M,00,0000*6F
$GPGGA,164655.00,4346.9291477,N,07927.9569374,W,4,07,1.4,189.673,M,-37.20,M,01,0000*6E
$GPGGA,164655.25,4346.9291635,N,07927.9570992,W,4,08,1.1,189.663,M,-37.20,M,00,0000*6D
$GPGGA,164655.50,4346.9291794,N,07927.9572668,W,4,08,1.1,189.673,M,-37.20,M,00,0000*6C
$GPGGA,164655.75,4346.9291932,N,07927.9574416,W,4,08,1.1,189.645,M,-37.20,M,00,0000*61
$GPGGA,164656.00,4346.9292123,N,07927.9576090,W,4,07,1.1,189.642,M,-37.20,M,01,0000*6A
$GPGGA,164656.25,4346.9292180,N,07927.9577817,W,4,07,1.4,189.639,M,-37.20,M,00,0000*6A
$GPGGA,164656.50,4346.9292345,N,07927.9579521,W,4,07,1.4,189.633,M,-37.20,M,00,0000*6F
$GPGGA,164656.75,4346.9292467,N,07927.9581163,W,4,07,1.4,189.631,M,-37.20,M,00,0000*68
$GPGGA,164657.00,4346.9292607,N,07927.9582842,W,4,07,1.4,189.626,M,-37.20,M,01,0000*61
$GPGGA,164657.25,4346.9292675,N,07927.9584504,W,4,07,1.4,189.598,M,-37.20,M,00,0000*6D
$GPGGA,164657.50,4346.9292788,N,07927.9586187,W,4,07,1.4,189.582,M,-37.20,M,00,0000*6A
$GPGGA,164657.75,4346.9292880,N,07927.9587924,W,4,07,1.4,189.562,M,-37.20,M,00,0000*64
$GPGGA,164658.00,4346.9292997,N,07927.9589588,W,4,07,1.4,189.564,M,-37.20,M,01,0000*6D
$GPGGA,164658.25,4346.9293101,N,07927.9591316,W,4,07,1.4,189.575,M,-37.20,M,00,0000*65
$GPGGA,164658.50,4346.9293173,N,07927.9592988,W,4,07,1.4,189.554,M,-37.20,M,00,0000*6F
$GPGGA,164658.75,4346.9293283,N,07927.9594648,W,4,07,1.4,189.558,M,-37.20,M,00,0000*6D
$GPGGA,164659.00,4346.9293339,N,07927.9596307,W,4,07,1.4,189.555,M,-37.20,M,01,0000*6E
$GPGGA,164659.25,4346.9293428,N,07927.9598002,W,4,07,1.4,189.538,M,-37.20,M,00,0000*6C
$GPGGA,164659.50,4346.9293458,N,07927.9599644,W,4,07,1.4,189.535,M,-37.20,M,00,0000*61
$GPGGA,164659.75,4346.9293623,N,07927.9601400,W,4,07,1.4,189.522,M,-37.20,M,00,0000*6E
$GPGGA,164700.00,4346.9293591,N,07927.9603069,W,4,07,1.4,189.541,M,-37.20,M,01,0000*66
$GPGGA,164700.25,4346.9293685,N,07927.9604802,W,4,07,1.4,189.541,M,-37.20,M,00,0000*64
$GPGGA,164700.50,4346.9293720,N,07927.9606477,W,4,07,1.4,189.545,M,-37.20,M,00,0000*60
$GPGGA,164700.75,4346.9293740,N,07927.9608122,W,4,07,1.4,189.546,M,-37.20,M,00,0000*69
$GPGGA,164701.00,4346.9293809,N,07927.9609807,W,4,07,1.4,189.535,M,-37.20,M,01,0000*62
$GPGGA,164701.25,4346.9293819,N,07927.9611454,W,4,07,1.4,189.519,M,-37.20,M,00,0000*68
$GPGGA,164701.50,4346.9293810,N,07927.9613129,W,4,07,1.4,189.520,M,-37.20,M,00,0000*64
$GPGGA,164701.75,4346.9293866,N,07927.9614901,W,4,07,1.4,189.505,M,-37.20,M,00,0000*60
$GPGGA,164702.00,4346.9293846,N,07927.9616508,W,4,07,1.4,189.500,M,-37.20,M,01,0000*60
$GPGGA,164702.25,4346.9293866,N,07927.9618252,W,4,07,1.4,189.482,M,-37.20,M,00,0000*69
$GPGGA,164702.50,4346.9293906,N,07927.9619936,W,4,07,1.4,189.479,M,-37.20,M,00,0000*60
$GPGGA,164702.75,4346.9293910,N,07927.9621585,W,4,07,1.4,189.481,M,-37.20,M,00,0000*68
$GPGGA,164703.00,4346.9293937,N,07927.9623248,W,4,07,1.4,189.478,M,-37.20,M,01,0000*6D
$GPGGA,164703.25,4346.9293943,N,07927.9624942,W,4,07,1.4,189.481,M,-37.20,M,00,0000*68
$GPGGA,164703.50,4346.9293904,N,07927.9626571,W,4,07,1.4,189.467,M,-37.20,M,00,0000*6F
$GPGGA,164703.75,4346.9293953,N,07927.9628284,W,4,07,1.4,189.460,M,-37.20,M,00,0000*6E
$GPGGA,164704.00,4346.9294055,N,07927.9629883,W,4,07,1.4,189.463,M,-37.20,M,01,0000*6D
$GPGGA,164704.25,4346.9294140,N,07927.9631659,W,4,07,1.4,189.503,M,-37.20,M,00,0000*69
$GPGGA,164704.50,4346.9294351,N,07927.9633364,W,4,07,1.4,189.502,M,-37.20,M,00,0000*61
$GPGGA,164704.75,4346.9294496,N,07927.9634965,W,4,07,1.4,189.490,M,-37.20,M,00,0000*6C
$GPGGA,164705.00,4346.9294687,N,07927.9636626,W,4,07,1.4,189.488,M,-37.20,M,01,0000*6F
$GPGGA,164705.25,4346.9294768,N,07927.9638260,W,4,07,1.4,189.494,M,-37.20,M,00,0000*6C
$GPGGA,164705.50,4346.9294980,N,07927.9639935,W,4,07,1.4,189.520,M,-37.20,M,00,0000*62
$GPGGA,164705.75,4346.9295105,N,07927.9641657,W,4,07,1.4,189.504,M,-37.20,M,00,0000*63
$GPGGA,164706.00,4346.9295265,N,07927.9643305,W,4,07,1.4,189.510,M,-37.20,M,01,0000*63
$GPGGA,164706.25,4346.9295502,N,07927.9644972,W,4,07,1.4,189.494,M,-37.20,M,00,0000*63
$GPGGA,164706.50,4346.9295670,N,07927.9646714,W,4,07,1.4,189.504,M,-37.20,M,00,0000*63
$GPGGA,164706.75,4346.9295799,N,07927.9648398,W,4,07,1.4,189.511,M,-37.20,M,00,0000*68
$GPGGA,164707.00,4346.9296002,N,07927.9650171,W,4,06,1.4,189.500,M,-37.20,M,01,0000*61
$GPGGA,164707.25,4346.9296133,N,07927.9651860,W,4,06,1.6,189.477,M,-37.20,M,00,0000*6F
$GPGGA,164707.50,4346.9296306,N,07927.9653486,W,4,06,1.6,189.511,M,-37.20,M,00,0000*6E
$GPGGA,164707.75,4346.9296506,N,07927.9655226,W,4,06,1.6,189.482,M,-37.20,M,00,0000*6E
$GPGGA,164708.00,4346.9296616,N,07927.9656795,W,4,06,1.6,189.475,M,-37.20,M,01,0000*66
$GPGGA,164708.25,4346.9296791,N,07927.9658421,W,4,06,1.6,189.486,M,-37.20,M,00,0000*60
$GPGGA,164708.50,4346.9296910,N,07927.9660130,W,4,06,1.6,189.489,M,-37.20,M,00,0000*64
$GPGGA,164708.75,4346.9297017,N,07927.9661749,W,4,06,1.6,189.516,M,-37.20,M,00,0000*62
$GPGGA,164709.00,4346.9297002,N,07927.9663464,W,4,06,1.6,189.494,M,-37.20,M,01,0000*61
$GPGGA,164709.25,4346.9297065,N,07927.9665116,W,4,05,1.6,189.572,M,-37.20,M,00,0000*6A
$GPGGA,164709.50,4346.9297043,N,07927.9666804,W,4,05,1.6,189.607,M,-37.20,M,00,0000*64
$GPGGA,164709.75,4346.9297073,N,07927.9668604,W,4,05,1.7,189.576,M,-37.20,M,00,0000*64
$GPGGA,164710.00,4346.9297065,N,07927.9670142,W,4,05,1.7,189.549,M,-37.20,M,01,0000*68
$GPGGA,164710.25,4346.9297080,N,07927.9672009,W,4,05,1.7,189.514,M,-37.20,M,00,0000*61
$GPGGA,164710.50,4346.9297073,N,07927.9673685,W,4,05,1.7,189.517,M,-37.20,M,00,0000*6F
$GPGGA,164710.75,4346.9297007,N,07927.9675284,W,4,05,1.7,189.543,M,-37.20,M,00,0000*69
$GPGGA,164711.00,4346.9296915,N,07927.9676899,W,4,05,1.7,189.517,M,-37.20,M,01,0000*64
$GPGGA,164711.25,4346.9296638,N,07927.9678569,W,4,06,1.6,189.505,M,-37.20,M,00,0000*6F
$GPGGA,164711.50,4346.9296498,N,07927.9680295,W,4,06,1.6,189.499,M,-37.20,M,00,0000*62
$GPGGA,164711.75,4346.9296324,N,07927.9682030,W,4,06,1.6,189.518,M,-37.20,M,00,0000*62
$GPGGA,164712.00,4346.9296109,N,07927.9683600,W,4,06,1.6,189.504,M,-37.20,M,01,0000*66
$GPGGA,164712.25,4346.9295992,N,07927.9685261,W,4,06,1.6,189.485,M,-37.20,M,01,0000*65
$GPGGA,164712.50,4346.9295805,N,07927.9686940,W,4,06,1.6,189.468,M,-37.20,M,01,0000*60
$GPGGA,164712.75,4346.9295592,N,07927.9688536,W,4,06,1.6,189.466,M,-37.20,M,01,0000*69
$GPGGA,164713.00,4346.9295348,N,07927.9690360,W,4,06,1.6,189.524,M,-37.20,M,02,0000*63
$GPGGA,164713.25,4346.9295186,N,07927.9692220,W,4,05,1.6,189.561,M,-37.20,M,00,0000*63
$GPGGA,164713.50,4346.9294882,N,07927.9693912,W,4,05,1.6,189.548,M,-37.20,M,00,0000*6D
$GPGGA,164713.75,4346.9294638,N,07927.9695419,W,4,05,2.7,189.547,M,-37.20,M,00,0000*68
$GPGGA,164714.00,4346.9294439,N,07927.9696623,W,4,05,2.7,189.539,M,-37.20,M,01,0000*6E
$GPGGA,164714.25,4346.9294358,N,07927.9698099,W,4,05,2.7,189.561,M,-37.20,M,00,0000*6C
$GPGGA,164714.50,4346.9294093,N,07927.9699186,W,4,05,2.7,189.525,M,-37.20,M,00,0000*64
$GPGGA,164714.75,4346.9293861,N,07927.9700340,W,4,05,2.7,189.524,M,-37.20,M,00,0000*69
$GPGGA,164715.00,4346.9293665,N,07927.9701510,W,4,05,2.7,189.538,M,-37.20,M,01,0000*6E
$GPGGA,164715.25,4346.9293540,N,07927.9702648,W,4,05,2.7,189.528,M,-37.20,M,00,0000*60
$GPGGA,164715.50,4346.9293306,N,07927.9703564,W,4,06,2.7,189.518,M,-37.20,M,00,0000*6A
$GPGGA,164715.75,4346.9293106,N,07927.9704646,W,4,06,1.9,189.534,M,-37.20,M,00,0000*68
$GPGGA,164716.00,4346.9292929,N,07927.9705648,W,4,06,1.9,189.526,M,-37.20,M,01,0000*60
$GPGGA,164716.25,4346.9292769,N,07927.9706546,W,4,06,1.9,189.520,M,-37.20,M,00,0000*64
$GPGGA,164716.50,4346.9292520,N,07927.9707306,W,4,05,1.9,189.501,M,-37.20,M,00,0000*6A
$GPGGA,164716.75,4346.9292368,N,07927.9708083,W,4,05,2.7,189.507,M,-37.20,M,00,0000*6D
$GPGGA,164717.00,4346.9292229,N,07927.9708831,W,4,05,2.7,189.506,M,-37.20,M,01,0000*6B
$GPGGA,164717.25,4346.9292120,N,07927.9709622,W,4,05,2.7,189.498,M,-37.20,M,00,0000*6C
$GPGGA,164717.50,4346.9292131,N,07927.9709572,W,4,06,2.7,189.495,M,-37.20,M,00,0000*66
$GPGGA,164717.75,4346.9292093,N,07927.9709673,W,4,06,1.9,189.493,M,-37.20,M,00,0000*61
$GPGGA,164718.00,4346.9292140,N,07927.9709655,W,4,06,1.9,189.495,M,-37.20,M,01,0000*60
$GPGGA,164718.25,4346.9292142,N,07927.9709643,W,4,06,1.9,189.504,M,-37.20,M,00,0000*6A
$GPGGA,164718.50,4346.9292096,N,07927.9709622,W,4,06,1.9,189.498,M,-37.20,M,00,0000*63
$GPGGA,164718.75,4346.9292113,N,07927.9709639,W,4,06,1.9,189.494,M,-37.20,M,00,0000*6E
$GPGGA,164719.00,4346.9292091,N,07927.9709626,W,4,06,1.9,189.492,M,-37.20,M,01,0000*6F
$GPGGA,164719.25,4346.9292053,N,07927.9709556,W,4,06,1.9,189.458,M,-37.20,M,00,0000*65
$GPGGA,164719.50,4346.9292063,N,07927.9709532,W,4,06,1.9,189.451,M,-37.20,M,00,0000*6F
$GPGGA,164719.75,4346.9292056,N,07927.9709526,W,4,06,1.9,189.453,M,-37.20,M,00,0000*69
$GPGGA,164720.00,4346.9292085,N,07927.9709527,W,4,06,1.9,189.443,M,-37.20,M,01,0000*6E
$GPGGA,164720.25,4346.9292043,N,07927.9709526,W,4,06,1.9,189.459,M,-37.20,M,00,0000*68
$GPGGA,164720.50,4346.9292056,N,07927.9709546,W,4,06,1.9,189.460,M,-37.20,M,00,0000*62
$GPGGA,164720.75,4346.9292060,N,07927.9709542,W,4,06,1.9,189.454,M,-37.20,M,00,0000*63
$GPGGA,164721.00,4346.9292040,N,07927.9709533,W,4,06,1.9,189.459,M,-37.20,M,01,0000*68
$GPGGA,164721.25,4346.9292041,N,07927.9709515,W,4,06,1.9,189.440,M,-37.20,M,00,0000*63
$GPGGA,164721.50,4346.9292034,N,07927.9709497,W,4,06,1.9,189.442,M,-37.20,M,00,0000*6A
$GPGGA,164721.75,4346.9292057,N,07927.9709531,W,4,06,1.9,189.447,M,-37.20,M,00,0000*60
$GPGGA,164722.00,4346.9292054,N,07927.9709544,W,4,06,1.9,189.452,M,-37.20,M,01,0000*65
$GPGGA,164722.25,4346.9292088,N,07927.9709541,W,4,06,1.9,189.448,M,-37.20,M,00,0000*6C
$GPGGA,164722.50,4346.9292081,N,07927.9709540,W,4,06,1.9,189.451,M,-37.20,M,00,0000*6E
$GPGGA,164722.75,4346.9292063,N,07927.9709530,W,4,06,1.9,189.449,M,-37.20,M,00,0000*6B
$GPGGA,164723.00,4346.9292034,N,07927.9709494,W,4,06,1.9,189.441,M,-37.20,M,01,0000*6C
$GPGGA,164723.25,4346.9292076,N,07927.9709548,W,4,06,1.9,189.456,M,-37.20,M,00,0000*6A
$GPGGA,164723.50,4346.9292114,N,07927.9709562,W,4,06,1.9,189.454,M,-37.20,M,00,0000*67
$GPGGA,164723.75,4346.9292107,N,07927.9709562,W,4,06,1.9,189.455,M,-37.20,M,00,0000*63
$GPGGA,164724.00,4346.9292108,N,07927.9709536,W,4,06,1.9,189.448,M,-37.20,M,01,0000*65
$GPGGA,164724.25,4346.9292059,N,07927.9709532,W,4,06,1.9,189.454,M,-37.20,M,00,0000*6F
$GPGGA,164724.50,4346.9292065,N,07927.9709515,W,4,06,1.9,189.448,M,-37.20,M,00,0000*6A
$GPGGA,164724.75,4346.9292071,N,07927.9709506,W,4,06,1.9,189.448,M,-37.20,M,00,0000*6A
$GPGGA,164725.00,4346.9292071,N,07927.9709527,W,4,06,1.9,189.441,M,-37.20,M,01,0000*62
$GPGGA,164725.25,4346.9292058,N,07927.9709509,W,4,06,1.9,189.452,M,-37.20,M,00,0000*61
$GPGGA,164725.50,4346.9292071,N,07927.9709523,W,4,06,1.9,189.455,M,-37.20,M,00,0000*67
$GPGGA,164725.75,4346.9292042,N,07927.9709511,W,4,06,1.9,189.448,M,-37.20,M,00,0000*6D
$GPGGA,164726.00,4346.9292072,N,07927.9709526,W,4,06,1.9,189.456,M,-37.20,M,01,0000*65
$GPGGA,164726.25,4346.9292059,N,07927.9709526,W,4,06,1.9,189.456,M,-37.20,M,00,0000*6A
$GPGGA,164726.50,4346.9292105,N,07927.9709549,W,4,06,1.9,189.455,M,-37.20,M,00,0000*6A
$GPGGA,164726.75,4346.9292082,N,07927.9709532,W,4,06,1.9,189.458,M,-37.20,M,00,0000*62
$GPGGA,164727.00,4346.9292059,N,07927.9709515,W,4,06,1.9,189.448,M,-37.20,M,01,0000*62
$GPGGA,164727.25,4346.9292114,N,07927.9709542,W,4,06,1.9,189.456,M,-37.20,M,00,0000*61
$GPGGA,164727.50,4346.9292098,N,07927.9709571,W,4,06,1.9,189.466,M,-37.20,M,00,0000*65
$GPGGA,164727.75,4346.9292101,N,07927.9709556,W,4,06,1.9,189.455,M,-37.20,M,00,0000*66
$GPGGA,164728.00,4346.9292073,N,07927.9709542,W,4,06,1.9,189.455,M,-37.20,M,01,0000*6B
$GPGGA,164728.25,4346.9292052,N,07927.9709532,W,4,06,1.9,189.450,M,-37.20,M,00,0000*6C
$GPGGA,164728.50,4346.9292054,N,07927.9709539,W,4,06,1.9,189.456,M,-37.20,M,00,0000*65
$GPGGA,164728.75,4346.9292057,N,07927.9709526,W,4,06,1.9,189.452,M,-37.20,M,00,0000*6B
$GPGGA,164729.00,4346.9292048,N,07927.9709522,W,4,06,1.9,189.450,M,-37.20,M,01,0000*61
$GPGGA,164729.25,4346.9292066,N,07927.9709541,W,4,06,1.9,189.457,M,-37.20,M,00,0000*69
$GPGGA,164729.50,4346.9292101,N,07927.9709552,W,4,06,1.9,189.449,M,-37.20,M,00,0000*66
$GPGGA,164729.75,4346.9292097,N,07927.9709554,W,4,06,1.9,189.457,M,-37.20,M,00,0000*66
$GPGGA,164730.00,4346.9292112,N,07927.9709559,W,4,06,1.9,189.460,M,-37.20,M,01,0000*68
$GPGGA,164730.25,4346.9292057,N,07927.9709545,W,4,06,1.9,189.458,M,-37.20,M,00,0000*68
$GPGGA,164730.50,4346.9292070,N,07927.9709569,W,4,06,1.9,189.458,M,-37.20,M,00,0000*61
$GPGGA,164730.75,4346.9292134,N,07927.9709583,W,4,06,1.9,189.456,M,-37.20,M,00,0000*6D
$GPGGA,164731.00,4346.9292111,N,07927.9709572,W,4,06,1.9,189.448,M,-37.20,M,01,0000*69
$GPGGA,164731.25,4346.9292071,N,07927.9709552,W,4,06,1.9,189.457,M,-37.20,M,00,0000*64
$GPGGA,164731.50,4346.9292094,N,07927.9709575,W,4,06,1.9,189.460,M,-37.20,M,00,0000*6C
$GPGGA,164731.75,4346.9292088,N,07927.9709570,W,4,06,1.9,189.457,M,-37.20,M,00,0000*67
$GPGGA,164732.00,4346.9292084,N,07927.9709548,W,4,06,1.9,189.457,M,-37.20,M,01,0000*60
$GPGGA,164732.25,4346.9292072,N,07927.9709547,W,4,06,1.9,189.458,M,-37.20,M,00,0000*6F
$GPGGA,164732.50,4346.9292077,N,07927.9709560,W,4,06,1.9,189.456,M,-37.20,M,00,0000*63
$GPGGA,164732.75,4346.9292088,N,07927.9709575,W,4,06,1.9,189.456,M,-37.20,M,00,0000*60
$GPGGA,164733.00,4346.9292109,N,07927.9709556,W,4,06,1.9,189.454,M,-37.20,M,01,0000*69
$GPGGA,164733.25,4346.9292031,N,07927.9709514,W,4,06,1.9,189.449,M,-37.20,M,00,0000*6F
$GPGGA,164733.50,4346.9292057,N,07927.9709521,W,4,06,1.9,189.451,M,-37.20,M,00,0000*62
$GPGGA,164733.75,4346.9292040,N,07927.9709509,W,4,06,1.9,189.446,M,-37.20,M,00,0000*6F
$GPGGA,164734.00,4346.9292077,N,07927.9709541,W,4,06,1.9,189.448,M,-37.20,M,01,0000*6D
$GPGGA,164734.25,4346.9292034,N,07927.9709478,W,4,06,1.9,189.449,M,-37.20,M,00,0000*66
$GPGGA,164734.50,4346.9292044,N,07927.9709517,W,4,06,1.9,189.456,M,-37.20,M,00,0000*65
$GPGGA,164734.75,4346.9292087,N,07927.9709537,W,4,06,1.9,189.449,M,-37.20,M,00,0000*61
$GPGGA,164735.00,4346.9292098,N,07927.9709542,W,4,06,1.9,189.444,M,-37.20,M,01,0000*62
$GPGGA,164735.25,4346.9292076,N,07927.9709540,W,4,06,1.9,189.451,M,-37.20,M,00,0000*62
$GPGGA,164735.50,4346.9292069,N,07927.9709547,W,4,06,1.9,189.453,M,-37.20,M,00,0000*6B
$GPGGA,164735.75,4346.9292072,N,07927.9709519,W,4,06,1.9,189.447,M,-37.20,M,00,0000*68
$GPGGA,164736.00,4346.9292092,N,07927.9709534,W,4,06,1.9,189.449,M,-37.20,M,01,0000*67
$GPGGA,164736.25,4346.9292042,N,07927.9709524,W,4,06,1.9,189.447,M,-37.20,M,00,0000*63
$GPGGA,164736.50,4346.9292084,N,07927.9709553,W,4,06,1.9,189.448,M,-37.20,M,00,0000*64
$GPGGA,164736.75,4346.9292043,N,07927.9709521,W,4,06,1.9,189.454,M,-37.20,M,00,0000*60
$GPGGA,164737.00,4346.9292079,N,07927.9709552,W,4,06,1.9,189.449,M,-37.20,M,01,0000*63
$GPGGA,164737.25,4346.9292063,N,07927.9709538,W,4,06,1.9,189.452,M,-37.20,M,00,0000*68
$GPGGA,164737.50,4346.9292070,N,07927.9709540,W,4,06,1.9,189.446,M,-37.20,M,00,0000*62
$GPGGA,164737.75,4346.9292099,N,07927.9709549,W,4,06,1.9,189.445,M,-37.20,M,00,0000*68
$GPGGA,164738.00,4346.9292066,N,07927.9709535,W,4,06,1.9,189.445,M,-37.20,M,01,0000*6F
$GPGGA,164738.25,4346.9292056,N,07927.9709530,W,4,06,1.9,189.443,M,-37.20,M,00,0000*69
$GPGGA,164738.50,4346.9292025,N,07927.9709524,W,4,06,1.9,189.444,M,-37.20,M,00,0000*6D
$GPGGA,164738.75,4346.9291996,N,07927.9709490,W,4,06,1.9,189.444,M,-37.20,M,00,0000*66
$GPGGA,164739.00,4346.9292035,N,07927.9709531,W,4,06,1.9,189.439,M,-37.20,M,01,0000*67
$GPGGA,164739.25,4346.9292058,N,07927.9709561,W,4,06,1.9,189.449,M,-37.20,M,00,0000*68
$GPGGA,164739.50,4346.9292098,N,07927.9709571,W,4,06,1.9,189.445,M,-37.20,M,00,0000*6B
$GPGGA,164739.75,4346.9292091,N,07927.9709572,W,4,06,1.9,189.448,M,-37.20,M,00,0000*6B
$GPGGA,164740.00,4346.9292078,N,07927.9709550,W,4,06,1.9,189.445,M,-37.20,M,01,0000*6C
$GPGGA,164740.25,4346.9292086,N,07927.9709539,W,4,06,1.9,189.439,M,-37.20,M,00,0000*6F
$GPGGA,164740.50,4346.9292101,N,07927.9709565,W,4,06,1.9,189.443,M,-37.20,M,00,0000*67
$GPGGA,164740.75,4346.9292122,N,07927.9709549,W,4,06,1.9,189.436,M,-37.20,M,00,0000*6D
$GPGGA,164741.00,4346.9292118,N,07927.9709565,W,4,06,1.9,189.441,M,-37.20,M,01,0000*68
$GPGGA,164741.25,4346.9292092,N,07927.9709550,W,4,06,1.9,189.453,M,-37.20,M,00,0000*68
$GPGGA,164741.50,4346.9292044,N,07927.9709514,W,4,06,1.9,189.452,M,-37.20,M,00,0000*60
$GPGGA,164741.75,4346.9292060,N,07927.9709535,W,4,06,1.9,189.453,M,-37.20,M,00,0000*63
