$GPGGA,195421.25,4346.9299026,N,07927.9665607,W,4,06,1.9,189.437,M,-37.20,M,00,0000*6F
$GPGGA,195421.50,4346.9299011,N,07927.9665588,W,4,06,1.9,189.443,M,-37.20,M,00,0000*6E
$GPGGA,195421.75,4346.9299012,N,07927.9665582,W,4,06,1.9,189.448,M,-37.20,M,00,0000*6B
$GPGGA,195422.00,4346.9298990,N,07927.9665590,W,4,06,1.9,189.451,M,-37.20,M,01,0000*62
$GPGGA,195422.25,4346.9299015,N,07927.9665603,W,4,06,1.9,189.440,M,-37.20,M,00,0000*68
$GPGGA,195422.50,4346.9299010,N,07927.9665639,W,4,06,1.9,189.446,M,-37.20,M,00,0000*60
$GPGGA,195422.75,4346.9299009,N,07927.9665631,W,4,06,1.9,189.445,M,-37.20,M,00,0000*64
$GPGGA,195423.00,4346.9299024,N,07927.9665647,W,4,06,1.9,189.442,M,-37.20,M,01,0000*6F
$GPGGA,195423.25,4346.9299021,N,07927.9665622,W,4,06,1.9,189.442,M,-37.20,M,00,0000*6F
$GPGGA,195423.50,4346.9299018,N,07927.9665622,W,4,06,1.9,189.447,M,-37.20,M,00,0000*62
$GPGGA,195423.75,4346.9299015,N,07927.9665629,W,4,06,1.9,189.451,M,-37.20,M,00,0000*64
$GPGGA,195424.00,4346.9299012,N,07927.9665617,W,4,06,1.9,189.446,M,-37.20,M,01,0000*6C
$GPGGA,195424.25,4346.9299006,N,07927.9665592,W,4,06,1.9,189.442,M,-37.20,M,00,0000*65
$GPGGA,195424.50,4346.9299025,N,07927.9665588,W,4,06,1.9,189.439,M,-37.20,M,00,0000*61
$GPGGA,195424.75,4346.9299010,N,07927.9665596,W,4,06,1.9,189.446,M,-37.20,M,00,0000*67
$GPGGA,195425.00,4346.9299038,N,07927.9665625,W,4,06,1.9,189.437,M,-37.20,M,01,0000*62
$GPGGA,195425.25,4346.9299012,N,07927.9665588,W,4,06,1.9,189.436,M,-37.20,M,00,0000*69
$GPGGA,195425.50,4346.9299006,N,07927.9665566,W,4,06,1.9,189.443,M,-37.20,M,00,0000*6C
$GPGGA,195425.75,4346.9299000,N,07927.9665594,W,4,06,1.9,189.442,M,-37.20,M,00,0000*61
$GPGGA,195426.00,4346.9299005,N,07927.9665599,W,4,06,1.9,189.437,M,-37.20,M,01,0000*6B
$GPGGA,195426.25,4346.9299002,N,07927.9665630,W,4,06,1.9,189.448,M,-37.20,M,00,0000*62
$GPGGA,195426.50,4346.9298991,N,07927.9665625,W,4,06,1.9,189.449,M,-37.20,M,00,0000*67
$GPGGA,195426.75,4346.9299003,N,07927.9665607,W,4,06,1.9,189.449,M,-37.20,M,00,0000*63
$GPGGA,195427.00,4346.9299004,N,07927.9665621,W,4,06,1.9,189.449,M,-37.20,M,01,0000*62
$GPGGA,195427.25,4346.9299024,N,07927.9665632,W,4,06,1.9,189.438,M,-37.20,M,00,0000*62
$GPGGA,195427.50,4346.9299003,N,07927.9665629,W,4,06,1.9,189.448,M,-37.20,M,00,0000*68
$GPGGA,195427.75,4346.9299018,N,07927.9665645,W,4,06,1.9,189.446,M,-37.20,M,00,0000*61
$GPGGA,195428.00,4346.9299035,N,07927.9665637,W,4,06,1.9,189.440,M,-37.20,M,01,0000*61
$GPGGA,195428.25,4346.9298996,N,07927.9665616,W,4,06,1.9,189.444,M,-37.20,M,00,0000*61
$GPGGA,195428.50,4346.9299014,N,07927.9665584,W,4,06,1.9,189.439,M,-37.20,M,00,0000*63
$GPGGA,195428.75,4346.9299009,N,07927.9665598,W,4,06,1.9,189.445,M,-37.20,M,00,0000*6E
$GPGGA,195429.00,4346.9299020,N,07927.9665612,W,4,06,1.9,189.442,M,-37.20,M,01,0000*61
$GPGGA,195429.25,4346.9299027,N,07927.9665623,W,4,06,1.9,189.446,M,-37.20,M,00,0000*66
$GPGGA,195429.50,4346.9299026,N,07927.9665597,W,4,06,1.9,189.440,M,-37.20,M,00,0000*6F
$GPGGA,195429.75,4346.9299022,N,07927.9665587,W,4,06,1.9,189.444,M,-37.20,M,00,0000*69
$GPGGA,195430.00,4346.9299043,N,07927.9665613,W,4,06,1.9,189.443,M,-37.20,M,01,0000*6C
$GPGGA,195430.25,4346.9298998,N,07927.9665600,W,4,06,1.9,189.443,M,-37.20,M,00,0000*66
$GPGGA,195430.50,4346.9298996,N,07927.9665597,W,4,06,1.9,189.444,M,-37.20,M,00,0000*60
$GPGGA,195430.75,4346.9299058,N,07927.9665611,W,4,06,1.9,189.421,M,-37.20,M,00,0000*63
$GPGGA,195431.00,4346.9299048,N,07927.9665615,W,4,06,1.9,189.423,M,-37.20,M,01,0000*66
$GPGGA,195431.25,4346.9299016,N,07927.9665614,W,4,06,1.9,189.448,M,-37.20,M,00,0000*67
$GPGGA,195431.50,4346.9299003,N,07927.9665619,W,4,06,1.9,189.453,M,-37.20,M,00,0000*66
$GPGGA,195431.75,4346.9299009,N,07927.9665618,W,4,06,1.9,189.448,M,-37.20,M,00,0000*60
$GPGGA,195432.00,4346.9299008,N,07927.9665606,W,4,06,1.9,189.450,M,-37.20,M,01,0000*67
$GPGGA,195432.25,4346.9299018,N,07927.9665583,W,4,06,1.9,189.437,M,-37.20,M,00,0000*6F
$GPGGA,195432.50,4346.9299007,N,07927.9665597,W,4,06,1.9,189.446,M,-37.20,M,00,0000*60
$GPGGA,195432.75,4346.9299005,N,07927.9665601,W,4,06,1.9,189.447,M,-37.20,M,00,0000*68
$GPGGA,195433.00,4346.9299004,N,07927.9665609,W,4,06,1.9,189.438,M,-37.20,M,01,0000*6B
$GPGGA,195433.25,4346.9299019,N,07927.9665589,W,4,06,1.9,189.444,M,-37.20,M,00,0000*61
$GPGGA,195433.50,4346.9299022,N,07927.9665579,W,4,06,1.9,189.437,M,-37.20,M,00,0000*60
$GPGGA,195433.75,4346.9299017,N,07927.9665596,W,4,06,1.9,189.439,M,-37.20,M,00,0000*6E
$GPGGA,195434.00,4346.9299014,N,07927.9665588,W,4,06,1.9,189.436,M,-37.20,M,01,0000*69
$GPGGA,195434.25,4346.9298982,N,07927.9665609,W,4,06,1.9,189.434,M,-37.20,M,00,0000*60
$GPGGA,195434.50,4346.9298991,N,07927.9665610,W,4,06,1.9,189.432,M,-37.20,M,00,0000*6E
$GPGGA,195434.75,4346.9299000,N,07927.9665596,W,4,06,1.9,189.429,M,-37.20,M,00,0000*6E
$GPGGA,195435.00,4346.9298977,N,07927.9665600,W,4,06,1.9,189.443,M,-37.20,M,01,0000*64
$GPGGA,195435.25,4346.9299022,N,07927.9665602,W,4,06,1.9,189.432,M,-37.20,M,00,0000*6E
$GPGGA,195435.50,4346.9298987,N,07927.9665569,W,4,06,1.9,189.438,M,-37.20,M,00,0000*6F
$GPGGA,195435.75,4346.9299006,N,07927.9665590,W,4,06,1.9,189.433,M,-37.20,M,00,0000*64
$GPGGA,195436.00,4346.9299014,N,07927.9665587,W,4,06,1.9,189.430,M,-37.20,M,01,0000*62
$GPGGA,195436.25,4346.9298991,N,07927.9665607,W,4,06,1.9,189.448,M,-37.20,M,00,0000*65
$GPGGA,195436.50,4346.9298970,N,07927.9665590,W,4,06,1.9,189.449,M,-37.20,M,00,0000*64
$GPGGA,195436.75,4346.9298969,N,07927.9665609,W,4,06,1.9,189.449,M,-37.20,M,00,0000*68
$GPGGA,195437.00,4346.9298964,N,07927.9665593,W,4,06,1.9,189.448,M,-37.20,M,01,0000*66
$GPGGA,195437.25,4346.9298988,N,07927.9665585,W,4,06,1.9,189.437,M,-37.20,M,00,0000*6D
$GPGGA,195437.50,4346.9298991,N,07927.9665592,W,4,06,1.9,189.440,M,-37.20,M,00,0000*61
$GPGGA,195437.75,4346.9299016,N,07927.9665580,W,4,06,1.9,189.440,M,-37.20,M,00,0000*62
$GPGGA,195438.00,4346.9299001,N,07927.9665580,W,4,06,1.9,189.437,M,-37.20,M,01,0000*68
$GPGGA,195438.25,4346.9299010,N,07927.9665564,W,4,06,1.9,189.442,M,-37.20,M,00,0000*66
$GPGGA,195438.50,4346.9298995,N,07927.9665569,W,4,06,1.9,189.443,M,-37.20,M,00,0000*6D
$GPGGA,195438.75,4346.9298988,N,07927.9665598,W,4,06,1.9,189.448,M,-37.20,M,00,0000*63
$GPGGA,195439.00,4346.9298998,N,07927.9665589,W,4,06,1.9,189.452,M,-37.20,M,01,0000*6B
$GPGGA,195439.25,4346.9298996,N,07927.9665589,W,4,06,1.9,189.442,M,-37.20,M,00,0000*62
$GPGGA,195439.50,4346.9299008,N,07927.9665586,W,4,06,1.9,189.435,M,-37.20,M,00,0000*60
$GPGGA,195439.75,4346.9299003,N,07927.9665574,W,4,06,1.9,189.437,M,-37.20,M,00,0000*63
$GPGGA,195440.00,4346.9299024,N,07927.9665583,W,4,06,1.9,189.439,M,-37.20,M,01,0000*6D
$GPGGA,195440.25,4346.9298990,N,07927.9665623,W,4,06,1.9,189.442,M,-37.20,M,00,0000*69
$GPGGA,195440.50,4346.9298989,N,07927.9665611,W,4,06,1.9,189.446,M,-37.20,M,00,0000*66
$GPGGA,195440.75,4346.9298999,N,07927.9665610,W,4,06,1.9,189.439,M,-37.20,M,00,0000*69
$GPGGA,195441.00,4346.9298994,N,07927.9665614,W,4,06,1.9,189.441,M,-37.20,M,01,0000*6D
$GPGGA,195441.25,4346.9299004,N,07927.9665579,W,4,06,1.9,189.448,M,-37.20,M,00,0000*6B
$GPGGA,195441.50,4346.9299014,N,07927.9665582,W,4,06,1.9,189.448,M,-37.20,M,00,0000*6C
$GPGGA,195441.75,4346.9299031,N,07927.9665594,W,4,06,1.9,189.437,M,-37.20,M,00,0000*63
$GPGGA,195442.00,4346.9299013,N,07927.9665581,W,4,06,1.9,189.444,M,-37.20,M,01,0000*63
$GPGGA,195442.25,4346.9299016,N,07927.9665581,W,4,06,1.9,189.446,M,-37.20,M,00,0000*62
$GPGGA,195442.50,4346.9299007,N,07927.9665611,W,4,06,1.9,189.450,M,-37.20,M,00,0000*6D
$GPGGA,195442.75,4346.9298997,N,07927.9665592,W,4,06,1.9,189.452,M,-37.20,M,00,0000*61
$GPGGA,195443.00,4346.9299002,N,07927.9665597,W,4,06,1.9,189.449,M,-37.20,M,01,0000*68
$GPGGA,195443.25,4346.9299008,N,07927.9665620,W,4,06,1.9,189.455,M,-37.20,M,00,0000*66
$GPGGA,195443.50,4346.9298989,N,07927.9665603,W,4,06,1.9,189.455,M,-37.20,M,00,0000*64
$GPGGA,195443.75,4346.9298993,N,07927.9665586,W,4,06,1.9,189.458,M,-37.20,M,00,0000*6B
$GPGGA,195444.00,4346.9298973,N,07927.9665585,W,4,06,1.9,189.466,M,-37.20,M,01,0000*6F
$GPGGA,195444.25,4346.9299024,N,07927.9665623,W,4,06,1.9,189.454,M,-37.20,M,00,0000*6D
$GPGGA,195444.50,4346.9298984,N,07927.9665600,W,4,06,1.9,189.459,M,-37.20,M,00,0000*61
$GPGGA,195444.75,4346.9298993,N,07927.9665606,W,4,06,1.9,189.456,M,-37.20,M,00,0000*69
$GPGGA,195445.00,4346.9298975,N,07927.9665619,W,4,06,1.9,189.463,M,-37.20,M,01,0000*6B
$GPGGA,195445.25,4346.9299014,N,07927.9665578,W,4,06,1.9,189.435,M,-37.20,M,00,0000*65
$GPGGA,195445.50,4346.9299013,N,07927.9665619,W,4,06,1.9,189.439,M,-37.20,M,00,0000*68
$GPGGA,195445.75,4346.9299020,N,07927.9665617,W,4,06,1.9,189.439,M,-37.20,M,00,0000*61
$GPGGA,195446.00,4346.9299022,N,07927.9665578,W,4,06,1.9,189.432,M,-37.20,M,01,0000*62
$GPGGA,195446.25,4346.9299011,N,07927.9665599,W,4,06,1.9,189.447,M,-37.20,M,00,0000*69
$GPGGA,195446.50,4346.9299016,N,07927.9665611,W,4,06,1.9,189.439,M,-37.20,M,00,0000*66
$GPGGA,195446.75,4346.9299012,N,07927.9665621,W,4,06,1.9,189.437,M,-37.20,M,00,0000*68
$GPGGA,195447.00,4346.9299018,N,07927.9665622,W,4,06,1.9,189.430,M,-37.20,M,01,0000*64
$GPGGA,195447.25,4346.9299016,N,07927.9665590,W,4,06,1.9,189.442,M,-37.20,M,00,0000*63
$GPGGA,195447.50,4346.9299017,N,07927.9665704,W,4,06,1.9,189.435,M,-37.20,M,00,0000*6F
$GPGGA,195447.75,4346.9298970,N,07927.9665892,W,4,06,1.9,189.436,M,-37.20,M,00,0000*62
$GPGGA,195448.00,4346.9298857,N,07927.9666175,W,4,06,1.9,189.447,M,-37.20,M,01,0000*6F
$GPGGA,195448.25,4346.9298795,N,07927.9666458,W,4,06,1.9,189.435,M,-37.20,M,00,0000*67
$GPGGA,195448.50,4346.9298662,N,07927.9666766,W,4,06,1.9,189.442,M,-37.20,M,00,0000*62
$GPGGA,195448.75,4346.9298474,N,07927.9667198,W,4,06,1.9,189.469,M,-37.20,M,00,0000*6F
$GPGGA,195449.00,4346.9298282,N,07927.9667864,W,4,06,1.9,189.465,M,-37.20,M,01,0000*64
$GPGGA,195449.25,4346.9298033,N,07927.9668638,W,4,06,1.9,189.465,M,-37.20,M,00,0000*62
$GPGGA,195449.50,4346.9297710,N,07927.9669520,W,4,06,1.9,189.485,M,-37.20,M,00,0000*6C
$GPGGA,195449.75,4346.9297441,N,07927.9670294,W,4,06,1.9,189.454,M,-37.20,M,00,0000*60
$GPGGA,195450.00,4346.9297129,N,07927.9671166,W,4,06,1.9,189.454,M,-37.20,M,01,0000*6F
$GPGGA,195450.25,4346.9296860,N,07927.9672014,W,4,06,1.9,189.470,M,-37.20,M,00,0000*6D
$GPGGA,195450.50,4346.9296569,N,07927.9672912,W,4,06,1.9,189.487,M,-37.20,M,00,0000*6C
$GPGGA,195450.75,4346.9296216,N,07927.9673834,W,4,06,1.9,189.484,M,-37.20,M,00,0000*63
$GPGGA,195451.00,4346.9295824,N,07927.9674832,W,4,06,1.9,189.488,M,-37.20,M,01,0000*64
$GPGGA,195451.25,4346.9295532,N,07927.9675818,W,4,06,1.9,189.456,M,-37.20,M,00,0000*62
$GPGGA,195451.50,4346.9295173,N,07927.9676722,W,4,06,1.9,189.451,M,-37.20,M,00,0000*63
$GPGGA,195451.75,4346.9294785,N,07927.9677717,W,4,06,1.9,189.478,M,-37.20,M,00,0000*66
$GPGGA,195452.00,4346.9294432,N,07927.9678713,W,4,06,1.9,189.471,M,-37.20,M,01,0000*6B
$GPGGA,195452.25,4346.9293988,N,07927.9679942,W,4,06,1.9,189.432,M,-37.20,M,00,0000*6A
$GPGGA,195452.50,4346.9293466,N,07927.9681294,W,4,06,1.9,189.449,M,-37.20,M,00,0000*6E
$GPGGA,195452.75,4346.9293016,N,07927.9682595,W,4,06,1.9,189.421,M,-37.20,M,00,0000*61
$GPGGA,195453.00,4346.9292519,N,07927.9683828,W,4,06,1.9,189.428,M,-37.20,M,01,0000*6B
$GPGGA,195453.25,4346.9292070,N,07927.9685249,W,4,06,1.9,189.459,M,-37.20,M,00,0000*6A
$GPGGA,195453.50,4346.9291604,N,07927.9686563,W,4,06,1.9,189.447,M,-37.20,M,00,0000*6D
$GPGGA,195453.75,4346.9291092,N,07927.9687960,W,4,06,1.9,189.440,M,-37.20,M,00,0000*6A
$GPGGA,195454.00,4346.9290606,N,07927.9689320,W,4,06,1.9,189.445,M,-37.20,M,01,0000*61
$GPGGA,195454.25,4346.9290128,N,07927.9690755,W,4,06,1.9,189.414,M,-37.20,M,00,0000*66
$GPGGA,195454.50,4346.9289592,N,07927.9692062,W,4,06,1.9,189.433,M,-37.20,M,00,0000*6D
$GPGGA,195454.75,4346.9289049,N,07927.9693575,W,4,06,1.9,189.452,M,-37.20,M,00,0000*6C
$GPGGA,195455.00,4346.9288525,N,07927.9694932,W,4,06,1.9,189.418,M,-37.20,M,01,0000*66
$GPGGA,195455.25,4346.9288145,N,07927.9696372,W,4,06,1.9,189.399,M,-37.20,M,00,0000*60
$GPGGA,195455.50,4346.9287698,N,07927.9697836,W,4,06,1.9,189.397,M,-37.20,M,00,0000*6E
$GPGGA,195455.75,4346.9287256,N,07927.9699293,W,4,06,1.9,189.391,M,-37.20,M,00,0000*62
$GPGGA,195456.00,4346.9286941,N,07927.9700760,W,4,05,1.9,189.376,M,-37.20,M,01,0000*6C
$GPGGA,195456.25,4346.9286527,N,07927.9702302,W,4,05,2.1,189.373,M,-37.20,M,00,0000*6A
$GPGGA,195456.50,4346.9286119,N,07927.9703751,W,4,05,2.1,189.354,M,-37.20,M,00,0000*67
$GPGGA,195456.75,4346.9285678,N,07927.9705243,W,4,05,2.1,189.345,M,-37.20,M,00,0000*63
$GPGGA,195457.00,4346.9285314,N,07927.9706736,W,4,05,2.1,189.327,M,-37.20,M,01,0000*6E
$GPGGA,195457.25,4346.9284923,N,07927.9708269,W,4,05,2.1,189.346,M,-37.20,M,00,0000*61
$GPGGA,195457.50,4346.9284520,N,07927.9709781,W,4,05,2.1,189.322,M,-37.20,M,00,0000*6C
$GPGGA,195457.75,4346.9284102,N,07927.9711323,W,4,05,2.1,189.342,M,-37.20,M,00,0000*6C
$GPGGA,195458.00,4346.9283694,N,07927.9712797,W,4,05,2.1,189.313,M,-37.20,M,01,0000*63
$GPGGA,195458.25,4346.9283328,N,07927.9714299,W,4,05,2.1,189.304,M,-37.20,M,00,0000*6C
$GPGGA,195458.50,4346.9282925,N,07927.9715953,W,4,05,2.1,189.299,M,-37.20,M,00,0000*61
$GPGGA,195458.75,4346.9282526,N,07927.9717477,W,4,05,2.1,189.307,M,-37.20,M,00,0000*66
$GPGGA,195459.00,4346.9282124,N,07927.9719034,W,4,04,2.1,189.329,M,-37.20,M,01,0000*62
$GPGGA,195459.25,4346.9281714,N,07927.9720558,W,4,04,2.2,189.307,M,-37.20,M,00,0000*68
$GPGGA,195459.50,4346.9281324,N,07927.9722076,W,4,04,2.2,189.307,M,-37.20,M,00,0000*66
$GPGGA,195459.75,4346.9280937,N,07927.9723644,W,4,04,2.2,189.287,M,-37.20,M,00,0000*67
$GPGGA,195500.00,4346.9280553,N,07927.9725137,W,4,04,2.2,189.277,M,-37.20,M,01,0000*6D
$GPGGA,195500.25,4346.9280152,N,07927.9726667,W,4,04,2.2,189.283,M,-37.20,M,00,0000*64
$GPGGA,195500.50,4346.9279798,N,07927.9728240,W,4,04,2.2,189.270,M,-37.20,M,00,0000*63
$GPGGA,195500.75,4346.9279430,N,07927.9729811,W,4,05,2.1,189.266,M,-37.20,M,00,0000*6F
$GPGGA,195501.00,4346.9279007,N,07927.9731351,W,4,05,2.1,189.300,M,-37.20,M,01,0000*6A
$GPGGA,195501.25,4346.9278716,N,07927.9733007,W,4,05,2.1,189.258,M,-37.20,M,00,0000*64
$GPGGA,195501.50,4346.9278417,N,07927.9734643,W,4,05,2.1,189.289,M,-37.20,M,00,0000*69
$GPGGA,195501.75,4346.9278155,N,07927.9736145,W,4,05,2.1,189.277,M,-37.20,M,00,0000*6F
$GPGGA,195502.00,4346.9277928,N,07927.9737715,W,4,05,2.1,189.255,M,-37.20,M,01,0000*60
$GPGGA,195502.25,4346.9277801,N,07927.9739155,W,4,05,2.1,189.229,M,-37.20,M,00,0000*6B
$GPGGA,195502.50,4346.9277524,N,07927.9740867,W,4,05,2.1,189.230,M,-37.20,M,00,0000*6D
$GPGGA,195502.75,4346.9277277,N,07927.9742452,W,4,05,2.1,189.268,M,-37.20,M,00,0000*6E
$GPGGA,195503.00,4346.9277072,N,07927.9744148,W,4,05,2.1,189.258,M,-37.20,M,01,0000*60
$GPGGA,195503.25,4346.9276910,N,07927.9745571,W,4,05,2.1,189.191,M,-37.20,M,00,0000*63
$GPGGA,195503.50,4346.9276686,N,07927.9747216,W,4,05,2.1,189.178,M,-37.20,M,00,0000*62
$GPGGA,195503.75,4346.9276447,N,07927.9748875,W,4,04,2.1,189.172,M,-37.20,M,00,0000*61
$GPGGA,195504.00,4346.9276272,N,07927.9750452,W,4,04,2.1,189.168,M,-37.20,M,01,0000*6E
$GPGGA,195504.25,4346.9276072,N,07927.9752096,W,4,04,2.2,189.142,M,-37.20,M,00,0000*6F
$GPGGA,195504.50,4346.9275851,N,07927.9753658,W,4,06,2.2,189.153,M,-37.20,M,00,0000*60
$GPGGA,195504.75,4346.9275671,N,07927.9755212,W,4,06,2.0,189.140,M,-37.20,M,00,0000*67
$GPGGA,195505.00,4346.9275482,N,07927.9756763,W,4,06,2.0,189.139,M,-37.20,M,01,0000*65
$GPGGA,195505.25,4346.9275245,N,07927.9758352,W,4,06,2.0,189.143,M,-37.20,M,00,0000*6B
$GPGGA,195505.50,4346.9275037,N,07927.9759883,W,4,06,2.0,189.136,M,-37.20,M,00,0000*6A
$GPGGA,195505.75,4346.9274855,N,07927.9761579,W,4,06,1.7,189.120,M,-37.20,M,00,0000*60
$GPGGA,195506.00,4346.9274639,N,07927.9763149,W,4,05,1.7,189.108,M,-37.20,M,01,0000*68
$GPGGA,195506.25,4346.9274387,N,07927.9764788,W,4,05,2.0,189.149,M,-37.20,M,00,0000*63
$GPGGA,195506.50,4346.9274145,N,07927.9766437,W,4,06,2.0,189.096,M,-37.20,M,00,0000*68
$GPGGA,195506.75,4346.9274006,N,07927.9768030,W,4,06,1.7,189.086,M,-37.20,M,00,0000*61
$GPGGA,195507.00,4346.9273819,N,07927.9769646,W,4,06,1.7,189.094,M,-37.20,M,01,0000*67
$GPGGA,195507.25,4346.9273590,N,07927.9771287,W,4,06,1.7,189.090,M,-37.20,M,00,0000*69
$GPGGA,195507.50,4346.9273353,N,07927.9772848,W,4,05,1.7,189.088,M,-37.20,M,00,0000*62
$GPGGA,195507.75,4346.9273192,N,07927.9774412,W,4,05,2.0,189.091,M,-37.20,M,00,0000*63
$GPGGA,195508.00,4346.9272882,N,07927.9775998,W,4,05,2.0,189.072,M,-37.20,M,01,0000*65
$GPGGA,195508.25,4346.9272653,N,07927.9777643,W,4,05,2.0,189.067,M,-37.20,M,00,0000*6E
$GPGGA,195508.50,4346.9272417,N,07927.9779262,W,4,05,2.0,189.057,M,-37.20,M,00,0000*64
$GPGGA,195508.75,4346.9272183,N,07927.9780851,W,4,05,2.0,189.045,M,-37.20,M,00,0000*64
$GPGGA,195509.00,4346.9271935,N,07927.9782515,W,4,06,2.0,189.040,M,-37.20,M,01,0000*69
$GPGGA,195509.25,4346.9271772,N,07927.9784079,W,4,06,1.8,189.059,M,-37.20,M,00,0000*68
$GPGGA,195509.50,4346.9271589,N,07927.9785637,W,4,06,1.8,189.049,M,-37.20,M,00,0000*60
$GPGGA,195509.75,4346.9271374,N,07927.9787168,W,4,06,1.6,189.065,M,-37.20,M,00,0000*6C
$GPGGA,195510.00,4346.9271080,N,07927.9788809,W,4,05,1.6,189.060,M,-37.20,M,01,0000*68
$GPGGA,195510.25,4346.9270834,N,07927.9790478,W,4,05,2.1,189.003,M,-37.20,M,00,0000*6A
$GPGGA,195510.50,4346.9270648,N,07927.9792050,W,4,05,2.1,189.018,M,-37.20,M,00,0000*6B
$GPGGA,195510.75,4346.9270427,N,07927.9793696,W,4,05,2.1,189.007,M,-37.20,M,00,0000*64
$GPGGA,195511.00,4346.9270255,N,07927.9795315,W,4,04,2.1,189.007,M,-37.20,M,01,0000*6C
$GPGGA,195511.25,4346.9270033,N,07927.9796961,W,4,04,2.2,188.991,M,-37.20,M,00,0000*66
$GPGGA,195511.50,4346.9269821,N,07927.9798513,W,4,05,2.2,188.972,M,-37.20,M,00,0000*6C
$GPGGA,195511.75,4346.9269589,N,07927.9800107,W,4,05,2.1,188.967,M,-37.20,M,00,0000*6C
$GPGGA,195512.00,4346.9269353,N,07927.9801726,W,4,06,2.1,188.976,M,-37.20,M,01,0000*6A
$GPGGA,195512.25,4346.9269129,N,07927.9803292,W,4,06,1.9,188.957,M,-37.20,M,00,0000*63
$GPGGA,195512.50,4346.9268905,N,07927.9804848,W,4,06,1.9,188.963,M,-37.20,M,00,0000*6B
$GPGGA,195512.75,4346.9268662,N,07927.9806461,W,4,05,1.9,188.937,M,-37.20,M,00,0000*65
$GPGGA,195513.00,4346.9268398,N,07927.9808038,W,4,05,1.9,188.934,M,-37.20,M,01,0000*62
$GPGGA,195513.25,4346.9268230,N,07927.9809747,W,4,04,2.1,188.924,M,-37.20,M,00,0000*62
$GPGGA,195513.50,4346.9267992,N,07927.9811301,W,4,04,2.1,188.930,M,-37.20,M,00,0000*66
$GPGGA,195513.75,4346.9267758,N,07927.9812838,W,4,04,2.2,188.937,M,-37.20,M,00,0000*6F
$GPGGA,195514.00,4346.9267521,N,07927.9814430,W,4,04,2.2,188.934,M,-37.20,M,01,0000*66
$GPGGA,195514.25,4346.9267285,N,07927.9815974,W,4,04,2.2,188.883,M,-37.20,M,00,0000*68
$GPGGA,195514.50,4346.9267066,N,07927.9817454,W,4,05,2.2,188.897,M,-37.20,M,00,0000*6C
$GPGGA,195514.75,4346.9266787,N,07927.9818945,W,4,05,2.2,188.909,M,-37.20,M,00,0000*66
$GPGGA,195515.00,4346.9266566,N,07927.9820405,W,4,05,2.2,188.898,M,-37.20,M,01,0000*62
$GPGGA,195515.25,4346.9266341,N,07927.9821861,W,4,05,2.2,188.895,M,-37.20,M,00,0000*65
$GPGGA,195515.50,4346.9266094,N,07927.9823393,W,4,05,2.2,188.917,M,-37.20,M,00,0000*63
$GPGGA,195515.75,4346.9265875,N,07927.9824889,W,4,05,1.8,188.888,M,-37.20,M,00,0000*69
$GPGGA,195516.00,4346.9265587,N,07927.9826362,W,4,05,1.8,188.868,M,-37.20,M,01,0000*6B
$GPGGA,195516.25,4346.9265368,N,07927.9827932,W,4,05,1.8,188.876,M,-37.20,M,00,0000*6B
$GPGGA,195516.50,4346.9265130,N,07927.9829380,W,4,05,1.8,188.857,M,-37.20,M,00,0000*68
$GPGGA,195516.75,4346.9264893,N,07927.9830852,W,4,05,1.8,188.875,M,-37.20,M,00,0000*62
$GPGGA,195517.00,4346.9264593,N,07927.9832346,W,4,05,1.8,188.852,M,-37.20,M,01,0000*64
$GPGGA,195517.25,4346.9264358,N,07927.9833869,W,4,05,1.8,188.850,M,-37.20,M,00,0000*66
$GPGGA,195517.50,4346.9264089,N,07927.9835362,W,4,05,1.8,188.844,M,-37.20,M,00,0000*68
$GPGGA,195517.75,4346.9263804,N,07927.9836794,W,4,05,1.8,188.834,M,-37.20,M,00,0000*6C
$GPGGA,195518.00,4346.9263563,N,07927.9838297,W,4,05,1.8,188.836,M,-37.20,M,01,0000*66
$GPGGA,195518.25,4346.9263302,N,07927.9839771,W,4,05,1.8,188.832,M,-37.20,M,00,0000*69
$GPGGA,195518.50,4346.9263037,N,07927.9841248,W,4,05,1.8,188.807,M,-37.20,M,00,0000*68
$GPGGA,195518.75,4346.9262759,N,07927.9842720,W,4,06,1.3,188.808,M,-37.20,M,00,0000*6E
$GPGGA,195519.00,4346.9262483,N,07927.9844144,W,4,06,1.3,188.810,M,-37.20,M,01,0000*63
$GPGGA,195519.25,4346.9262233,N,07927.9845698,W,4,06,1.3,188.818,M,-37.20,M,00,0000*67
$GPGGA,195519.50,4346.9261945,N,07927.9847203,W,4,06,1.3,188.813,M,-37.20,M,00,0000*63
$GPGGA,195519.75,4346.9261694,N,07927.9848673,W,4,07,1.1,188.790,M,-37.20,M,00,0000*6C
$GPGGA,195520.00,4346.9261408,N,07927.9850191,W,4,07,1.1,188.787,M,-37.20,M,01,0000*66
$GPGGA,195520.25,4346.9261119,N,07927.9851608,W,4,07,1.1,188.809,M,-37.20,M,00,0000*6A
$GPGGA,195520.50,4346.9260845,N,07927.9853107,W,4,07,1.1,188.778,M,-37.20,M,00,0000*6A
$GPGGA,195520.75,4346.9260616,N,07927.9854559,W,4,07,1.1,188.764,M,-37.20,M,00,0000*60
$GPGGA,195521.00,4346.9260295,N,07927.9856013,W,4,07,1.1,188.766,M,-37.20,M,01,0000*66
$GPGGA,195521.25,4346.9259998,N,07927.9857465,W,4,08,1.0,188.769,M,-37.20,M,00,0000*69
$GPGGA,195521.50,4346.9259744,N,07927.9858926,W,4,08,1.0,188.762,M,-37.20,M,00,0000*6A
$GPGGA,195521.75,4346.9259419,N,07927.9860457,W,4,08,1.0,188.757,M,-37.20,M,00,0000*60
$GPGGA,195522.00,4346.9259175,N,07927.9861907,W,4,08,1.0,188.730,M,-37.20,M,01,0000*67
$GPGGA,195522.25,4346.9258869,N,07927.9863407,W,4,08,1.0,188.742,M,-37.20,M,00,0000*6E
$GPGGA,195522.50,4346.9258587,N,07927.9864875,W,4,08,1.0,188.746,M,-37.20,M,00,0000*6B
$GPGGA,195522.75,4346.9258296,N,07927.9866344,W,4,08,1.0,188.731,M,-37.20,M,00,0000*60
$GPGGA,195523.00,4346.9258057,N,07927.9867788,W,4,08,1.0,188.709,M,-37.20,M,01,0000*63
$GPGGA,195523.25,4346.9257722,N,07927.9869189,W,4,08,1.0,188.730,M,-37.20,M,00,0000*6C
$GPGGA,195523.50,4346.9257448,N,07927.9870584,W,4,08,1.0,188.740,M,-37.20,M,00,0000*67
$GPGGA,195523.75,4346.9257198,N,07927.9872120,W,4,08,1.0,188.726,M,-37.20,M,00,0000*60
$GPGGA,195524.00,4346.9256987,N,07927.9873533,W,4,08,1.0,188.709,M,-37.20,M,01,0000*69
$GPGGA,195524.25,4346.9256668,N,07927.9875002,W,4,08,1.0,188.729,M,-37.20,M,00,0000*62
$GPGGA,195524.50,4346.9256363,N,07927.9876538,W,4,08,1.0,188.736,M,-37.20,M,00,0000*6F
$GPGGA,195524.75,4346.9256076,N,07927.9878015,W,4,08,1.0,188.739,M,-37.20,M,00,0000*64
$GPGGA,195525.00,4346.9255817,N,07927.9879460,W,4,08,1.0,188.718,M,-37.20,M,01,0000*6E
$GPGGA,195525.25,4346.9255554,N,07927.9880877,W,4,08,1.0,188.715,M,-37.20,M,00,0000*63
$GPGGA,195525.50,4346.9255283,N,07927.9882290,W,4,08,1.0,188.708,M,-37.20,M,00,0000*61
$GPGGA,195525.75,4346.9254962,N,07927.9883776,W,4,08,1.0,188.704,M,-37.20,M,00,0000*63
$GPGGA,195526.00,4346.9254701,N,07927.9885274,W,4,08,1.0,188.705,M,-37.20,M,01,0000*68
$GPGGA,195526.25,4346.9254382,N,07927.9886784,W,4,08,1.0,188.678,M,-37.20,M,00,0000*63
$GPGGA,195526.50,4346.9254089,N,07927.9888284,W,4,08,1.0,188.669,M,-37.20,M,00,0000*62
$GPGGA,195526.75,4346.9253823,N,07927.9889721,W,4,08,1.0,188.670,M,-37.20,M,00,0000*69
$GPGGA,195527.00,4346.9253558,N,07927.9891164,W,4,07,1.0,188.687,M,-37.20,M,01,0000*63
$GPGGA,195527.25,4346.9253269,N,07927.9892610,W,4,07,1.1,188.666,M,-37.20,M,00,0000*69
$GPGGA,195527.50,4346.9252939,N,07927.9894052,W,4,07,1.1,188.651,M,-37.20,M,00,0000*66
$GPGGA,195527.75,4346.9252621,N,07927.9895507,W,4,07,1.1,188.646,M,-37.20,M,00,0000*65
$GPGGA,195528.00,4346.9252305,N,07927.9896947,W,4,07,1.1,188.638,M,-37.20,M,01,0000*68
$GPGGA,195528.25,4346.9252041,N,07927.9898504,W,4,07,1.1,188.656,M,-37.20,M,00,0000*60
$GPGGA,195528.50,4346.9251724,N,07927.9899957,W,4,07,1.1,188.657,M,-37.20,M,00,0000*6F
$GPGGA,195528.75,4346.9251408,N,07927.9901425,W,4,07,1.1,188.654,M,-37.20,M,00,0000*6E
$GPGGA,195529.00,4346.9251217,N,07927.9902833,W,4,07,1.1,188.654,M,-37.20,M,01,0000*6C
$GPGGA,195529.25,4346.9250983,N,07927.9904277,W,4,07,1.1,188.642,M,-37.20,M,00,0000*66
$GPGGA,195529.50,4346.9250781,N,07927.9905721,W,4,07,1.1,188.634,M,-37.20,M,00,0000*6E
$GPGGA,195529.75,4346.9250574,N,07927.9907147,W,4,07,1.1,188.630,M,-37.20,M,00,0000*61
$GPGGA,195530.00,4346.9250396,N,07927.9908620,W,4,07,1.1,188.617,M,-37.20,M,01,0000*6C
$GPGGA,195530.25,4346.9250278,N,07927.9910148,W,4,07,1.1,188.616,M,-37.20,M,00,0000*6A
$GPGGA,195530.50,4346.9250173,N,07927.9911583,W,4,07,1.1,188.609,M,-37.20,M,00,0000*6C
$GPGGA,195530.75,4346.9250082,N,07927.9913113,W,4,07,1.1,188.597,M,-37.20,M,00,0000*6F
$GPGGA,195531.00,4346.9250046,N,07927.9914632,W,4,07,1.1,188.606,M,-37.20,M,01,0000*6D
$GPGGA,195531.25,4346.9249899,N,07927.9916181,W,4,08,1.0,188.613,M,-37.20,M,00,0000*6E
$GPGGA,195531.50,4346.9249790,N,07927.9917691,W,4,08,1.0,188.593,M,-37.20,M,00,0000*66
$GPGGA,195531.75,4346.9249727,N,07927.9919181,W,4,08,1.0,188.623,M,-37.20,M,00,0000*6D
$GPGGA,195532.00,4346.9249614,N,07927.9920673,W,4,08,1.0,188.610,M,-37.20,M,01,0000*6C
$GPGGA,195532.25,4346.9249570,N,07927.9922166,W,4,07,1.0,188.590,M,-37.20,M,00,0000*6E
$GPGGA,195532.50,4346.9249517,N,07927.9923713,W,4,07,1.0,188.600,M,-37.20,M,00,0000*62
$GPGGA,195532.75,4346.9249424,N,07927.9925150,W,4,07,1.2,188.608,M,-37.20,M,00,0000*69
$GPGGA,195533.00,4346.9249337,N,07927.9926700,W,4,07,1.2,188.621,M,-37.20,M,01,0000*65
$GPGGA,195533.25,4346.9249292,N,07927.9928215,W,4,07,1.2,188.596,M,-37.20,M,00,0000*6D
$GPGGA,195533.50,4346.9249242,N,07927.9929745,W,4,07,1.2,188.596,M,-37.20,M,00,0000*63
$GPGGA,195533.75,4346.9249157,N,07927.9931269,W,4,07,1.2,188.589,M,-37.20,M,00,0000*6F
$GPGGA,195534.00,4346.9249111,N,07927.9932789,W,4,06,1.2,188.600,M,-37.20,M,01,0000*62
$GPGGA,195534.25,4346.9249058,N,07927.9934316,W,4,06,1.9,188.584,M,-37.20,M,00,0000*68
$GPGGA,195534.50,4346.9248868,N,07927.9935824,W,4,06,1.9,188.591,M,-37.20,M,00,0000*6F
$GPGGA,195534.75,4346.9248718,N,07927.9937370,W,4,06,1.9,188.602,M,-37.20,M,00,0000*61
$GPGGA,195535.00,4346.9248479,N,07927.9938854,W,4,06,1.9,188.609,M,-37.20,M,01,0000*6E
$GPGGA,195535.25,4346.9248285,N,07927.9940404,W,4,06,1.9,188.586,M,-37.20,M,00,0000*6F
$GPGGA,195535.50,4346.9248028,N,07927.9941878,W,4,06,1.9,188.583,M,-37.20,M,00,0000*6B
$GPGGA,195535.75,4346.9247797,N,07927.9943379,W,4,06,1.9,188.582,M,-37.20,M,00,0000*69
$GPGGA,195536.00,4346.9247570,N,07927.9944933,W,4,06,1.9,188.575,M,-37.20,M,01,0000*69
$GPGGA,195536.25,4346.9247335,N,07927.9946521,W,4,06,1.9,188.564,M,-37.20,M,00,0000*65
$GPGGA,195536.50,4346.9247074,N,07927.9948108,W,4,06,1.9,188.562,M,-37.20,M,00,0000*66
$GPGGA,195536.75,4346.9246848,N,07927.9949689,W,4,06,1.9,188.558,M,-37.20,M,00,0000*61
$GPGGA,195537.00,4346.9246632,N,07927.9951281,W,4,06,1.9,188.556,M,-37.20,M,01,0000*6B
$GPGGA,195537.25,4346.9246300,N,07927.9952900,W,4,06,1.9,188.572,M,-37.20,M,00,0000*6E
$GPGGA,195537.50,4346.9246022,N,07927.9954472,W,4,06,1.9,188.573,M,-37.20,M,00,0000*60
$GPGGA,195537.75,4346.9245756,N,07927.9956076,W,4,06,1.9,188.571,M,-37.20,M,00,0000*60
$GPGGA,195538.00,4346.9245521,N,07927.9957763,W,4,06,1.9,188.572,M,-37.20,M,01,0000*6F
$GPGGA,195538.25,4346.9245199,N,07927.9959362,W,4,06,1.9,188.569,M,-37.20,M,00,0000*6F
$GPGGA,195538.50,4346.9244893,N,07927.9961047,W,4,07,1.9,188.575,M,-37.20,M,00,0000*6C
$GPGGA,195538.75,4346.9244579,N,07927.9962646,W,4,07,1.6,188.579,M,-37.20,M,00,0000*65
$GPGGA,195539.00,4346.9244316,N,07927.9964318,W,4,07,1.6,188.562,M,-37.20,M,01,0000*6A
$GPGGA,195539.25,4346.9244003,N,07927.9965901,W,4,07,1.6,188.557,M,-37.20,M,00,0000*6E
$GPGGA,195539.50,4346.9243691,N,07927.9967533,W,4,07,1.6,188.566,M,-37.20,M,00,0000*6B
$GPGGA,195539.75,4346.9243387,N,07927.9969128,W,4,07,1.6,188.562,M,-37.20,M,00,0000*6A
$GPGGA,195540.00,4346.9243071,N,07927.9970778,W,4,07,1.6,188.558,M,-37.20,M,01,0000*6F
$GPGGA,195540.25,4346.9242730,N,07927.9972388,W,4,07,1.6,188.550,M,-37.20,M,00,0000*6B
$GPGGA,195540.50,4346.9242402,N,07927.9974108,W,4,07,1.6,188.526,M,-37.20,M,00,0000*66
$GPGGA,195540.75,4346.9242060,N,07927.9975633,W,4,07,1.6,188.538,M,-37.20,M,00,0000*60
$GPGGA,195541.00,4346.9241742,N,07927.9977326,W,4,07,1.6,188.521,M,-37.20,M,01,0000*6D
$GPGGA,195541.25,4346.9241389,N,07927.9978970,W,4,07,1.6,188.526,M,-37.20,M,00,0000*69
$GPGGA,195541.50,4346.9241049,N,07927.9980604,W,4,07,1.6,188.532,M,-37.20,M,00,0000*6A
$GPGGA,195541.75,4346.9240767,N,07927.9982278,W,4,07,1.6,188.515,M,-37.20,M,00,0000*6F
$GPGGA,195542.00,4346.9240440,N,07927.9983856,W,4,07,1.6,188.516,M,-37.20,M,01,0000*6D
$GPGGA,195542.25,4346.9240160,N,07927.9985437,W,4,07,1.6,188.521,M,-37.20,M,00,0000*65
$GPGGA,195542.50,4346.9239910,N,07927.9987127,W,4,07,1.6,188.505,M,-37.20,M,00,0000*66
$GPGGA,195542.75,4346.9239619,N,07927.9988712,W,4,07,1.6,188.509,M,-37.20,M,00,0000*64
$GPGGA,195543.00,4346.9239425,N,07927.9990362,W,4,07,1.6,188.491,M,-37.20,M,01,0000*61
$GPGGA,195543.25,4346.9239125,N,07927.9991954,W,4,07,1.6,188.507,M,-37.20,M,00,0000*62
$GPGGA,195543.50,4346.9238882,N,07927.9993521,W,4,07,1.6,188.507,M,-37.20,M,00,0000*69
$GPGGA,195543.75,4346.9238595,N,07927.9995186,W,4,07,1.6,188.502,M,-37.20,M,00,0000*6F
$GPGGA,195544.00,4346.9238324,N,07927.9996766,W,4,07,1.6,188.508,M,-37.20,M,01,0000*66
$GPGGA,195544.25,4346.9238050,N,07927.9998467,W,4,07,1.6,188.508,M,-37.20,M,00,0000*6C
$GPGGA,195544.50,4346.9237799,N,07928.0000102,W,4,07,1.6,188.481,M,-37.20,M,00,0000*6B
$GPGGA,195544.75,4346.9237532,N,07928.0001755,W,4,07,1.6,188.488,M,-37.20,M,00,0000*63
$GPGGA,195545.00,4346.9237265,N,07928.0003466,W,4,07,1.6,188.491,M,-37.20,M,01,0000*6D
$GPGGA,195545.25,4346.9236975,N,07928.0005175,W,4,07,1.6,188.494,M,-37.20,M,00,0000*64
$GPGGA,195545.50,4346.9236722,N,07928.0006813,W,4,07,1.6,188.476,M,-37.20,M,00,0000*6C
$GPGGA,195545.75,4346.9236440,N,07928.0008487,W,4,07,1.6,188.484,M,-37.20,M,00,0000*6E
$GPGGA,195546.00,4346.9236204,N,07928.0010121,W,4,07,1.6,188.477,M,-37.20,M,01,0000*64
$GPGGA,195546.25,4346.9235956,N,07928.0011803,W,4,07,1.6,188.486,M,-37.20,M,00,0000*6B
$GPGGA,195546.50,4346.9235705,N,07928.0013465,W,4,07,1.6,188.476,M,-37.20,M,00,0000*60
$GPGGA,195546.75,4346.9235460,N,07928.0015120,W,4,07,1.6,188.468,M,-37.20,M,00,0000*6A
$GPGGA,195547.00,4346.9235225,N,07928.0016786,W,4,07,1.6,188.458,M,-37.20,M,01,0000*65
$GPGGA,195547.25,4346.9234901,N,07928.0018303,W,4,07,1.6,188.472,M,-37.20,M,00,0000*60
$GPGGA,195547.50,4346.9234660,N,07928.0019969,W,4,07,1.6,188.470,M,-37.20,M,00,0000*6F
$GPGGA,195547.75,4346.9234398,N,07928.0021647,W,4,07,1.6,188.472,M,-37.20,M,00,0000*60
$GPGGA,195548.00,4346.9234105,N,07928.0023334,W,4,07,1.6,188.461,M,-37.20,M,01,0000*6B
$GPGGA,195548.25,4346.9233787,N,07928.0024950,W,4,07,1.6,188.454,M,-37.20,M,00,0000*6F
$GPGGA,195548.50,4346.9233512,N,07928.0026594,W,4,07,1.6,188.457,M,-37.20,M,00,0000*66
$GPGGA,195548.75,4346.9233242,N,07928.0028222,W,4,07,1.6,188.458,M,-37.20,M,00,0000*68
$GPGGA,195549.00,4346.9232915,N,07928.0029827,W,4,07,1.6,188.461,M,-37.20,M,01,0000*66
$GPGGA,195549.25,4346.9232714,N,07928.0031543,W,4,07,1.6,188.456,M,-37.20,M,00,0000*6D
$GPGGA,195549.50,4346.9232381,N,07928.0033096,W,4,07,1.6,188.461,M,-37.20,M,00,0000*6C
$GPGGA,195549.75,4346.9232081,N,07928.0034750,W,4,07,1.6,188.459,M,-37.20,M,00,0000*69
$GPGGA,195550.00,4346.9231757,N,07928.0036394,W,4,07,1.6,188.474,M,-37.20,M,01,0000*6C
$GPGGA,195550.25,4346.9231454,N,07928.0038059,W,4,07,1.6,188.485,M,-37.20,M,00,0000*68
$GPGGA,195550.50,4346.9231121,N,07928.0039622,W,4,07,1.6,188.472,M,-37.20,M,00,0000*6E
$GPGGA,195550.75,4346.9230808,N,07928.0041310,W,4,07,1.6,188.466,M,-37.20,M,00,0000*64
$GPGGA,195551.00,4346.9230514,N,07928.0042974,W,4,07,1.6,188.468,M,-37.20,M,01,0000*63
$GPGGA,195551.25,4346.9230199,N,07928.0044562,W,4,07,1.6,188.480,M,-37.20,M,00,0000*6F
$GPGGA,195551.50,4346.9229892,N,07928.0046198,W,4,07,1.6,188.448,M,-37.20,M,00,0000*60
$GPGGA,195551.75,4346.9229567,N,07928.0047819,W,4,07,1.6,188.464,M,-37.20,M,00,0000*6F
$GPGGA,195552.00,4346.9229241,N,07928.0049499,W,4,07,1.6,188.456,M,-37.20,M,01,0000*67
$GPGGA,195552.25,4346.9228904,N,07928.0051145,W,4,07,1.6,188.443,M,-37.20,M,00,0000*63
$GPGGA,195552.50,4346.9228592,N,07928.0052727,W,4,07,1.6,188.442,M,-37.20,M,00,0000*62
$GPGGA,195552.75,4346.9228260,N,07928.0054397,W,4,07,1.6,188.443,M,-37.20,M,00,0000*67
$GPGGA,195553.00,4346.9227886,N,07928.0056076,W,4,07,1.6,188.451,M,-37.20,M,01,0000*65
$GPGGA,195553.25,4346.9227568,N,07928.0057635,W,4,07,1.6,188.472,M,-37.20,M,00,0000*6F
$GPGGA,195553.50,4346.9227268,N,07928.0059255,W,4,07,1.6,188.464,M,-37.20,M,00,0000*61
$GPGGA,195553.75,4346.9226958,N,07928.0060964,W,4,07,1.6,188.456,M,-37.20,M,00,0000*6D
$GPGGA,195554.00,4346.9226629,N,07928.0062627,W,4,07,1.6,188.463,M,-37.20,M,01,0000*6C
$GPGGA,195554.25,4346.9226292,N,07928.0064205,W,4,07,1.6,188.464,M,-37.20,M,00,0000*6B
$GPGGA,195554.50,4346.9225935,N,07928.0065789,W,4,07,1.6,188.485,M,-37.20,M,00,0000*63
$GPGGA,195554.75,4346.9225584,N,07928.0067376,W,4,07,1.6,188.490,M,-37.20,M,00,0000*60
$GPGGA,195555.00,4346.9225271,N,07928.0069007,W,4,07,1.6,188.465,M,-37.20,M,01,0000*6E
$GPGGA,195555.25,4346.9224897,N,07928.0070651,W,4,07,1.6,188.491,M,-37.20,M,00,0000*6D
$GPGGA,195555.50,4346.9224545,N,07928.0072251,W,4,07,1.6,188.470,M,-37.20,M,00,0000*64
$GPGGA,195555.75,4346.9224185,N,07928.0073897,W,4,07,1.6,188.474,M,-37.20,M,00,0000*6E
$GPGGA,195556.00,4346.9223765,N,07928.0075559,W,4,07,1.6,188.486,M,-37.20,M,01,0000*65
$GPGGA,195556.25,4346.9223397,N,07928.0077094,W,4,08,1.0,188.460,M,-37.20,M,00,0000*6D
$GPGGA,195556.50,4346.9223086,N,07928.0078753,W,4,07,1.0,188.472,M,-37.20,M,00,0000*63
$GPGGA,195556.75,4346.9222737,N,07928.0080323,W,4,07,1.2,188.488,M,-37.20,M,00,0000*6B
$GPGGA,195557.00,4346.9222368,N,07928.0081862,W,4,07,1.2,188.482,M,-37.20,M,01,0000*62
$GPGGA,195557.25,4346.9222026,N,07928.0083499,W,4,07,1.2,188.504,M,-37.20,M,00,0000*68
$GPGGA,195557.50,4346.9221660,N,07928.0085125,W,4,07,1.2,188.501,M,-37.20,M,00,0000*6C
$GPGGA,195557.75,4346.9221247,N,07928.0086786,W,4,07,1.2,188.491,M,-37.20,M,00,0000*6E
$GPGGA,195558.00,4346.9220847,N,07928.0088417,W,4,07,1.2,188.499,M,-37.20,M,01,0000*64
$GPGGA,195558.25,4346.9220477,N,07928.0089969,W,4,07,1.2,188.478,M,-37.20,M,00,0000*67
$GPGGA,195558.50,4346.9220152,N,07928.0091560,W,4,07,1.2,188.465,M,-37.20,M,00,0000*67
$GPGGA,195558.75,4346.9219827,N,07928.0093140,W,4,07,1.2,188.470,M,-37.20,M,00,0000*61
$GPGGA,195559.00,4346.9219562,N,07928.0094778,W,4,07,1.2,188.461,M,-37.20,M,01,0000*65
$GPGGA,195559.25,4346.9219295,N,07928.0096370,W,4,07,1.2,188.469,M,-37.20,M,00,0000*6A
$GPGGA,195559.50,4346.9219026,N,07928.0098067,W,4,07,1.2,188.482,M,-37.20,M,00,0000*6C
$GPGGA,195559.75,4346.9218786,N,07928.0099689,W,4,07,1.2,188.482,M,-37.20,M,00,0000*60
$GPGGA,195600.00,4346.9218558,N,07928.0101343,W,4,07,1.2,188.475,M,-37.20,M,01,0000*66
$GPGGA,195600.25,4346.9218392,N,07928.0102988,W,4,07,1.2,188.450,M,-37.20,M,00,0000*69
$GPGGA,195600.50,4346.9218254,N,07928.0104605,W,4,07,1.2,188.460,M,-37.20,M,00,0000*6F
$GPGGA,195600.75,4346.9218176,N,07928.0106360,W,4,07,1.2,188.468,M,-37.20,M,00,0000*67
$GPGGA,195601.00,4346.9217920,N,07928.0108002,W,4,07,1.2,188.473,M,-37.20,M,01,0000*62
$GPGGA,195601.25,4346.9217881,N,07928.0109687,W,4,07,1.2,188.449,M,-37.20,M,00,0000*6D
$GPGGA,195601.50,4346.9217736,N,07928.0111371,W,4,07,1.2,188.442,M,-37.20,M,00,0000*62
$GPGGA,195601.75,4346.9217580,N,07928.0113030,W,4,07,1.2,188.457,M,-37.20,M,00,0000*6A
$GPGGA,195602.00,4346.9217417,N,07928.0114690,W,4,07,1.2,188.462,M,-37.20,M,01,0000*68
$GPGGA,195602.25,4346.9217296,N,07928.0116397,W,4,07,1.2,188.468,M,-37.20,M,00,0000*6B
$GPGGA,195602.50,4346.9217160,N,07928.0118046,W,4,07,1.2,188.466,M,-37.20,M,00,0000*6C
$GPGGA,195602.75,4346.9217033,N,07928.0119759,W,4,07,1.2,188.466,M,-37.20,M,00,0000*64
$GPGGA,195603.00,4346.9216892,N,07928.0121358,W,4,07,1.2,188.452,M,-37.20,M,01,0000*6D
$GPGGA,195603.25,4346.9216769,N,07928.0123083,W,4,07,1.2,188.465,M,-37.20,M,00,0000*63
$GPGGA,195603.50,4346.9216604,N,07928.0124720,W,4,07,1.2,188.459,M,-37.20,M,00,0000*6D
$GPGGA,195603.75,4346.9216503,N,07928.0126419,W,4,07,1.2,188.466,M,-37.20,M,00,0000*69
$GPGGA,195604.00,4346.9216332,N,07928.0128098,W,4,07,1.2,188.463,M,-37.20,M,01,0000*6F
$GPGGA,195604.25,4346.9216202,N,07928.0129887,W,4,07,1.2,188.514,M,-37.20,M,00,0000*6D
$GPGGA,195604.50,4346.9216065,N,07928.0131518,W,4,07,1.2,188.530,M,-37.20,M,00,0000*68
$GPGGA,195604.75,4346.9215932,N,07928.0133210,W,4,07,1.2,188.508,M,-37.20,M,00,0000*61
$GPGGA,195605.00,4346.9215829,N,07928.0134927,W,4,07,1.2,188.530,M,-37.20,M,01,0000*6B
$GPGGA,195605.25,4346.9215691,N,07928.0136610,W,4,07,1.2,188.524,M,-37.20,M,00,0000*6C
$GPGGA,195605.50,4346.9215583,N,07928.0138300,W,4,07,1.2,188.523,M,-37.20,M,00,0000*63
$GPGGA,195605.75,4346.9215451,N,07928.0140005,W,4,07,1.2,188.527,M,-37.20,M,00,0000*67
$GPGGA,195606.00,4346.9215302,N,07928.0141683,W,4,07,1.2,188.528,M,-37.20,M,01,0000*60
$GPGGA,195606.25,4346.9215190,N,07928.0143392,W,4,07,1.2,188.542,M,-37.20,M,00,0000*64
$GPGGA,195606.50,4346.9215009,N,07928.0145101,W,4,07,1.2,188.531,M,-37.20,M,00,0000*6D
$GPGGA,195606.75,4346.9214929,N,07928.0146775,W,4,07,1.2,188.540,M,-37.20,M,00,0000*60
$GPGGA,195607.00,4346.9214782,N,07928.0148467,W,4,07,1.2,188.548,M,-37.20,M,01,0000*6B
$GPGGA,195607.25,4346.9214665,N,07928.0150148,W,4,07,1.2,188.535,M,-37.20,M,00,0000*6E
$GPGGA,195607.50,4346.9214544,N,07928.0151813,W,4,07,1.2,188.543,M,-37.20,M,00,0000*6B
$GPGGA,195607.75,4346.9214411,N,07928.0153550,W,4,07,1.2,188.536,M,-37.20,M,00,0000*67
$GPGGA,195608.00,4346.9214291,N,07928.0155287,W,4,07,1.2,188.539,M,-37.20,M,01,0000*61
$GPGGA,195608.25,4346.9214139,N,07928.0156887,W,4,07,1.2,188.520,M,-37.20,M,00,0000*67
$GPGGA,195608.50,4346.9214045,N,07928.0158579,W,4,07,1.2,188.517,M,-37.20,M,00,0000*69
$GPGGA,195608.75,4346.9213863,N,07928.0160252,W,4,07,1.2,188.502,M,-37.20,M,00,0000*64
$GPGGA,195609.00,4346.9213703,N,07928.0161961,W,4,07,1.2,188.515,M,-37.20,M,01,0000*63
$GPGGA,195609.25,4346.9213592,N,07928.0163643,W,4,07,1.2,188.521,M,-37.20,M,00,0000*65
$GPGGA,195609.50,4346.9213389,N,07928.0165296,W,4,07,1.2,188.510,M,-37.20,M,00,0000*63
$GPGGA,195609.75,4346.9213278,N,07928.0167025,W,4,07,1.2,188.499,M,-37.20,M,00,0000*63
$GPGGA,195610.00,4346.9213088,N,07928.0168666,W,4,07,1.2,188.504,M,-37.20,M,01,0000*6E
$GPGGA,195610.25,4346.9212908,N,07928.0170312,W,4,07,1.2,188.508,M,-37.20,M,00,0000*6B
$GPGGA,195610.50,4346.9212765,N,07928.0172016,W,4,07,1.2,188.508,M,-37.20,M,00,0000*69
$GPGGA,195610.75,4346.9212537,N,07928.0173700,W,4,07,1.2,188.496,M,-37.20,M,00,0000*6C
$GPGGA,195611.00,4346.9212396,N,07928.0175373,W,4,07,1.2,188.504,M,-37.20,M,01,0000*6F
$GPGGA,195611.25,4346.9212213,N,07928.0177057,W,4,07,1.2,188.494,M,-37.20,M,00,0000*6A
$GPGGA,195611.50,4346.9212021,N,07928.0178723,W,4,07,1.2,188.477,M,-37.20,M,00,0000*6D
$GPGGA,195611.75,4346.9211864,N,07928.0180513,W,4,07,1.2,188.475,M,-37.20,M,00,0000*64
$GPGGA,195612.00,4346.9211703,N,07928.0182199,W,4,07,1.2,188.465,M,-37.20,M,01,0000*6F
$GPGGA,195612.25,4346.9211498,N,07928.0183881,W,4,07,1.2,188.455,M,-37.20,M,00,0000*6A
$GPGGA,195612.50,4346.9211275,N,07928.0185611,W,4,07,1.2,188.451,M,-37.20,M,00,0000*68
$GPGGA,195612.75,4346.9211091,N,07928.0187320,W,4,07,1.2,188.447,M,-37.20,M,00,0000*65
$GPGGA,195613.00,4346.9210916,N,07928.0188963,W,4,07,1.2,188.419,M,-37.20,M,01,0000*69
$GPGGA,195613.25,4346.9210780,N,07928.0190609,W,4,07,1.2,188.450,M,-37.20,M,00,0000*69
$GPGGA,195613.50,4346.9210606,N,07928.0192352,W,4,07,1.2,188.461,M,-37.20,M,00,0000*6F
$GPGGA,195613.75,4346.9210460,N,07928.0194049,W,4,07,1.2,188.444,M,-37.20,M,00,0000*62
$GPGGA,195614.00,4346.9210224,N,07928.0195712,W,4,07,1.2,188.425,M,-37.20,M,01,0000*6F
$GPGGA,195614.25,4346.9209969,N,07928.0197388,W,4,07,1.2,188.413,M,-37.20,M,00,0000*63
$GPGGA,195614.50,4346.9209774,N,07928.0199047,W,4,07,1.2,188.395,M,-37.20,M,00,0000*64
$GPGGA,195614.75,4346.9209554,N,07928.0200750,W,4,07,1.0,188.375,M,-37.20,M,00,0000*6D
$GPGGA,195615.00,4346.9209378,N,07928.0202449,W,4,07,1.0,188.378,M,-37.20,M,01,0000*63
$GPGGA,195615.25,4346.9209180,N,07928.0204122,W,4,08,1.0,188.360,M,-37.20,M,00,0000*68
$GPGGA,195615.50,4346.9208976,N,07928.0205794,W,4,07,1.0,188.354,M,-37.20,M,00,0000*68
$GPGGA,195615.75,4346.9208802,N,07928.0207479,W,4,07,1.1,188.336,M,-37.20,M,00,0000*6A
$GPGGA,195616.00,4346.9208611,N,07928.0209100,W,4,07,1.1,188.325,M,-37.20,M,01,0000*61
$GPGGA,195616.25,4346.9208473,N,07928.0210758,W,4,07,1.1,188.325,M,-37.20,M,00,0000*62
$GPGGA,195616.50,4346.9208370,N,07928.0212462,W,4,07,1.1,188.301,M,-37.20,M,00,0000*6A
$GPGGA,195616.75,4346.9208242,N,07928.0214144,W,4,07,1.1,188.308,M,-37.20,M,00,0000*63
$GPGGA,195617.00,4346.9208207,N,07928.0215811,W,4,07,1.1,188.289,M,-37.20,M,01,0000*60
$GPGGA,195617.25,4346.9208172,N,07928.0217567,W,4,06,1.1,188.273,M,-37.20,M,00,0000*6D
$GPGGA,195617.50,4346.9208120,N,07928.0219219,W,4,06,1.1,188.263,M,-37.20,M,00,0000*69
$GPGGA,195617.75,4346.9208079,N,07928.0220931,W,4,07,1.0,188.240,M,-37.20,M,00,0000*69
$GPGGA,195618.00,4346.9208040,N,07928.0222627,W,4,07,1.0,188.250,M,-37.20,M,01,0000*64
$GPGGA,195618.25,4346.9208100,N,07928.0224358,W,4,07,1.2,188.229,M,-37.20,M,00,0000*60
$GPGGA,195618.50,4346.9208153,N,07928.0226126,W,4,07,1.2,188.224,M,-37.20,M,00,0000*60
$GPGGA,195618.75,4346.9208250,N,07928.0227759,W,4,07,1.2,188.211,M,-37.20,M,00,0000*6E
$GPGGA,195619.00,4346.9208367,N,07928.0229493,W,4,07,1.2,188.206,M,-37.20,M,01,0000*64
$GPGGA,195619.25,4346.9208425,N,07928.0231185,W,4,07,1.2,188.196,M,-37.20,M,00,0000*62
$GPGGA,195619.50,4346.9208591,N,07928.0232906,W,4,07,1.2,188.179,M,-37.20,M,00,0000*6F
$GPGGA,195619.75,4346.9208734,N,07928.0234527,W,4,07,1.2,188.182,M,-37.20,M,00,0000*68
$GPGGA,195620.00,4346.9208941,N,07928.0236188,W,4,07,1.2,188.166,M,-37.20,M,01,0000*64
$GPGGA,195620.25,4346.9209125,N,07928.0237861,W,4,07,1.2,188.148,M,-37.20,M,00,0000*6A
$GPGGA,195620.50,4346.9209321,N,07928.0239524,W,4,06,1.2,188.143,M,-37.20,M,00,0000*66
$GPGGA,195620.75,4346.9209552,N,07928.0241251,W,4,07,1.1,188.117,M,-37.20,M,00,0000*6A
$GPGGA,195621.00,4346.9209744,N,07928.0242915,W,4,07,1.1,188.116,M,-37.20,M,01,0000*64
$GPGGA,195621.25,4346.9209970,N,07928.0244606,W,4,07,1.1,188.113,M,-37.20,M,00,0000*65
$GPGGA,195621.50,4346.9210179,N,07928.0246233,W,4,07,1.1,188.093,M,-37.20,M,00,0000*67
$GPGGA,195621.75,4346.9210376,N,07928.0247863,W,4,07,1.1,188.106,M,-37.20,M,00,0000*6E
$GPGGA,195622.00,4346.9210540,N,07928.0249460,W,4,07,1.1,188.095,M,-37.20,M,01,0000*67
$GPGGA,195622.25,4346.9210813,N,07928.0251112,W,4,07,1.1,188.060,M,-37.20,M,00,0000*69
$GPGGA,195622.50,4346.9210985,N,07928.0252820,W,4,07,1.1,188.042,M,-37.20,M,00,0000*6E
$GPGGA,195622.75,4346.9211279,N,07928.0254523,W,4,07,1.1,188.030,M,-37.20,M,00,0000*6D
$GPGGA,195623.00,4346.9211526,N,07928.0256158,W,4,07,1.1,188.029,M,-37.20,M,01,0000*60
$GPGGA,195623.25,4346.9211695,N,07928.0257891,W,4,07,1.1,188.006,M,-37.20,M,00,0000*6D
$GPGGA,195623.50,4346.9211967,N,07928.0259509,W,4,07,1.1,188.007,M,-37.20,M,00,0000*6E
$GPGGA,195623.75,4346.9212177,N,07928.0261219,W,4,07,1.1,187.982,M,-37.20,M,00,0000*65
$GPGGA,195624.00,4346.9212392,N,07928.0262854,W,4,07,1.1,187.980,M,-37.20,M,01,0000*6A
$GPGGA,195624.25,4346.9212702,N,07928.0264555,W,4,07,1.1,187.979,M,-37.20,M,00,0000*6D
$GPGGA,195624.50,4346.9212863,N,07928.0266174,W,4,07,1.1,187.961,M,-37.20,M,00,0000*6B
$GPGGA,195624.75,4346.9213164,N,07928.0267877,W,4,07,1.1,187.972,M,-37.20,M,00,0000*6A
$GPGGA,195625.00,4346.9213341,N,07928.0269513,W,4,07,1.1,187.946,M,-37.20,M,01,0000*6B
$GPGGA,195625.25,4346.9213568,N,07928.0271172,W,4,07,1.1,187.924,M,-37.20,M,00,0000*6E
$GPGGA,195625.50,4346.9213799,N,07928.0272824,W,4,07,1.1,187.921,M,-37.20,M,00,0000*6C
$GPGGA,195625.75,4346.9214016,N,07928.0274472,W,4,07,1.1,187.916,M,-37.20,M,00,0000*61
$GPGGA,195626.00,4346.9214194,N,07928.0276119,W,4,07,1.1,187.897,M,-37.20,M,01,0000*68
$GPGGA,195626.25,4346.9214427,N,07928.0277873,W,4,07,1.1,187.894,M,-37.20,M,00,0000*64
$GPGGA,195626.50,4346.9214688,N,07928.0279512,W,4,07,1.1,187.886,M,-37.20,M,00,0000*66
$GPGGA,195626.75,4346.9214951,N,07928.0281208,W,4,07,1.1,187.867,M,-37.20,M,00,0000*6E
$GPGGA,195627.00,4346.9215195,N,07928.0282868,W,4,07,1.1,187.874,M,-37.20,M,01,0000*60
$GPGGA,195627.25,4346.9215420,N,07928.0284535,W,4,07,1.1,187.861,M,-37.20,M,00,0000*6A
$GPGGA,195627.50,4346.9215717,N,07928.0286118,W,4,07,1.1,187.866,M,-37.20,M,00,0000*61
$GPGGA,195627.75,4346.9216020,N,07928.0287782,W,4,07,1.1,187.845,M,-37.20,M,00,0000*63
$GPGGA,195628.00,4346.9216433,N,07928.0289413,W,4,07,1.1,187.831,M,-37.20,M,01,0000*6F
$GPGGA,195628.25,4346.9216925,N,07928.0291113,W,4,07,1.1,187.837,M,-37.20,M,00,0000*69
$GPGGA,195628.50,4346.9217290,N,07928.0292742,W,4,07,1.1,187.828,M,-37.20,M,00,0000*60
$GPGGA,195628.75,4346.9217619,N,07928.0294357,W,4,07,1.1,187.799,M,-37.20,M,00,0000*61
$GPGGA,195629.00,4346.9217972,N,07928.0295990,W,4,07,1.1,187.798,M,-37.20,M,01,0000*60
$GPGGA,195629.25,4346.9218320,N,07928.0297523,W,4,07,1.1,187.766,M,-37.20,M,00,0000*63
$GPGGA,195629.50,4346.9218702,N,07928.0299163,W,4,07,1.1,187.759,M,-37.20,M,00,0000*67
$GPGGA,195629.75,4346.9219048,N,07928.0300762,W,4,07,1.1,187.752,M,-37.20,M,00,0000*65
$GPGGA,195630.00,4346.9219428,N,07928.0302418,W,4,07,1.1,187.725,M,-37.20,M,01,0000*60
$GPGGA,195630.25,4346.9219909,N,07928.0304037,W,4,07,1.1,187.719,M,-37.20,M,00,0000*68
$GPGGA,195630.50,4346.9220408,N,07928.0305568,W,4,07,1.1,187.719,M,-37.20,M,00,0000*62
$GPGGA,195630.75,4346.9220849,N,07928.0307135,W,4,07,1.1,187.695,M,-37.20,M,00,0000*67
$GPGGA,195631.00,4346.9221330,N,07928.0308664,W,4,07,1.1,187.697,M,-37.20,M,01,0000*6F
$GPGGA,195631.25,4346.9221828,N,07928.0310068,W,4,07,1.1,187.703,M,-37.20,M,00,0000*64
$GPGGA,195631.50,4346.9222482,N,07928.0311458,W,4,07,1.1,187.673,M,-37.20,M,00,0000*69
$GPGGA,195631.75,4346.9223019,N,07928.0312868,W,4,07,1.1,187.673,M,-37.20,M,00,0000*65
$GPGGA,195632.00,4346.9223589,N,07928.0314337,W,4,07,1.1,187.671,M,-37.20,M,01,0000*6C
$GPGGA,195632.25,4346.9224142,N,07928.0315915,W,4,08,1.0,187.690,M,-37.20,M,00,0000*64
$GPGGA,195632.50,4346.9224681,N,07928.0317390,W,4,08,1.0,187.700,M,-37.20,M,00,0000*63
$GPGGA,195632.75,4346.9225198,N,07928.0318902,W,4,08,1.0,187.686,M,-37.20,M,00,0000*6B
$GPGGA,195633.00,4346.9225789,N,07928.0320399,W,4,07,1.0,187.674,M,-37.20,M,01,0000*6E
$GPGGA,195633.25,4346.9226383,N,07928.0321964,W,4,07,1.1,187.687,M,-37.20,M,00,0000*61
$GPGGA,195633.50,4346.9226946,N,07928.0323429,W,4,07,1.1,187.683,M,-37.20,M,00,0000*62
$GPGGA,195633.75,4346.9227644,N,07928.0324847,W,4,07,1.1,187.676,M,-37.20,M,00,0000*60
$GPGGA,195634.00,4346.9228303,N,07928.0326296,W,4,07,1.1,187.676,M,-37.20,M,01,0000*69
$GPGGA,195634.25,4346.9229091,N,07928.0327585,W,4,06,1.1,187.684,M,-37.20,M,00,0000*6E
$GPGGA,195634.50,4346.9229835,N,07928.0328868,W,4,06,1.1,187.682,M,-37.20,M,00,0000*6D
$GPGGA,195634.75,4346.9230615,N,07928.0330050,W,4,06,1.1,187.706,M,-37.20,M,00,0000*69
$GPGGA,195635.00,4346.9231494,N,07928.0331226,W,4,06,1.1,187.676,M,-37.20,M,01,0000*65
$GPGGA,195635.25,4346.9232440,N,07928.0332345,W,4,06,1.3,187.719,M,-37.20,M,01,0000*65
$GPGGA,195635.50,4346.9233361,N,07928.0333479,W,4,07,1.3,187.701,M,-37.20,M,01,0000*63
$GPGGA,195635.75,4346.9234329,N,07928.0334657,W,4,07,1.1,187.697,M,-37.20,M,01,0000*6A
$GPGGA,195636.00,4346.9235251,N,07928.0335782,W,4,07,1.1,187.701,M,-37.20,M,02,0000*61
$GPGGA,195636.25,4346.9236139,N,07928.0336973,W,4,07,1.1,187.711,M,-37.20,M,02,0000*6A
$GPGGA,195636.50,4346.9237045,N,07928.0338071,W,4,07,1.1,187.708,M,-37.20,M,02,0000*6E
$GPGGA,195636.75,4346.9237951,N,07928.0339261,W,4,07,1.1,187.713,M,-37.20,M,02,0000*6D
$GPGGA,195637.00,4346.9238846,N,07928.0340350,W,4,07,1.1,187.697,M,-37.20,M,03,0000*67
$GPGGA,195637.25,4346.9239709,N,07928.0341440,W,4,07,1.1,187.692,M,-37.20,M,00,0000*64
$GPGGA,195637.50,4346.9240684,N,07928.0342604,W,4,07,1.1,187.695,M,-37.20,M,00,0000*6A
$GPGGA,195637.75,4346.9241562,N,07928.0343679,W,4,06,1.1,187.704,M,-37.20,M,00,0000*64
$GPGGA,195638.00,4346.9242554,N,07928.0344699,W,4,06,1.1,187.699,M,-37.20,M,01,0000*62
$GPGGA,195638.25,4346.9243524,N,07928.0345650,W,4,06,1.1,187.721,M,-37.20,M,00,0000*64
$GPGGA,195638.50,4346.9244540,N,07928.0346533,W,4,06,1.1,187.723,M,-37.20,M,00,0000*64
$GPGGA,195638.75,4346.9245574,N,07928.0347410,W,4,06,1.3,187.714,M,-37.20,M,00,0000*62
$GPGGA,195639.00,4346.9246642,N,07928.0348266,W,4,06,1.3,187.731,M,-37.20,M,01,0000*6A
$GPGGA,195639.25,4346.9247720,N,07928.0348981,W,4,06,1.3,187.721,M,-37.20,M,00,0000*6B
$GPGGA,195639.50,4346.9248868,N,07928.0349697,W,4,06,1.3,187.734,M,-37.20,M,00,0000*68
$GPGGA,195639.75,4346.9250069,N,07928.0350303,W,4,06,1.3,187.718,M,-37.20,M,00,0000*61
$GPGGA,195640.00,4346.9251244,N,07928.0350866,W,4,06,1.3,187.713,M,-37.20,M,01,0000*63
$GPGGA,195640.25,4346.9252378,N,07928.0351292,W,4,06,1.3,187.694,M,-37.20,M,01,0000*67
$GPGGA,195640.50,4346.9253587,N,07928.0351737,W,4,06,1.3,187.730,M,-37.20,M,00,0000*66
$GPGGA,195640.75,4346.9254731,N,07928.0352048,W,4,06,1.3,187.739,M,-37.20,M,00,0000*6C
$GPGGA,195641.00,4346.9255948,N,07928.0352234,W,4,06,1.3,187.737,M,-37.20,M,01,0000*68
$GPGGA,195641.25,4346.9257184,N,07928.0352445,W,4,06,1.3,187.738,M,-37.20,M,00,0000*6B
$GPGGA,195641.50,4346.9258452,N,07928.0352509,W,4,06,1.3,187.745,M,-37.20,M,00,0000*6B
$GPGGA,195641.75,4346.9259724,N,07928.0352510,W,4,06,1.3,187.740,M,-37.20,M,00,0000*62
$GPGGA,195642.00,4346.9260963,N,07928.0352377,W,4,06,1.3,187.733,M,-37.20,M,01,0000*66
$GPGGA,195642.25,4346.9262193,N,07928.0352145,W,4,06,1.3,187.746,M,-37.20,M,00,0000*64
$GPGGA,195642.50,4346.9263357,N,07928.0351861,W,4,06,1.3,187.754,M,-37.20,M,00,0000*62
$GPGGA,195642.75,4346.9264566,N,07928.0351401,W,4,06,1.3,187.745,M,-37.20,M,00,0000*6C
$GPGGA,195643.00,4346.9265757,N,07928.0350993,W,4,06,1.3,187.755,M,-37.20,M,01,0000*69
$GPGGA,195643.25,4346.9266960,N,07928.0350421,W,4,06,1.3,187.758,M,-37.20,M,00,0000*6F
$GPGGA,195643.50,4346.9268142,N,07928.0349841,W,4,06,1.3,187.748,M,-37.20,M,00,0000*68
$GPGGA,195643.75,4346.9269271,N,07928.0349377,W,4,06,1.3,187.761,M,-37.20,M,00,0000*68
$GPGGA,195644.00,4346.9270481,N,07928.0348857,W,4,06,1.3,187.771,M,-37.20,M,01,0000*64
$GPGGA,195644.25,4346.9271565,N,07928.0348386,W,4,06,1.3,187.764,M,-37.20,M,01,0000*6A
$GPGGA,195644.50,4346.9272827,N,07928.0347729,W,4,06,1.3,187.773,M,-37.20,M,01,0000*68
$GPGGA,195644.75,4346.9273969,N,07928.0347282,W,4,06,1.3,187.758,M,-37.20,M,01,0000*68
$GPGGA,195645.00,4346.9275211,N,07928.0347096,W,4,06,1.3,187.776,M,-37.20,M,02,0000*61
$GPGGA,195645.25,4346.9276481,N,07928.0346825,W,4,06,1.3,187.789,M,-37.20,M,02,0000*6B
$GPGGA,195645.50,4346.9277628,N,07928.0346676,W,4,06,1.3,187.795,M,-37.20,M,02,0000*6C
$GPGGA,195645.75,4346.9278918,N,07928.0346650,W,4,06,1.3,187.794,M,-37.20,M,02,0000*6D
$GPGGA,195646.00,4346.9280101,N,07928.0346687,W,4,06,1.3,187.781,M,-37.20,M,03,0000*64
$GPGGA,195646.25,4346.9281410,N,07928.0346787,W,4,06,1.3,187.798,M,-37.20,M,03,0000*6E
$GPGGA,195646.50,4346.9282615,N,07928.0347006,W,4,06,1.3,187.788,M,-37.20,M,03,0000*66
$GPGGA,195646.75,4346.9283838,N,07928.0347405,W,4,06,1.3,187.792,M,-37.20,M,03,0000*6D
$GPGGA,195647.00,4346.9284987,N,07928.0347791,W,4,07,1.3,187.791,M,-37.20,M,04,0000*67
$GPGGA,195647.25,4346.9286148,N,07928.0348275,W,4,07,1.1,187.823,M,-37.20,M,00,0000*69
$GPGGA,195647.50,4346.9287304,N,07928.0348698,W,4,07,1.1,187.824,M,-37.20,M,00,0000*60
$GPGGA,195647.75,4346.9288446,N,07928.0349259,W,4,07,1.1,187.834,M,-37.20,M,00,0000*60
$GPGGA,195648.00,4346.9289589,N,07928.0349802,W,4,07,1.1,187.832,M,-37.20,M,01,0000*6D
$GPGGA,195648.25,4346.9290785,N,07928.0350463,W,4,07,1.1,187.856,M,-37.20,M,00,0000*6C
$GPGGA,195648.50,4346.9291979,N,07928.0351107,W,4,06,1.1,187.849,M,-37.20,M,00,0000*6B
$GPGGA,195648.75,4346.9293100,N,07928.0351722,W,4,06,1.3,187.856,M,-37.20,M,00,0000*65
$GPGGA,195649.00,4346.9294201,N,07928.0352339,W,4,06,1.3,187.852,M,-37.20,M,01,0000*6B
$GPGGA,195649.25,4346.9295320,N,07928.0353003,W,4,06,1.3,187.861,M,-37.20,M,01,0000*64
$GPGGA,195649.50,4346.9296487,N,07928.0353729,W,4,06,1.3,187.870,M,-37.20,M,01,0000*60
$GPGGA,195649.75,4346.9297555,N,07928.0354479,W,4,06,1.3,187.848,M,-37.20,M,01,0000*62
$GPGGA,195650.00,4346.9298672,N,07928.0355270,W,4,06,1.3,187.858,M,-37.20,M,02,0000*6D
$GPGGA,195650.25,4346.9299770,N,07928.0356093,W,4,06,1.3,187.838,M,-37.20,M,00,0000*60
$GPGGA,195650.50,4346.9300881,N,07928.0356894,W,4,06,1.3,187.830,M,-37.20,M,00,0000*65
$GPGGA,195650.75,4346.9301942,N,07928.0357679,W,4,06,1.3,187.822,M,-37.20,M,00,0000*62
$GPGGA,195651.00,4346.9302989,N,07928.0358520,W,4,06,1.3,187.831,M,-37.20,M,01,0000*66
$GPGGA,195651.25,4346.9304047,N,07928.0359310,W,4,06,1.3,187.824,M,-37.20,M,00,0000*6D
$GPGGA,195651.50,4346.9305099,N,07928.0360212,W,4,06,1.3,187.833,M,-37.20,M,00,0000*62
$GPGGA,195651.75,4346.9306166,N,07928.0361073,W,4,06,1.3,187.822,M,-37.20,M,00,0000*63
$GPGGA,195652.00,4346.9307200,N,07928.0361936,W,4,06,1.3,187.828,M,-37.20,M,01,0000*63
$GPGGA,195652.25,4346.9308244,N,07928.0362764,W,4,06,1.3,187.822,M,-37.20,M,00,0000*6A
$GPGGA,195652.50,4346.9309267,N,07928.0363657,W,4,06,1.3,187.852,M,-37.20,M,00,0000*6F
$GPGGA,195652.75,4346.9310287,N,07928.0364598,W,4,06,1.3,187.834,M,-37.20,M,00,0000*69
$GPGGA,195653.00,4346.9311312,N,07928.0365549,W,4,06,1.3,187.845,M,-37.20,M,01,0000*6C
$GPGGA,195653.25,4346.9312372,N,07928.0366446,W,4,06,1.3,187.834,M,-37.20,M,00,0000*64
$GPGGA,195653.50,4346.9313384,N,07928.0367396,W,4,06,1.3,187.825,M,-37.20,M,00,0000*65
$GPGGA,195653.75,4346.9314468,N,07928.0368301,W,4,06,1.3,187.823,M,-37.20,M,00,0000*67
$GPGGA,195654.00,4346.9315377,N,07928.0369231,W,4,06,1.3,187.835,M,-37.20,M,01,0000*6F
$GPGGA,195654.25,4346.9316463,N,07928.0370135,W,4,06,1.3,187.832,M,-37.20,M,01,0000*61
$GPGGA,195654.50,4346.9317429,N,07928.0371005,W,4,06,1.3,187.837,M,-37.20,M,01,0000*6A
$GPGGA,195654.75,4346.9318426,N,07928.0371897,W,4,06,1.3,187.816,M,-37.20,M,01,0000*6D
$GPGGA,195655.00,4346.9319418,N,07928.0372790,W,4,06,1.3,187.845,M,-37.20,M,02,0000*6C
$GPGGA,195655.25,4346.9320543,N,07928.0373653,W,4,06,1.3,187.871,M,-37.20,M,00,0000*64
$GPGGA,195655.50,4346.9321638,N,07928.0374393,W,4,06,1.3,187.869,M,-37.20,M,00,0000*6F
$GPGGA,195655.75,4346.9322730,N,07928.0375158,W,4,06,1.3,187.863,M,-37.20,M,00,0000*6C
$GPGGA,195656.00,4346.9323884,N,07928.0375800,W,4,06,1.3,187.852,M,-37.20,M,01,0000*6B
$GPGGA,195656.25,4346.9324990,N,07928.0376403,W,4,06,1.3,187.844,M,-37.20,M,01,0000*64
$GPGGA,195656.50,4346.9326192,N,07928.0377027,W,4,06,1.3,187.845,M,-37.20,M,01,0000*6C
$GPGGA,195656.75,4346.9327301,N,07928.0377585,W,4,06,1.3,187.852,M,-37.20,M,01,0000*69
$GPGGA,195657.00,4346.9328405,N,07928.0378171,W,4,06,1.3,187.862,M,-37.20,M,02,0000*66
$GPGGA,195657.25,4346.9329533,N,07928.0378825,W,4,06,1.3,187.856,M,-37.20,M,00,0000*69
$GPGGA,195657.50,4346.9330669,N,07928.0379430,W,4,06,1.3,187.874,M,-37.20,M,00,0000*66
$GPGGA,195657.75,4346.9331803,N,07928.0380034,W,4,06,1.3,187.876,M,-37.20,M,00,0000*66
$GPGGA,195658.00,4346.9332939,N,07928.0380581,W,4,06,1.3,187.863,M,-37.20,M,01,0000*6E
$GPGGA,195658.25,4346.9334127,N,07928.0381203,W,4,06,1.3,187.865,M,-37.20,M,00,0000*63
$GPGGA,195658.50,4346.9335268,N,07928.0381741,W,4,06,1.3,187.861,M,-37.20,M,00,0000*6F
$GPGGA,195658.75,4346.9336417,N,07928.0382206,W,4,06,1.3,187.869,M,-37.20,M,00,0000*68
$GPGGA,195659.00,4346.9337655,N,07928.0382532,W,4,06,1.3,187.870,M,-37.20,M,01,0000*67
$GPGGA,195659.25,4346.9338821,N,07928.0382864,W,4,06,1.3,187.873,M,-37.20,M,00,0000*6E
$GPGGA,195659.50,4346.9340111,N,07928.0383145,W,4,06,1.3,187.875,M,-37.20,M,00,0000*64
$GPGGA,195659.75,4346.9341277,N,07928.0383282,W,4,06,1.3,187.872,M,-37.20,M,00,0000*6E
$GPGGA,195700.00,4346.9342548,N,07928.0383372,W,4,06,1.3,187.877,M,-37.20,M,01,0000*63
$GPGGA,195700.25,4346.9343810,N,07928.0383351,W,4,06,1.3,187.873,M,-37.20,M,01,0000*60
$GPGGA,195700.50,4346.9344970,N,07928.0383336,W,4,06,1.3,187.882,M,-37.20,M,01,0000*6D
$GPGGA,195700.75,4346.9346176,N,07928.0383100,W,4,06,1.3,187.896,M,-37.20,M,01,0000*64
$GPGGA,195701.00,4346.9347310,N,07928.0382859,W,4,06,1.3,187.909,M,-37.20,M,02,0000*64
$GPGGA,195701.25,4346.9348457,N,07928.0382580,W,4,06,1.3,187.918,M,-37.20,M,02,0000*61
$GPGGA,195701.50,4346.9349622,N,07928.0382089,W,4,06,1.3,187.914,M,-37.20,M,02,0000*62
$GPGGA,195701.75,4346.9350813,N,07928.0381649,W,4,07,1.1,187.924,M,-37.20,M,02,0000*68
$GPGGA,195702.00,4346.9352059,N,07928.0381325,W,4,07,1.1,187.939,M,-37.20,M,03,0000*6F
$GPGGA,195702.25,4346.9353232,N,07928.0380949,W,4,07,1.1,187.934,M,-37.20,M,03,0000*6A
$GPGGA,195702.50,4346.9354468,N,07928.0380555,W,4,07,1.1,187.928,M,-37.20,M,03,0000*6A
$GPGGA,195702.75,4346.9355691,N,07928.0380139,W,4,07,1.1,187.935,M,-37.20,M,03,0000*6A
$GPGGA,195703.00,4346.9356980,N,07928.0379658,W,4,07,1.1,187.906,M,-37.20,M,04,0000*64
$GPGGA,195703.25,4346.9358109,N,07928.0379240,W,4,07,1.1,187.923,M,-37.20,M,04,0000*6E
$GPGGA,195703.50,4346.9359274,N,07928.0378751,W,4,07,1.1,187.935,M,-37.20,M,04,0000*67
$GPGGA,195703.75,4346.9360352,N,07928.0378407,W,4,07,1.1,187.929,M,-37.20,M,04,0000*62
$GPGGA,195704.00,4346.9361560,N,07928.0378049,W,4,07,1.1,187.954,M,-37.20,M,05,0000*64
$GPGGA,195704.25,4346.9362725,N,07928.0377514,W,4,07,1.1,187.948,M,-37.20,M,05,0000*6C
$GPGGA,195704.50,4346.9363941,N,07928.0376928,W,4,07,1.1,187.942,M,-37.20,M,05,0000*6B
$GPGGA,195704.75,4346.9365116,N,07928.0376417,W,4,07,1.1,187.948,M,-37.20,M,05,0000*6B
$GPGGA,195705.00,4346.9366263,N,07928.0375965,W,4,07,1.1,187.948,M,-37.20,M,06,0000*62
$GPGGA,195705.25,4346.9367438,N,07928.0375481,W,4,06,1.1,187.961,M,-37.20,M,06,0000*61
$GPGGA,195705.50,4346.9368595,N,07928.0374992,W,4,06,1.1,187.960,M,-37.20,M,06,0000*65
$GPGGA,195705.75,4346.9369745,N,07928.0374513,W,4,07,1.1,187.975,M,-37.20,M,06,0000*6C
$GPGGA,195706.00,4346.9370911,N,07928.0373968,W,4,07,1.1,187.958,M,-37.20,M,07,0000*63
$GPGGA,195706.25,4346.9372114,N,07928.0373487,W,4,07,1.1,187.976,M,-37.20,M,07,0000*6B
$GPGGA,195706.50,4346.9373373,N,07928.0372924,W,4,07,1.1,187.973,M,-37.20,M,07,0000*6B
$GPGGA,195706.75,4346.9374520,N,07928.0372411,W,4,07,1.1,187.978,M,-37.20,M,07,0000*6B
$GPGGA,195707.00,4346.9375601,N,07928.0371870,W,4,07,1.1,187.977,M,-37.20,M,08,0000*61
$GPGGA,195707.25,4346.9376782,N,07928.0371356,W,4,07,1.1,187.974,M,-37.20,M,08,0000*63
$GPGGA,195707.50,4346.9377939,N,07928.0370831,W,4,07,1.1,187.986,M,-37.20,M,08,0000*68
$GPGGA,195707.75,4346.9379093,N,07928.0370316,W,4,07,1.1,187.995,M,-37.20,M,08,0000*64
$GPGGA,195708.00,4346.9380316,N,07928.0369816,W,4,07,1.1,187.999,M,-37.20,M,09,0000*6F
$GPGGA,195708.25,4346.9381526,N,07928.0369311,W,4,07,1.1,187.992,M,-37.20,M,09,0000*6B
$GPGGA,195708.50,4346.9382740,N,07928.0368741,W,4,06,1.1,187.980,M,-37.20,M,09,0000*6A
$GPGGA,195708.75,4346.9383901,N,07928.0368228,W,4,06,1.3,187.981,M,-37.20,M,09,0000*6E
$GPGGA,195709.00,4346.9385015,N,07928.0367791,W,4,06,1.3,187.983,M,-37.20,M,10,0000*65
$GPGGA,195709.25,4346.9386219,N,07928.0367274,W,4,06,1.3,188.008,M,-37.20,M,10,0000*64
$GPGGA,195709.50,4346.9387405,N,07928.0366968,W,4,06,1.3,188.025,M,-37.20,M,10,0000*64
$GPGGA,195709.75,4346.9388573,N,07928.0366532,W,4,06,1.3,188.041,M,-37.20,M,10,0000*6D
$GPGGA,195710.00,4346.9389786,N,07928.0366168,W,4,06,1.3,188.050,M,-37.20,M,11,0000*64
$GPGGA,195710.25,4346.9390936,N,07928.0365764,W,4,06,1.3,188.065,M,-37.20,M,11,0000*61
$GPGGA,195710.50,4346.9392177,N,07928.0365549,W,4,06,1.3,188.050,M,-37.20,M,11,0000*67
$GPGGA,195710.75,4346.9393404,N,07928.0365346,W,4,06,1.3,188.067,M,-37.20,M,11,0000*6D
$GPGGA,195711.00,4346.9394640,N,07928.0365174,W,4,06,1.3,188.077,M,-37.20,M,12,0000*6A
$GPGGA,195711.25,4346.9395902,N,07928.0365011,W,4,06,1.3,188.079,M,-37.20,M,12,0000*69
$GPGGA,195711.50,4346.9397219,N,07928.0364992,W,4,06,1.3,188.070,M,-37.20,M,12,0000*62
$GPGGA,195711.75,4346.9398482,N,07928.0365023,W,4,06,1.3,188.083,M,-37.20,M,12,0000*60
$GPGGA,195712.00,4346.9399735,N,07928.0365108,W,4,06,1.3,188.089,M,-37.20,M,13,0000*6C
$GPGGA,195712.25,4346.9400899,N,07928.0365290,W,4,06,1.3,188.089,M,-37.20,M,13,0000*67
$GPGGA,195712.50,4346.9402103,N,07928.0365516,W,4,06,1.3,188.086,M,-37.20,M,13,0000*6B
$GPGGA,195712.75,4346.9403276,N,07928.0365814,W,4,06,1.3,188.081,M,-37.20,M,13,0000*64
$GPGGA,195713.00,4346.9404508,N,07928.0366197,W,4,06,1.3,188.080,M,-37.20,M,14,0000*69
$GPGGA,195713.25,4346.9405543,N,07928.0366644,W,4,06,1.3,188.150,M,-37.20,M,00,0000*60
