$GPGGA,180455.00,4346.9294943,N,07927.9660317,W,4,05,4.0,189.417,M,-37.20,M,01,0000*65
$GPGGA,180455.25,4346.9294982,N,07927.9660329,W,4,05,4.0,189.416,M,-37.20,M,00,0000*62
$GPGGA,180455.50,4346.9295007,N,07927.9660348,W,4,05,4.0,189.411,M,-37.20,M,00,0000*65
$GPGGA,180455.75,4346.9295006,N,07927.9660363,W,4,05,4.0,189.406,M,-37.20,M,00,0000*6C
$GPGGA,180456.00,4346.9295038,N,07927.9660431,W,4,05,4.0,189.396,M,-37.20,M,01,0000*6F
$GPGGA,180456.25,4346.9294976,N,07927.9660324,W,4,05,4.0,189.418,M,-37.20,M,00,0000*69
$GPGGA,180456.50,4346.9294980,N,07927.9660345,W,4,05,4.0,189.416,M,-37.20,M,00,0000*6B
$GPGGA,180456.75,4346.9294964,N,07927.9660309,W,4,05,4.0,189.423,M,-37.20,M,00,0000*68
$GPGGA,180457.00,4346.9294975,N,07927.9660361,W,4,05,4.0,189.415,M,-37.20,M,01,0000*61
$GPGGA,180457.25,4346.9295006,N,07927.9660416,W,4,05,4.0,189.396,M,-37.20,M,00,0000*60
$GPGGA,180457.50,4346.9295036,N,07927.9660453,W,4,05,4.0,189.379,M,-37.20,M,00,0000*61
$GPGGA,180457.75,4346.9295017,N,07927.9660433,W,4,05,4.0,189.383,M,-37.20,M,00,0000*66
$GPGGA,180458.00,4346.9295010,N,07927.9660397,W,4,05,4.0,189.400,M,-37.20,M,01,0000*68
$GPGGA,180458.25,4346.9295039,N,07927.9660474,W,4,05,4.0,189.383,M,-37.20,M,00,0000*63
$GPGGA,180458.50,4346.9295029,N,07927.9660449,W,4,05,4.0,189.385,M,-37.20,M,00,0000*68
$GPGGA,180458.75,4346.9295032,N,07927.9660477,W,4,05,4.0,189.387,M,-37.20,M,00,0000*6A
$GPGGA,180459.00,4346.9295013,N,07927.9660427,W,4,05,4.0,189.396,M,-37.20,M,01,0000*6E
$GPGGA,180459.25,4346.9294988,N,07927.9660402,W,4,05,4.0,189.400,M,-37.20,M,00,0000*6D
$GPGGA,180459.50,4346.9294976,N,07927.9660390,W,4,05,4.0,189.403,M,-37.20,M,00,0000*61
$GPGGA,180459.75,4346.9294966,N,07927.9660355,W,4,05,4.0,189.411,M,-37.20,M,00,0000*6D
$GPGGA,180500.00,4346.9294955,N,07927.9660331,W,4,05,4.0,189.423,M,-37.20,M,01,0000*60
$GPGGA,180500.25,4346.9294997,N,07927.9660447,W,4,05,4.0,189.390,M,-37.20,M,00,0000*61
$GPGGA,180500.50,4346.9295007,N,07927.9660434,W,4,05,4.0,189.398,M,-37.20,M,00,0000*6E
$GPGGA,180500.75,4346.9295001,N,07927.9660411,W,4,05,4.0,189.396,M,-37.20,M,00,0000*66
$GPGGA,180501.00,4346.9294982,N,07927.9660453,W,4,05,4.0,189.391,M,-37.20,M,01,0000*66
$GPGGA,180501.25,4346.9294978,N,07927.9660390,W,4,05,4.0,189.408,M,-37.20,M,00,0000*6A
$GPGGA,180501.50,4346.9294985,N,07927.9660364,W,4,06,4.0,189.406,M,-37.20,M,00,0000*6C
$GPGGA,180501.75,4346.9294975,N,07927.9660382,W,4,06,4.0,189.408,M,-37.20,M,00,0000*62
$GPGGA,180502.00,4346.9294990,N,07927.9660380,W,4,06,4.0,189.406,M,-37.20,M,01,0000*65
$GPGGA,180502.25,4346.9294995,N,07927.9660375,W,4,06,4.0,189.407,M,-37.20,M,00,0000*6D
$GPGGA,180502.50,4346.9294967,N,07927.9660318,W,4,06,4.0,189.416,M,-37.20,M,00,0000*69
$GPGGA,180502.75,4346.9294974,N,07927.9660331,W,4,06,2.4,189.413,M,-37.20,M,00,0000*60
$GPGGA,180503.00,4346.9294970,N,07927.9660327,W,4,06,2.4,189.419,M,-37.20,M,01,0000*6B
$GPGGA,180503.25,4346.9294967,N,07927.9660326,W,4,06,2.4,189.415,M,-37.20,M,00,0000*66
$GPGGA,180503.50,4346.9294980,N,07927.9660358,W,4,06,2.4,189.411,M,-37.20,M,00,0000*60
$GPGGA,180503.75,4346.9294983,N,07927.9660336,W,4,06,2.4,189.413,M,-37.20,M,00,0000*6E
$GPGGA,180504.00,4346.9294998,N,07927.9660345,W,4,06,2.4,189.410,M,-37.20,M,01,0000*67
$GPGGA,180504.25,4346.9295027,N,07927.9660412,W,4,06,2.4,189.394,M,-37.20,M,00,0000*63
$GPGGA,180504.50,4346.9295017,N,07927.9660386,W,4,06,2.4,189.396,M,-37.20,M,00,0000*6A
$GPGGA,180504.75,4346.9295047,N,07927.9660420,W,4,06,2.4,189.396,M,-37.20,M,00,0000*63
$GPGGA,180505.00,4346.9295012,N,07927.9660354,W,4,06,2.4,189.406,M,-37.20,M,01,0000*6B
$GPGGA,180505.25,4346.9294988,N,07927.9660333,W,4,06,2.4,189.417,M,-37.20,M,00,0000*67
$GPGGA,180505.50,4346.9295008,N,07927.9660340,W,4,06,2.4,189.416,M,-37.20,M,00,0000*60
$GPGGA,180505.75,4346.9294989,N,07927.9660348,W,4,06,2.4,189.421,M,-37.20,M,00,0000*6A
$GPGGA,180506.00,4346.9295008,N,07927.9660335,W,4,06,2.4,189.417,M,-37.20,M,01,0000*64
$GPGGA,180506.25,4346.9294955,N,07927.9660307,W,4,06,2.4,189.433,M,-37.20,M,00,0000*65
$GPGGA,180506.50,4346.9294977,N,07927.9660335,W,4,06,2.4,189.428,M,-37.20,M,00,0000*6C
$GPGGA,180506.75,4346.9294962,N,07927.9660293,W,4,06,2.4,189.432,M,-37.20,M,00,0000*69
$GPGGA,180507.00,4346.9294948,N,07927.9660307,W,4,06,2.4,189.431,M,-37.20,M,01,0000*6C
$GPGGA,180507.25,4346.9294962,N,07927.9660298,W,4,06,2.4,189.421,M,-37.20,M,00,0000*64
$GPGGA,180507.50,4346.9294966,N,07927.9660320,W,4,06,2.4,189.417,M,-37.20,M,00,0000*65
$GPGGA,180507.75,4346.9294974,N,07927.9660304,W,4,06,2.4,189.421,M,-37.20,M,00,0000*62
$GPGGA,180508.00,4346.9295010,N,07927.9660350,W,4,06,2.4,189.408,M,-37.20,M,01,0000*6E
$GPGGA,180508.25,4346.9294961,N,07927.9660366,W,4,06,2.4,189.406,M,-37.20,M,00,0000*6D
$GPGGA,180508.50,4346.9294977,N,07927.9660351,W,4,06,2.4,189.410,M,-37.20,M,00,0000*6B
$GPGGA,180508.75,4346.9294997,N,07927.9660436,W,4,06,2.4,189.395,M,-37.20,M,00,0000*6E
$GPGGA,180509.00,4346.9294963,N,07927.9660342,W,4,06,2.4,189.412,M,-37.20,M,01,0000*6B
$GPGGA,180509.25,4346.9294992,N,07927.9660373,W,4,06,2.4,189.404,M,-37.20,M,00,0000*66
$GPGGA,180509.50,4346.9295017,N,07927.9660414,W,4,06,2.4,189.397,M,-37.20,M,00,0000*6A
$GPGGA,180509.75,4346.9295000,N,07927.9660413,W,4,06,2.4,189.399,M,-37.20,M,00,0000*62
$GPGGA,180510.00,4346.9295006,N,07927.9660413,W,4,06,2.4,189.398,M,-37.20,M,01,0000*6E
$GPGGA,180510.25,4346.9295044,N,07927.9660425,W,4,06,2.4,189.394,M,-37.20,M,00,0000*67
$GPGGA,180510.50,4346.9295009,N,07927.9660357,W,4,06,2.4,189.412,M,-37.20,M,00,0000*67
$GPGGA,180510.75,4346.9294998,N,07927.9660351,W,4,06,2.4,189.411,M,-37.20,M,00,0000*65
$GPGGA,180511.00,4346.9294992,N,07927.9660360,W,4,06,2.4,189.411,M,-37.20,M,01,0000*6F
$GPGGA,180511.25,4346.9294989,N,07927.9660392,W,4,06,2.4,189.396,M,-37.20,M,00,0000*66
$GPGGA,180511.50,4346.9295038,N,07927.9660445,W,4,06,2.4,189.389,M,-37.20,M,00,0000*65
$GPGGA,180511.75,4346.9295004,N,07927.9660427,W,4,06,2.4,189.394,M,-37.20,M,00,0000*65
$GPGGA,180512.00,4346.9295027,N,07927.9660438,W,4,06,2.4,189.397,M,-37.20,M,01,0000*69
$GPGGA,180512.25,4346.9295000,N,07927.9660380,W,4,06,2.4,189.405,M,-37.20,M,00,0000*62
$GPGGA,180512.50,4346.9294984,N,07927.9660325,W,4,06,2.4,189.421,M,-37.20,M,00,0000*6D
$GPGGA,180512.75,4346.9294972,N,07927.9660358,W,4,06,2.4,189.415,M,-37.20,M,00,0000*6E
$GPGGA,180513.00,4346.9294955,N,07927.9660303,W,4,06,2.4,189.419,M,-37.20,M,01,0000*6B
$GPGGA,180513.25,4346.9294979,N,07927.9660367,W,4,06,2.4,189.405,M,-37.20,M,00,0000*6C
$GPGGA,180513.50,4346.9294982,N,07927.9660382,W,4,06,2.4,189.408,M,-37.20,M,00,0000*6C
$GPGGA,180513.75,4346.9295005,N,07927.9660420,W,4,06,2.4,189.400,M,-37.20,M,00,0000*6B
$GPGGA,180514.00,4346.9294977,N,07927.9660380,W,4,06,2.4,189.407,M,-37.20,M,01,0000*68
$GPGGA,180514.25,4346.9295001,N,07927.9660398,W,4,06,2.4,189.397,M,-37.20,M,00,0000*60
$GPGGA,180514.50,4346.9295002,N,07927.9660390,W,4,06,2.4,189.404,M,-37.20,M,00,0000*64
$GPGGA,180514.75,4346.9295001,N,07927.9660409,W,4,06,2.4,189.391,M,-37.20,M,00,0000*6C
$GPGGA,180515.00,4346.9295011,N,07927.9660423,W,4,06,2.4,189.392,M,-37.20,M,01,0000*64
$GPGGA,180515.25,4346.9295002,N,07927.9660331,W,4,06,2.4,189.411,M,-37.20,M,00,0000*68
$GPGGA,180515.50,4346.9294978,N,07927.9660269,W,4,06,2.4,189.421,M,-37.20,M,00,0000*60
$GPGGA,180515.75,4346.9294903,N,07927.9660049,W,4,06,2.4,189.441,M,-37.20,M,00,0000*6D
$GPGGA,180516.00,4346.9294671,N,07927.9659492,W,4,06,2.4,189.494,M,-37.20,M,01,0000*67
$GPGGA,180516.25,4346.9294702,N,07927.9659325,W,4,06,2.4,189.443,M,-37.20,M,00,0000*65
$GPGGA,180516.50,4346.9294678,N,07927.9658943,W,4,05,2.4,189.420,M,-37.20,M,00,0000*66
$GPGGA,180516.75,4346.9294544,N,07927.9658292,W,4,05,4.0,189.437,M,-37.20,M,00,0000*6E
$GPGGA,180517.00,4346.9294409,N,07927.9657599,W,4,05,4.0,189.446,M,-37.20,M,01,0000*61
$GPGGA,180517.25,4346.9294361,N,07927.9657003,W,4,06,1.7,189.444,M,-37.20,M,00,0000*6B
$GPGGA,180517.50,4346.9294410,N,07927.9656455,W,4,06,1.7,189.418,M,-37.20,M,00,0000*67
$GPGGA,180517.75,4346.9294337,N,07927.9655677,W,4,06,1.7,189.433,M,-37.20,M,00,0000*6A
$GPGGA,180518.00,4346.9294168,N,07927.9654779,W,4,06,1.7,189.471,M,-37.20,M,01,0000*66
$GPGGA,180518.25,4346.9294203,N,07927.9654171,W,4,06,1.7,189.425,M,-37.20,M,00,0000*61
$GPGGA,180518.50,4346.9294252,N,07927.9653377,W,4,06,1.7,189.418,M,-37.20,M,00,0000*6A
$GPGGA,180518.75,4346.9294292,N,07927.9652593,W,4,06,1.7,189.419,M,-37.20,M,00,0000*6D
$GPGGA,180519.00,4346.9294141,N,07927.9651560,W,4,06,1.7,189.471,M,-37.20,M,01,0000*63
$GPGGA,180519.25,4346.9294088,N,07927.9650592,W,4,06,1.7,189.469,M,-37.20,M,00,0000*64
$GPGGA,180519.50,4346.9294113,N,07927.9649435,W,4,07,1.7,189.478,M,-37.20,M,00,0000*60
$GPGGA,180519.75,4346.9293978,N,07927.9647924,W,4,07,1.7,189.488,M,-37.20,M,00,0000*69
$GPGGA,180520.00,4346.9293982,N,07927.9646625,W,4,07,1.7,189.484,M,-37.20,M,01,0000*66
$GPGGA,180520.25,4346.9293989,N,07927.9645319,W,4,07,1.7,189.438,M,-37.20,M,00,0000*65
$GPGGA,180520.50,4346.9293934,N,07927.9643831,W,4,07,1.7,189.457,M,-37.20,M,00,0000*6F
$GPGGA,180520.75,4346.9293907,N,07927.9642350,W,4,07,1.2,189.466,M,-37.20,M,00,0000*62
$GPGGA,180521.00,4346.9293775,N,07927.9640856,W,4,07,1.2,189.447,M,-37.20,M,01,0000*67
$GPGGA,180521.25,4346.9293772,N,07927.9639247,W,4,07,1.2,189.466,M,-37.20,M,00,0000*61
$GPGGA,180521.50,4346.9293758,N,07927.9637636,W,4,07,1.2,189.470,M,-37.20,M,00,0000*60
$GPGGA,180521.75,4346.9293694,N,07927.9636075,W,4,07,1.2,189.471,M,-37.20,M,00,0000*67
$GPGGA,180522.00,4346.9293673,N,07927.9634442,W,4,06,1.2,189.457,M,-37.20,M,01,0000*69
$GPGGA,180522.25,4346.9293682,N,07927.9632853,W,4,06,1.5,189.456,M,-37.20,M,00,0000*6D
$GPGGA,180522.50,4346.9293651,N,07927.9631227,W,4,06,1.5,189.468,M,-37.20,M,00,0000*66
$GPGGA,180522.75,4346.9293675,N,07927.9629618,W,4,06,1.5,189.473,M,-37.20,M,00,0000*6C
$GPGGA,180523.00,4346.9293660,N,07927.9628004,W,4,06,1.5,189.464,M,-37.20,M,01,0000*66
$GPGGA,180523.25,4346.9293654,N,07927.9626368,W,4,06,1.5,189.481,M,-37.20,M,00,0000*6B
$GPGGA,180523.50,4346.9293689,N,07927.9624745,W,4,06,1.5,189.477,M,-37.20,M,00,0000*69
$GPGGA,180523.75,4346.9293663,N,07927.9623086,W,4,06,1.5,189.477,M,-37.20,M,00,0000*65
$GPGGA,180524.00,4346.9293704,N,07927.9621425,W,4,06,1.5,189.480,M,-37.20,M,01,0000*66
$GPGGA,180524.25,4346.9293662,N,07927.9619796,W,4,06,1.5,189.498,M,-37.20,M,00,0000*68
$GPGGA,180524.50,4346.9293707,N,07927.9618117,W,4,06,1.5,189.511,M,-37.20,M,00,0000*66
$GPGGA,180524.75,4346.9293766,N,07927.9616534,W,4,06,1.5,189.512,M,-37.20,M,00,0000*6E
$GPGGA,180525.00,4346.9293817,N,07927.9614971,W,4,06,1.5,189.523,M,-37.20,M,01,0000*68
$GPGGA,180525.25,4346.9293857,N,07927.9613193,W,4,06,1.5,189.516,M,-37.20,M,00,0000*6F
$GPGGA,180525.50,4346.9293922,N,07927.9611556,W,4,07,1.5,189.509,M,-37.20,M,00,0000*6E
$GPGGA,180525.75,4346.9293954,N,07927.9609890,W,4,07,1.2,189.515,M,-37.20,M,00,0000*6C
$GPGGA,180526.00,4346.9294021,N,07927.9608215,W,4,07,1.2,189.515,M,-37.20,M,01,0000*66
$GPGGA,180526.25,4346.9294014,N,07927.9606526,W,4,06,1.2,189.529,M,-37.20,M,00,0000*61
$GPGGA,180526.50,4346.9294122,N,07927.9604839,W,4,06,1.2,189.525,M,-37.20,M,00,0000*6A
$GPGGA,180526.75,4346.9294169,N,07927.9603192,W,4,06,1.5,189.548,M,-37.20,M,00,0000*61
$GPGGA,180527.00,4346.9294284,N,07927.9601521,W,4,06,1.5,189.546,M,-37.20,M,01,0000*63
$GPGGA,180527.25,4346.9294313,N,07927.9599850,W,4,06,1.5,189.536,M,-37.20,M,00,0000*64
$GPGGA,180527.50,4346.9294385,N,07927.9598167,W,4,06,1.5,189.550,M,-37.20,M,00,0000*65
$GPGGA,180527.75,4346.9294461,N,07927.9596535,W,4,06,1.5,189.553,M,-37.20,M,00,0000*61
$GPGGA,180528.00,4346.9294485,N,07927.9594856,W,4,06,1.5,189.568,M,-37.20,M,01,0000*65
$GPGGA,180528.25,4346.9294617,N,07927.9593125,W,4,06,1.5,189.563,M,-37.20,M,00,0000*6B
$GPGGA,180528.50,4346.9294676,N,07927.9591464,W,4,06,1.5,189.574,M,-37.20,M,00,0000*6A
$GPGGA,180528.75,4346.9294783,N,07927.9589837,W,4,06,1.5,189.574,M,-37.20,M,00,0000*65
$GPGGA,180529.00,4346.9294906,N,07927.9588098,W,4,06,1.5,189.594,M,-37.20,M,01,0000*66
$GPGGA,180529.25,4346.9294969,N,07927.9586466,W,4,06,1.5,189.603,M,-37.20,M,00,0000*6F
$GPGGA,180529.50,4346.9295107,N,07927.9584783,W,4,06,1.5,189.600,M,-37.20,M,00,0000*65
$GPGGA,180529.75,4346.9295204,N,07927.9583118,W,4,06,1.5,189.612,M,-37.20,M,00,0000*62
$GPGGA,180530.00,4346.9295346,N,07927.9581511,W,4,06,1.5,189.619,M,-37.20,M,01,0000*6A
$GPGGA,180530.25,4346.9295507,N,07927.9579825,W,4,06,1.5,189.623,M,-37.20,M,00,0000*6B
$GPGGA,180530.50,4346.9295721,N,07927.9578170,W,4,06,1.5,189.633,M,-37.20,M,00,0000*66
$GPGGA,180530.75,4346.9296040,N,07927.9576576,W,4,06,1.5,189.623,M,-37.20,M,00,0000*6F
$GPGGA,180531.00,4346.9296276,N,07927.9574891,W,4,06,1.5,189.637,M,-37.20,M,01,0000*69
$GPGGA,180531.25,4346.9296440,N,07927.9573285,W,4,06,1.5,189.646,M,-37.20,M,00,0000*62
$GPGGA,180531.50,4346.9296674,N,07927.9571575,W,4,06,1.5,189.642,M,-37.20,M,00,0000*6B
$GPGGA,180531.75,4346.9296930,N,07927.9569910,W,4,06,1.5,189.646,M,-37.20,M,00,0000*61
$GPGGA,180532.00,4346.9297196,N,07927.9568231,W,4,07,1.5,189.651,M,-37.20,M,01,0000*6A
$GPGGA,180532.25,4346.9297416,N,07927.9566567,W,4,07,1.2,189.649,M,-37.20,M,00,0000*65
$GPGGA,180532.50,4346.9297683,N,07927.9564872,W,4,07,1.2,189.652,M,-37.20,M,00,0000*68
$GPGGA,180532.75,4346.9297970,N,07927.9563165,W,4,07,1.2,189.659,M,-37.20,M,00,0000*6F
$GPGGA,180533.00,4346.9298247,N,07927.9561557,W,4,07,1.2,189.666,M,-37.20,M,01,0000*66
$GPGGA,180533.25,4346.9298510,N,07927.9560015,W,4,07,1.2,189.685,M,-37.20,M,00,0000*6A
$GPGGA,180533.50,4346.9298757,N,07927.9558464,W,4,07,1.2,189.700,M,-37.20,M,00,0000*6C
$GPGGA,180533.75,4346.9298964,N,07927.9556967,W,4,07,1.2,189.718,M,-37.20,M,00,0000*6C
$GPGGA,180534.00,4346.9299185,N,07927.9555294,W,4,07,1.2,189.727,M,-37.20,M,01,0000*66
$GPGGA,180534.25,4346.9299289,N,07927.9553492,W,4,08,1.2,189.717,M,-37.20,M,00,0000*65
$GPGGA,180534.50,4346.9299219,N,07927.9551763,W,4,08,1.2,189.719,M,-37.20,M,00,0000*6F
$GPGGA,180534.75,4346.9299176,N,07927.9550065,W,4,08,1.2,189.734,M,-37.20,M,00,0000*6D
$GPGGA,180535.00,4346.9299065,N,07927.9548445,W,4,07,1.2,189.732,M,-37.20,M,01,0000*6A
$GPGGA,180535.25,4346.9298884,N,07927.9546725,W,4,07,1.3,189.756,M,-37.20,M,00,0000*62
$GPGGA,180535.50,4346.9298864,N,07927.9545088,W,4,07,1.3,189.761,M,-37.20,M,00,0000*69
$GPGGA,180535.75,4346.9298814,N,07927.9543413,W,4,07,1.2,189.758,M,-37.20,M,00,0000*62
$GPGGA,180536.00,4346.9298758,N,07927.9541760,W,4,07,1.2,189.768,M,-37.20,M,01,0000*63
$GPGGA,180536.25,4346.9298689,N,07927.9540000,W,4,08,1.2,189.781,M,-37.20,M,00,0000*60
$GPGGA,180536.50,4346.9298644,N,07927.9538308,W,4,08,1.2,189.783,M,-37.20,M,00,0000*65
$GPGGA,180536.75,4346.9298587,N,07927.9536696,W,4,08,1.2,189.808,M,-37.20,M,00,0000*6E
$GPGGA,180537.00,4346.9298469,N,07927.9535056,W,4,08,1.2,189.807,M,-37.20,M,01,0000*6B
$GPGGA,180537.25,4346.9298407,N,07927.9533310,W,4,08,1.2,189.809,M,-37.20,M,00,0000*6C
$GPGGA,180537.50,4346.9298350,N,07927.9531665,W,4,08,1.2,189.814,M,-37.20,M,00,0000*62
$GPGGA,180537.75,4346.9298216,N,07927.9529967,W,4,08,1.2,189.824,M,-37.20,M,00,0000*61
$GPGGA,180538.00,4346.9298132,N,07927.9528284,W,4,08,1.2,189.843,M,-37.20,M,01,0000*6E
$GPGGA,180538.25,4346.9298059,N,07927.9526619,W,4,08,1.2,189.837,M,-37.20,M,00,0000*69
$GPGGA,180538.50,4346.9297937,N,07927.9524931,W,4,07,1.2,189.838,M,-37.20,M,00,0000*62
$GPGGA,180538.75,4346.9297861,N,07927.9523275,W,4,07,1.3,189.849,M,-37.20,M,00,0000*6C
$GPGGA,180539.00,4346.9297765,N,07927.9521586,W,4,07,1.3,189.864,M,-37.20,M,01,0000*63
$GPGGA,180539.25,4346.9297710,N,07927.9519899,W,4,07,1.3,189.862,M,-37.20,M,00,0000*69
$GPGGA,180539.50,4346.9297622,N,07927.9518201,W,4,07,1.3,189.873,M,-37.20,M,00,0000*61
$GPGGA,180539.75,4346.9297491,N,07927.9516520,W,4,07,1.3,189.870,M,-37.20,M,00,0000*65
$GPGGA,180540.00,4346.9297393,N,07927.9514829,W,4,07,1.3,189.887,M,-37.20,M,01,0000*63
$GPGGA,180540.25,4346.9297292,N,07927.9513156,W,4,07,1.3,189.883,M,-37.20,M,00,0000*67
$GPGGA,180540.50,4346.9297213,N,07927.9511443,W,4,07,1.3,189.882,M,-37.20,M,00,0000*6E
$GPGGA,180540.75,4346.9297124,N,07927.9509722,W,4,07,1.3,189.903,M,-37.20,M,00,0000*6B
$GPGGA,180541.00,4346.9297011,N,07927.9508051,W,4,07,1.3,189.899,M,-37.20,M,01,0000*6E
$GPGGA,180541.25,4346.9296919,N,07927.9506359,W,4,07,1.3,189.923,M,-37.20,M,00,0000*6D
$GPGGA,180541.50,4346.9296815,N,07927.9504688,W,4,07,1.3,189.916,M,-37.20,M,00,0000*6F
$GPGGA,180541.75,4346.9296740,N,07927.9502976,W,4,07,1.3,189.937,M,-37.20,M,00,0000*6C
$GPGGA,180542.00,4346.9296639,N,07927.9501317,W,4,07,1.3,189.944,M,-37.20,M,01,0000*69
$GPGGA,180542.25,4346.9296564,N,07927.9499560,W,4,07,1.3,189.936,M,-37.20,M,00,0000*67
$GPGGA,180542.50,4346.9296464,N,07927.9497832,W,4,07,1.3,189.945,M,-37.20,M,00,0000*64
$GPGGA,180542.75,4346.9296419,N,07927.9496135,W,4,07,1.3,189.939,M,-37.20,M,00,0000*6D
$GPGGA,180543.00,4346.9296317,N,07927.9494449,W,4,07,1.3,189.946,M,-37.20,M,01,0000*62
$GPGGA,180543.25,4346.9296237,N,07927.9492792,W,4,07,1.3,189.945,M,-37.20,M,00,0000*67
$GPGGA,180543.50,4346.9296251,N,07927.9491061,W,4,07,1.3,189.968,M,-37.20,M,00,0000*62
$GPGGA,180543.75,4346.9296310,N,07927.9489375,W,4,07,1.3,189.958,M,-37.20,M,00,0000*6D
$GPGGA,180544.00,4346.9296326,N,07927.9487717,W,4,07,1.3,189.987,M,-37.20,M,01,0000*60
$GPGGA,180544.25,4346.9296361,N,07927.9486015,W,4,07,1.3,189.983,M,-37.20,M,00,0000*65
$GPGGA,180544.50,4346.9296393,N,07927.9484317,W,4,07,1.3,189.977,M,-37.20,M,00,0000*62
$GPGGA,180544.75,4346.9296422,N,07927.9482653,W,4,07,1.3,190.005,M,-37.20,M,00,0000*6F
$GPGGA,180545.00,4346.9296477,N,07927.9480978,W,4,07,1.3,189.996,M,-37.20,M,01,0000*62
$GPGGA,180545.25,4346.9296494,N,07927.9479292,W,4,08,1.2,190.017,M,-37.20,M,00,0000*66
$GPGGA,180545.50,4346.9296512,N,07927.9477536,W,4,08,1.2,190.020,M,-37.20,M,00,0000*68
$GPGGA,180545.75,4346.9296516,N,07927.9475873,W,4,08,1.2,190.025,M,-37.20,M,00,0000*60
$GPGGA,180546.00,4346.9296581,N,07927.9474155,W,4,08,1.2,190.039,M,-37.20,M,01,0000*6F
$GPGGA,180546.25,4346.9296629,N,07927.9472446,W,4,08,1.2,190.036,M,-37.20,M,00,0000*66
$GPGGA,180546.50,4346.9296650,N,07927.9470739,W,4,08,1.2,190.025,M,-37.20,M,00,0000*61
$GPGGA,180546.75,4346.9296665,N,07927.9469108,W,4,08,1.2,190.044,M,-37.20,M,00,0000*6B
$GPGGA,180547.00,4346.9296770,N,07927.9467458,W,4,08,1.2,190.050,M,-37.20,M,01,0000*67
$GPGGA,180547.25,4346.9296859,N,07927.9465786,W,4,08,1.2,190.047,M,-37.20,M,00,0000*61
$GPGGA,180547.50,4346.9296949,N,07927.9464146,W,4,08,1.2,190.056,M,-37.20,M,00,0000*68
$GPGGA,180547.75,4346.9297045,N,07927.9462454,W,4,08,1.2,190.059,M,-37.20,M,00,0000*64
$GPGGA,180548.00,4346.9297166,N,07927.9460779,W,4,08,1.2,190.068,M,-37.20,M,01,0000*64
$GPGGA,180548.25,4346.9297335,N,07927.9459061,W,4,08,1.2,190.066,M,-37.20,M,00,0000*6C
$GPGGA,180548.50,4346.9297507,N,07927.9457346,W,4,08,1.2,190.078,M,-37.20,M,00,0000*6E
$GPGGA,180548.75,4346.9297709,N,07927.9455752,W,4,08,1.2,190.087,M,-37.20,M,00,0000*66
$GPGGA,180549.00,4346.9297925,N,07927.9454007,W,4,08,1.2,190.080,M,-37.20,M,01,0000*65
$GPGGA,180549.25,4346.9298080,N,07927.9452481,W,4,08,1.2,190.099,M,-37.20,M,00,0000*6E
$GPGGA,180549.50,4346.9298330,N,07927.9450800,W,4,08,1.2,190.103,M,-37.20,M,00,0000*61
$GPGGA,180549.75,4346.9298478,N,07927.9449136,W,4,08,1.2,190.105,M,-37.20,M,00,0000*6F
$GPGGA,180550.00,4346.9298612,N,07927.9447562,W,4,08,1.2,190.112,M,-37.20,M,01,0000*67
$GPGGA,180550.25,4346.9298788,N,07927.9445833,W,4,08,1.2,190.124,M,-37.20,M,00,0000*6D
$GPGGA,180550.50,4346.9298996,N,07927.9444157,W,4,08,1.2,190.130,M,-37.20,M,00,0000*61
$GPGGA,180550.75,4346.9299172,N,07927.9442541,W,4,08,1.2,190.137,M,-37.20,M,00,0000*67
$GPGGA,180551.00,4346.9299396,N,07927.9440885,W,4,08,1.2,190.152,M,-37.20,M,01,0000*69
$GPGGA,180551.25,4346.9299593,N,07927.9439119,W,4,08,1.2,190.136,M,-37.20,M,00,0000*6C
$GPGGA,180551.50,4346.9299799,N,07927.9437444,W,4,08,1.2,190.130,M,-37.20,M,00,0000*63
$GPGGA,180551.75,4346.9300082,N,07927.9435780,W,4,08,1.2,190.128,M,-37.20,M,00,0000*68
$GPGGA,180552.00,4346.9300300,N,07927.9434157,W,4,08,1.2,190.145,M,-37.20,M,01,0000*67
$GPGGA,180552.25,4346.9300565,N,07927.9432517,W,4,08,1.2,190.146,M,-37.20,M,00,0000*61
$GPGGA,180552.50,4346.9300767,N,07927.9430827,W,4,08,1.2,190.147,M,-37.20,M,00,0000*6E
$GPGGA,180552.75,4346.9301006,N,07927.9429205,W,4,08,1.2,190.153,M,-37.20,M,00,0000*6F
$GPGGA,180553.00,4346.9301295,N,07927.9427500,W,4,07,1.2,190.138,M,-37.20,M,01,0000*6B
$GPGGA,180553.25,4346.9301523,N,07927.9425829,W,4,07,1.3,190.153,M,-37.20,M,00,0000*6F
$GPGGA,180553.50,4346.9301727,N,07927.9424229,W,4,07,1.3,190.161,M,-37.20,M,00,0000*61
$GPGGA,180553.75,4346.9301979,N,07927.9422583,W,4,07,1.3,190.166,M,-37.20,M,00,0000*65
$GPGGA,180554.00,4346.9302249,N,07927.9421012,W,4,07,1.3,190.176,M,-37.20,M,01,0000*65
$GPGGA,180554.25,4346.9302597,N,07927.9419363,W,4,07,1.3,190.184,M,-37.20,M,00,0000*64
$GPGGA,180554.50,4346.9302827,N,07927.9417722,W,4,07,1.3,190.190,M,-37.20,M,00,0000*6A
$GPGGA,180554.75,4346.9303127,N,07927.9416078,W,4,07,1.3,190.201,M,-37.20,M,00,0000*67
$GPGGA,180555.00,4346.9303471,N,07927.9414444,W,4,07,1.3,190.189,M,-37.20,M,01,0000*69
$GPGGA,180555.25,4346.9303760,N,07927.9412807,W,4,07,1.3,190.200,M,-37.20,M,00,0000*63
$GPGGA,180555.50,4346.9304210,N,07927.9411187,W,4,07,1.3,190.179,M,-37.20,M,00,0000*6B
$GPGGA,180555.75,4346.9304677,N,07927.9409660,W,4,07,1.3,190.190,M,-37.20,M,00,0000*69
$GPGGA,180556.00,4346.9305185,N,07927.9408190,W,4,07,1.3,190.201,M,-37.20,M,01,0000*60
$GPGGA,180556.25,4346.9305615,N,07927.9406634,W,4,07,1.3,190.205,M,-37.20,M,00,0000*6B
$GPGGA,180556.50,4346.9306048,N,07927.9405090,W,4,07,1.3,190.211,M,-37.20,M,00,0000*6A
$GPGGA,180556.75,4346.9306584,N,07927.9403528,W,4,07,1.3,190.199,M,-37.20,M,00,0000*6B
$GPGGA,180557.00,4346.9307058,N,07927.9401998,W,4,07,1.3,190.206,M,-37.20,M,01,0000*6C
$GPGGA,180557.25,4346.9307545,N,07927.9400419,W,4,07,1.3,190.194,M,-37.20,M,00,0000*6E
$GPGGA,180557.50,4346.9307830,N,07927.9398714,W,4,07,1.3,190.191,M,-37.20,M,00,0000*6E
$GPGGA,180557.75,4346.9308230,N,07927.9397178,W,4,07,1.3,190.197,M,-37.20,M,00,0000*69
$GPGGA,180558.00,4346.9308652,N,07927.9395653,W,4,07,1.3,190.203,M,-37.20,M,01,0000*67
$GPGGA,180558.25,4346.9309188,N,07927.9394043,W,4,07,1.3,190.201,M,-37.20,M,00,0000*64
$GPGGA,180558.50,4346.9309607,N,07927.9392462,W,4,07,1.3,190.213,M,-37.20,M,00,0000*64
$GPGGA,180558.75,4346.9310027,N,07927.9390861,W,4,07,1.3,190.203,M,-37.20,M,00,0000*63
$GPGGA,180559.00,4346.9310514,N,07927.9389291,W,4,07,1.3,190.206,M,-37.20,M,01,0000*6C
$GPGGA,180559.25,4346.9310925,N,07927.9387606,W,4,08,1.2,190.193,M,-37.20,M,00,0000*61
$GPGGA,180559.50,4346.9311352,N,07927.9386029,W,4,07,1.2,190.179,M,-37.20,M,00,0000*69
$GPGGA,180559.75,4346.9311750,N,07927.9384456,W,4,07,1.3,190.200,M,-37.20,M,00,0000*6A
$GPGGA,180600.00,4346.9312230,N,07927.9382888,W,4,07,1.3,190.210,M,-37.20,M,01,0000*6E
$GPGGA,180600.25,4346.9312657,N,07927.9381373,W,4,08,1.2,190.206,M,-37.20,M,00,0000*68
$GPGGA,180600.50,4346.9313094,N,07927.9379787,W,4,08,1.2,190.208,M,-37.20,M,00,0000*64
$GPGGA,180600.75,4346.9313535,N,07927.9378213,W,4,08,1.2,190.207,M,-37.20,M,00,0000*6B
$GPGGA,180601.00,4346.9313915,N,07927.9376676,W,4,08,1.2,190.206,M,-37.20,M,01,0000*6F
$GPGGA,180601.25,4346.9314167,N,07927.9375076,W,4,08,1.2,190.221,M,-37.20,M,00,0000*63
$GPGGA,180601.50,4346.9314478,N,07927.9373415,W,4,08,1.2,190.213,M,-37.20,M,00,0000*6C
$GPGGA,180601.75,4346.9314752,N,07927.9371767,W,4,08,1.2,190.230,M,-37.20,M,00,0000*65
$GPGGA,180602.00,4346.9314991,N,07927.9370124,W,4,08,1.2,190.232,M,-37.20,M,01,0000*66
$GPGGA,180602.25,4346.9315184,N,07927.9368442,W,4,08,1.2,190.215,M,-37.20,M,00,0000*64
$GPGGA,180602.50,4346.9315366,N,07927.9366700,W,4,08,1.2,190.220,M,-37.20,M,00,0000*65
$GPGGA,180602.75,4346.9315491,N,07927.9365111,W,4,08,1.2,190.230,M,-37.20,M,00,0000*69
$GPGGA,180603.00,4346.9315689,N,07927.9363400,W,4,08,1.2,190.235,M,-37.20,M,01,0000*66
$GPGGA,180603.25,4346.9315849,N,07927.9361676,W,4,08,1.2,190.223,M,-37.20,M,00,0000*64
$GPGGA,180603.50,4346.9315990,N,07927.9360018,W,4,08,1.2,190.233,M,-37.20,M,00,0000*6D
$GPGGA,180603.75,4346.9316219,N,07927.9358335,W,4,08,1.2,190.224,M,-37.20,M,00,0000*62
$GPGGA,180604.00,4346.9316418,N,07927.9356751,W,4,07,1.2,190.226,M,-37.20,M,01,0000*64
$GPGGA,180604.25,4346.9316700,N,07927.9355065,W,4,06,1.3,190.243,M,-37.20,M,00,0000*68
$GPGGA,180604.50,4346.9316987,N,07927.9353379,W,4,06,1.3,190.256,M,-37.20,M,00,0000*67
$GPGGA,180604.75,4346.9317405,N,07927.9351845,W,4,06,1.5,190.249,M,-37.20,M,00,0000*68
$GPGGA,180605.00,4346.9317828,N,07927.9350228,W,4,06,1.5,190.239,M,-37.20,M,01,0000*6E
$GPGGA,180605.25,4346.9318138,N,07927.9348630,W,4,06,1.5,190.247,M,-37.20,M,00,0000*62
$GPGGA,180605.50,4346.9318485,N,07927.9346995,W,4,06,1.5,190.230,M,-37.20,M,00,0000*6D
$GPGGA,180605.75,4346.9318861,N,07927.9345389,W,4,06,1.5,190.226,M,-37.20,M,00,0000*6F
$GPGGA,180606.00,4346.9319146,N,07927.9343830,W,4,06,1.5,190.244,M,-37.20,M,01,0000*69
$GPGGA,180606.25,4346.9319613,N,07927.9342191,W,4,06,1.5,190.251,M,-37.20,M,00,0000*6F
$GPGGA,180606.50,4346.9320039,N,07927.9340556,W,4,06,1.5,190.230,M,-37.20,M,00,0000*63
$GPGGA,180606.75,4346.9320439,N,07927.9339020,W,4,06,1.5,190.242,M,-37.20,M,00,0000*6F
$GPGGA,180607.00,4346.9320866,N,07927.9337401,W,4,06,1.5,190.248,M,-37.20,M,01,0000*68
$GPGGA,180607.25,4346.9321296,N,07927.9335790,W,4,06,1.5,190.233,M,-37.20,M,00,0000*6F
$GPGGA,180607.50,4346.9321720,N,07927.9334166,W,4,06,1.5,190.226,M,-37.20,M,00,0000*6F
$GPGGA,180607.75,4346.9322204,N,07927.9332587,W,4,07,1.3,190.234,M,-37.20,M,00,0000*61
$GPGGA,180608.00,4346.9322637,N,07927.9331020,W,4,07,1.3,190.232,M,-37.20,M,01,0000*64
$GPGGA,180608.25,4346.9323026,N,07927.9329441,W,4,07,1.3,190.235,M,-37.20,M,01,0000*69
$GPGGA,180608.50,4346.9323444,N,07927.9327872,W,4,07,1.3,190.222,M,-37.20,M,01,0000*6F
$GPGGA,180608.75,4346.9323901,N,07927.9326295,W,4,07,1.3,190.242,M,-37.20,M,01,0000*60
$GPGGA,180609.00,4346.9324330,N,07927.9324848,W,4,07,1.3,190.248,M,-37.20,M,01,0000*6E
$GPGGA,180609.25,4346.9324767,N,07927.9323211,W,4,07,1.3,190.233,M,-37.20,M,01,0000*62
$GPGGA,180609.50,4346.9325209,N,07927.9321611,W,4,07,1.3,190.244,M,-37.20,M,01,0000*6A
$GPGGA,180609.75,4346.9325676,N,07927.9320019,W,4,07,1.3,190.230,M,-37.20,M,01,0000*6D
$GPGGA,180610.00,4346.9326163,N,07927.9318470,W,4,07,1.3,190.225,M,-37.20,M,02,0000*60
$GPGGA,180610.25,4346.9326660,N,07927.9316942,W,4,07,1.3,190.228,M,-37.20,M,02,0000*6C
$GPGGA,180610.50,4346.9327062,N,07927.9315445,W,4,07,1.3,190.216,M,-37.20,M,02,0000*6F
$GPGGA,180610.75,4346.9327594,N,07927.9313870,W,4,07,1.3,190.227,M,-37.20,M,01,0000*69
$GPGGA,180611.00,4346.9328107,N,07927.9312367,W,4,07,1.3,190.213,M,-37.20,M,02,0000*63
$GPGGA,180611.25,4346.9328591,N,07927.9310758,W,4,07,1.3,190.227,M,-37.20,M,01,0000*61
$GPGGA,180611.50,4346.9329092,N,07927.9309191,W,4,06,1.3,190.215,M,-37.20,M,01,0000*6F
$GPGGA,180611.75,4346.9329557,N,07927.9307637,W,4,06,1.5,190.222,M,-37.20,M,00,0000*62
$GPGGA,180612.00,4346.9330061,N,07927.9306074,W,4,07,1.5,190.220,M,-37.20,M,01,0000*69
$GPGGA,180612.25,4346.9330547,N,07927.9304551,W,4,07,1.2,190.210,M,-37.20,M,01,0000*6B
$GPGGA,180612.50,4346.9331025,N,07927.9303011,W,4,07,1.2,190.206,M,-37.20,M,00,0000*69
$GPGGA,180612.75,4346.9331541,N,07927.9301441,W,4,07,1.2,190.224,M,-37.20,M,00,0000*6A
$GPGGA,180613.00,4346.9332067,N,07927.9300003,W,4,07,1.2,190.202,M,-37.20,M,01,0000*6D
$GPGGA,180613.25,4346.9332561,N,07927.9298404,W,4,07,1.2,190.251,M,-37.20,M,00,0000*6D
$GPGGA,180613.50,4346.9333089,N,07927.9296843,W,4,07,1.2,190.229,M,-37.20,M,00,0000*63
$GPGGA,180613.75,4346.9333580,N,07927.9295353,W,4,06,1.2,190.231,M,-37.20,M,00,0000*69
$GPGGA,180614.00,4346.9334151,N,07927.9293738,W,4,06,1.2,190.228,M,-37.20,M,01,0000*65
$GPGGA,180614.25,4346.9334637,N,07927.9292171,W,4,06,1.5,190.218,M,-37.20,M,00,0000*6A
$GPGGA,180614.50,4346.9335134,N,07927.9290712,W,4,06,1.5,190.232,M,-37.20,M,00,0000*64
$GPGGA,180614.75,4346.9335647,N,07927.9289199,W,4,06,1.5,190.235,M,-37.20,M,00,0000*6A
$GPGGA,180615.00,4346.9336157,N,07927.9287709,W,4,06,1.5,190.218,M,-37.20,M,01,0000*63
$GPGGA,180615.25,4346.9336659,N,07927.9286128,W,4,06,1.5,190.228,M,-37.20,M,00,0000*6B
$GPGGA,180615.50,4346.9337263,N,07927.9284557,W,4,06,1.5,190.221,M,-37.20,M,00,0000*62
$GPGGA,180615.75,4346.9337738,N,07927.9283135,W,4,06,1.5,190.220,M,-37.20,M,00,0000*68
$GPGGA,180616.00,4346.9338277,N,07927.9281634,W,4,06,1.5,190.227,M,-37.20,M,01,0000*6A
$GPGGA,180616.25,4346.9338831,N,07927.9280060,W,4,06,1.5,190.215,M,-37.20,M,00,0000*63
$GPGGA,180616.50,4346.9339423,N,07927.9278579,W,4,07,1.5,190.220,M,-37.20,M,00,0000*62
$GPGGA,180616.75,4346.9339944,N,07927.9277036,W,4,07,1.2,190.210,M,-37.20,M,00,0000*6C
$GPGGA,180617.00,4346.9340466,N,07927.9275584,W,4,07,1.2,190.206,M,-37.20,M,01,0000*64
$GPGGA,180617.25,4346.9341054,N,07927.9274028,W,4,07,1.2,190.194,M,-37.20,M,00,0000*6C
$GPGGA,180617.50,4346.9341603,N,07927.9272550,W,4,07,1.2,190.205,M,-37.20,M,00,0000*6D
$GPGGA,180617.75,4346.9342227,N,07927.9271015,W,4,07,1.2,190.196,M,-37.20,M,00,0000*65
$GPGGA,180618.00,4346.9342777,N,07927.9269479,W,4,07,1.2,190.200,M,-37.20,M,01,0000*62
$GPGGA,180618.25,4346.9343309,N,07927.9267962,W,4,07,1.2,190.195,M,-37.20,M,01,0000*6F
$GPGGA,180618.50,4346.9343908,N,07927.9266520,W,4,07,1.2,190.204,M,-37.20,M,01,0000*66
$GPGGA,180618.75,4346.9344468,N,07927.9265092,W,4,07,1.2,190.205,M,-37.20,M,01,0000*63
$GPGGA,180619.00,4346.9345118,N,07927.9263638,W,4,07,1.2,190.216,M,-37.20,M,02,0000*62
$GPGGA,180619.25,4346.9345627,N,07927.9262094,W,4,07,1.2,190.209,M,-37.20,M,01,0000*62
$GPGGA,180619.50,4346.9346210,N,07927.9260588,W,4,07,1.2,190.187,M,-37.20,M,01,0000*6C
$GPGGA,180619.75,4346.9346742,N,07927.9259082,W,4,07,1.2,190.198,M,-37.20,M,01,0000*62
$GPGGA,180620.00,4346.9347188,N,07927.9257544,W,4,07,1.2,190.216,M,-37.20,M,02,0000*6C
$GPGGA,180620.25,4346.9347690,N,07927.9256013,W,4,07,1.2,190.204,M,-37.20,M,02,0000*60
$GPGGA,180620.50,4346.9348155,N,07927.9254455,W,4,07,1.2,190.184,M,-37.20,M,02,0000*6C
$GPGGA,180620.75,4346.9348675,N,07927.9252965,W,4,07,1.2,190.181,M,-37.20,M,01,0000*60
$GPGGA,180621.00,4346.9349177,N,07927.9251397,W,4,07,1.2,190.208,M,-37.20,M,02,0000*62
$GPGGA,180621.25,4346.9349650,N,07927.9249972,W,4,07,1.2,190.176,M,-37.20,M,01,0000*66
$GPGGA,180621.50,4346.9350223,N,07927.9248374,W,4,07,1.2,190.200,M,-37.20,M,01,0000*63
$GPGGA,180621.75,4346.9350707,N,07927.9246726,W,4,07,1.2,190.198,M,-37.20,M,00,0000*69
$GPGGA,180622.00,4346.9351101,N,07927.9245196,W,4,07,1.2,190.194,M,-37.20,M,01,0000*6A
$GPGGA,180622.25,4346.9351420,N,07927.9243537,W,4,07,1.2,190.191,M,-37.20,M,01,0000*67
$GPGGA,180622.50,4346.9351823,N,07927.9241961,W,4,07,1.2,190.181,M,-37.20,M,00,0000*67
$GPGGA,180622.75,4346.9352286,N,07927.9240321,W,4,07,1.2,190.203,M,-37.20,M,00,0000*60
$GPGGA,180623.00,4346.9352647,N,07927.9238757,W,4,07,1.2,190.190,M,-37.20,M,01,0000*68
$GPGGA,180623.25,4346.9352985,N,07927.9237188,W,4,07,1.2,190.221,M,-37.20,M,01,0000*6C
$GPGGA,180623.50,4346.9353465,N,07927.9235603,W,4,07,1.2,190.189,M,-37.20,M,00,0000*6A
$GPGGA,180623.75,4346.9353838,N,07927.9234040,W,4,07,1.2,190.195,M,-37.20,M,00,0000*64
$GPGGA,180624.00,4346.9354259,N,07927.9232352,W,4,07,1.2,190.197,M,-37.20,M,01,0000*6E
$GPGGA,180624.25,4346.9354645,N,07927.9230722,W,4,07,1.2,190.200,M,-37.20,M,00,0000*6D
$GPGGA,180624.50,4346.9354968,N,07927.9229153,W,4,07,1.2,190.183,M,-37.20,M,00,0000*6F
$GPGGA,180624.75,4346.9355313,N,07927.9227586,W,4,07,1.2,190.182,M,-37.20,M,00,0000*6C
$GPGGA,180625.00,4346.9355623,N,07927.9225930,W,4,07,1.2,190.188,M,-37.20,M,01,0000*61
$GPGGA,180625.25,4346.9355934,N,07927.9224149,W,4,07,1.2,190.182,M,-37.20,M,00,0000*63
$GPGGA,180625.50,4346.9356152,N,07927.9222421,W,4,06,1.2,190.186,M,-37.20,M,00,0000*62
$GPGGA,180625.75,4346.9356215,N,07927.9220730,W,4,06,1.5,190.186,M,-37.20,M,00,0000*63
$GPGGA,180626.00,4346.9356374,N,07927.9219045,W,4,06,1.5,190.172,M,-37.20,M,01,0000*61
$GPGGA,180626.25,4346.9356573,N,07927.9217354,W,4,06,1.5,190.171,M,-37.20,M,01,0000*69
$GPGGA,180626.50,4346.9356733,N,07927.9215698,W,4,06,1.5,190.163,M,-37.20,M,00,0000*68
$GPGGA,180626.75,4346.9356936,N,07927.9214023,W,4,07,1.3,190.159,M,-37.20,M,00,0000*6D
$GPGGA,180627.00,4346.9357141,N,07927.9212334,W,4,07,1.3,190.181,M,-37.20,M,01,0000*60
$GPGGA,180627.25,4346.9357204,N,07927.9210781,W,4,07,1.3,190.157,M,-37.20,M,00,0000*67
$GPGGA,180627.50,4346.9357379,N,07927.9209075,W,4,06,1.3,190.176,M,-37.20,M,00,0000*68
$GPGGA,180627.75,4346.9357484,N,07927.9207393,W,4,06,1.5,190.167,M,-37.20,M,00,0000*69
$GPGGA,180628.00,4346.9357646,N,07927.9205690,W,4,06,1.5,190.179,M,-37.20,M,01,0000*62
$GPGGA,180628.25,4346.9357814,N,07927.9204007,W,4,06,1.5,190.151,M,-37.20,M,00,0000*6E
$GPGGA,180628.50,4346.9357917,N,07927.9202343,W,4,06,1.5,190.161,M,-37.20,M,00,0000*68
$GPGGA,180628.75,4346.9358064,N,07927.9200649,W,4,06,1.5,190.141,M,-37.20,M,00,0000*62
$GPGGA,180629.00,4346.9358257,N,07927.9198982,W,4,06,1.5,190.156,M,-37.20,M,01,0000*6E
$GPGGA,180629.25,4346.9358462,N,07927.9197300,W,4,08,1.2,190.146,M,-37.20,M,01,0000*6E
$GPGGA,180629.50,4346.9358590,N,07927.9195572,W,4,07,1.2,190.142,M,-37.20,M,01,0000*6A
$GPGGA,180629.75,4346.9358735,N,07927.9193934,W,4,07,1.2,190.141,M,-37.20,M,00,0000*6A
$GPGGA,180630.00,4346.9358970,N,07927.9192192,W,4,07,1.2,190.122,M,-37.20,M,01,0000*6E
$GPGGA,180630.25,4346.9359260,N,07927.9190526,W,4,07,1.2,190.122,M,-37.20,M,01,0000*6B
$GPGGA,180630.50,4346.9359551,N,07927.9188880,W,4,07,1.2,190.126,M,-37.20,M,01,0000*60
$GPGGA,180630.75,4346.9359838,N,07927.9187252,W,4,07,1.2,190.109,M,-37.20,M,01,0000*62
$GPGGA,180631.00,4346.9360004,N,07927.9185637,W,4,07,1.2,190.134,M,-37.20,M,01,0000*67
$GPGGA,180631.25,4346.9360299,N,07927.9183982,W,4,07,1.2,190.103,M,-37.20,M,01,0000*65
$GPGGA,180631.50,4346.9360534,N,07927.9182289,W,4,07,1.2,190.124,M,-37.20,M,00,0000*62
$GPGGA,180631.75,4346.9360828,N,07927.9180641,W,4,07,1.2,190.106,M,-37.20,M,00,0000*67
$GPGGA,180632.00,4346.9361026,N,07927.9179010,W,4,07,1.2,190.101,M,-37.20,M,01,0000*63
$GPGGA,180632.25,4346.9361279,N,07927.9177311,W,4,08,1.2,190.113,M,-37.20,M,00,0000*6D
$GPGGA,180632.50,4346.9361577,N,07927.9175705,W,4,08,1.2,190.113,M,-37.20,M,00,0000*65
$GPGGA,180632.75,4346.9361803,N,07927.9174075,W,4,08,1.2,190.106,M,-37.20,M,00,0000*69
$GPGGA,180633.00,4346.9362125,N,07927.9172489,W,4,08,1.2,190.111,M,-37.20,M,01,0000*62
$GPGGA,180633.25,4346.9362419,N,07927.9170819,W,4,08,1.2,190.106,M,-37.20,M,01,0000*6E
$GPGGA,180633.50,4346.9362685,N,07927.9169186,W,4,08,1.2,190.111,M,-37.20,M,00,0000*6B
$GPGGA,180633.75,4346.9362953,N,07927.9167556,W,4,08,1.2,190.106,M,-37.20,M,00,0000*69
$GPGGA,180634.00,4346.9363240,N,07927.9165885,W,4,07,1.2,190.110,M,-37.20,M,01,0000*6C
$GPGGA,180634.25,4346.9363520,N,07927.9164180,W,4,07,1.2,190.114,M,-37.20,M,00,0000*62
$GPGGA,180634.50,4346.9363817,N,07927.9162586,W,4,07,1.2,190.104,M,-37.20,M,00,0000*6C
$GPGGA,180634.75,4346.9364120,N,07927.9160890,W,4,06,1.2,190.103,M,-37.20,M,00,0000*6F
$GPGGA,180635.00,4346.9364419,N,07927.9159297,W,4,06,1.2,190.094,M,-37.20,M,01,0000*6A
$GPGGA,180635.25,4346.9364685,N,07927.9157616,W,4,06,1.5,190.115,M,-37.20,M,00,0000*67
$GPGGA,180635.50,4346.9364983,N,07927.9155954,W,4,06,1.5,190.106,M,-37.20,M,00,0000*65
$GPGGA,180635.75,4346.9365280,N,07927.9154333,W,4,06,1.5,190.110,M,-37.20,M,00,0000*66
$GPGGA,180636.00,4346.9365565,N,07927.9152662,W,4,06,1.5,190.104,M,-37.20,M,01,0000*68
$GPGGA,180636.25,4346.9365880,N,07927.9151043,W,4,06,1.5,190.096,M,-37.20,M,01,0000*65
$GPGGA,180636.50,4346.9366214,N,07927.9149363,W,4,06,1.5,190.101,M,-37.20,M,00,0000*65
$GPGGA,180636.75,4346.9366561,N,07927.9147734,W,4,07,1.2,190.082,M,-37.20,M,00,0000*63
$GPGGA,180637.00,4346.9366881,N,07927.9146068,W,4,07,1.2,190.085,M,-37.20,M,01,0000*6A
$GPGGA,180637.25,4346.9367224,N,07927.9144420,W,4,07,1.2,190.081,M,-37.20,M,01,0000*67
$GPGGA,180637.50,4346.9367559,N,07927.9142823,W,4,07,1.2,190.092,M,-37.20,M,00,0000*62
$GPGGA,180637.75,4346.9367940,N,07927.9141158,W,4,07,1.2,190.073,M,-37.20,M,00,0000*68
$GPGGA,180638.00,4346.9368239,N,07927.9139569,W,4,07,1.2,190.075,M,-37.20,M,01,0000*61
$GPGGA,180638.25,4346.9368584,N,07927.9137898,W,4,07,1.2,190.054,M,-37.20,M,01,0000*69
$GPGGA,180638.50,4346.9368941,N,07927.9136293,W,4,07,1.2,190.048,M,-37.20,M,01,0000*63
$GPGGA,180638.75,4346.9369314,N,07927.9134670,W,4,07,1.2,190.044,M,-37.20,M,01,0000*68
$GPGGA,180639.00,4346.9369612,N,07927.9133036,W,4,07,1.2,190.055,M,-37.20,M,01,0000*6B
$GPGGA,180639.25,4346.9370020,N,07927.9131470,W,4,07,1.2,190.059,M,-37.20,M,01,0000*6B
$GPGGA,180639.50,4346.9370361,N,07927.9129809,W,4,07,1.2,190.067,M,-37.20,M,01,0000*69
$GPGGA,180639.75,4346.9370721,N,07927.9128232,W,4,07,1.2,190.040,M,-37.20,M,00,0000*69
$GPGGA,180640.00,4346.9371093,N,07927.9126598,W,4,07,1.2,190.016,M,-37.20,M,01,0000*61
$GPGGA,180640.25,4346.9371439,N,07927.9124911,W,4,07,1.2,190.026,M,-37.20,M,01,0000*6E
$GPGGA,180640.50,4346.9371813,N,07927.9123301,W,4,07,1.2,190.026,M,-37.20,M,01,0000*64
$GPGGA,180640.75,4346.9372200,N,07927.9121759,W,4,07,1.2,190.018,M,-37.20,M,01,0000*6E
$GPGGA,180641.00,4346.9372489,N,07927.9120136,W,4,07,1.2,190.015,M,-37.20,M,01,0000*69
$GPGGA,180641.25,4346.9372870,N,07927.9118483,W,4,07,1.2,190.012,M,-37.20,M,01,0000*63
$GPGGA,180641.50,4346.9373269,N,07927.9116835,W,4,07,1.2,189.983,M,-37.20,M,00,0000*65
$GPGGA,180641.75,4346.9373572,N,07927.9115233,W,4,07,1.2,189.976,M,-37.20,M,00,0000*6A
$GPGGA,180642.00,4346.9373923,N,07927.9113549,W,4,07,1.2,189.977,M,-37.20,M,01,0000*6F
$GPGGA,180642.25,4346.9374245,N,07927.9111973,W,4,07,1.2,189.963,M,-37.20,M,00,0000*67
$GPGGA,180642.50,4346.9374573,N,07927.9110372,W,4,07,1.2,189.965,M,-37.20,M,00,0000*6B
$GPGGA,180642.75,4346.9374827,N,07927.9108677,W,4,07,1.2,189.961,M,-37.20,M,00,0000*6D
$GPGGA,180643.00,4346.9375072,N,07927.9107131,W,4,07,1.2,189.960,M,-37.20,M,01,0000*6D
$GPGGA,180643.25,4346.9375309,N,07927.9105446,W,4,07,1.2,189.969,M,-37.20,M,00,0000*6A
$GPGGA,180643.50,4346.9375475,N,07927.9103786,W,4,07,1.2,189.946,M,-37.20,M,00,0000*60
$GPGGA,180643.75,4346.9375730,N,07927.9102166,W,4,07,1.2,189.955,M,-37.20,M,00,0000*6E
$GPGGA,180644.00,4346.9375983,N,07927.9100479,W,4,07,1.2,189.941,M,-37.20,M,01,0000*60
$GPGGA,180644.25,4346.9376185,N,07927.9098889,W,4,07,1.2,189.936,M,-37.20,M,00,0000*68
$GPGGA,180644.50,4346.9376422,N,07927.9097229,W,4,07,1.2,189.939,M,-37.20,M,00,0000*62
$GPGGA,180644.75,4346.9376632,N,07927.9095554,W,4,07,1.2,189.923,M,-37.20,M,00,0000*62
$GPGGA,180645.00,4346.9376867,N,07927.9093952,W,4,07,1.2,189.929,M,-37.20,M,01,0000*68
$GPGGA,180645.25,4346.9377120,N,07927.9092282,W,4,07,1.2,189.930,M,-37.20,M,00,0000*6A
$GPGGA,180645.50,4346.9377387,N,07927.9090632,W,4,07,1.2,189.928,M,-37.20,M,00,0000*63
$GPGGA,180645.75,4346.9377613,N,07927.9088962,W,4,07,1.2,189.921,M,-37.20,M,00,0000*66
$GPGGA,180646.00,4346.9377816,N,07927.9087235,W,4,07,1.2,189.904,M,-37.20,M,01,0000*6C
$GPGGA,180646.25,4346.9378029,N,07927.9085512,W,4,07,1.2,189.900,M,-37.20,M,01,0000*64
$GPGGA,180646.50,4346.9378232,N,07927.9083858,W,4,07,1.2,189.907,M,-37.20,M,00,0000*6D
$GPGGA,180646.75,4346.9378448,N,07927.9082227,W,4,07,1.2,189.914,M,-37.20,M,00,0000*60
$GPGGA,180647.00,4346.9378665,N,07927.9080583,W,4,07,1.2,189.911,M,-37.20,M,01,0000*61
$GPGGA,180647.25,4346.9378896,N,07927.9079037,W,4,07,1.2,189.921,M,-37.20,M,01,0000*6B
$GPGGA,180647.50,4346.9379132,N,07927.9077398,W,4,07,1.2,189.933,M,-37.20,M,00,0000*65
$GPGGA,180647.75,4346.9379413,N,07927.9075742,W,4,07,1.2,189.920,M,-37.20,M,00,0000*67
$GPGGA,180648.00,4346.9379661,N,07927.9073968,W,4,07,1.2,189.895,M,-37.20,M,01,0000*63
$GPGGA,180648.25,4346.9379953,N,07927.9072160,W,4,07,1.2,189.889,M,-37.20,M,01,0000*66
$GPGGA,180648.50,4346.9380179,N,07927.9070480,W,4,06,1.2,189.881,M,-37.20,M,01,0000*62
$GPGGA,180648.75,4346.9380412,N,07927.9068774,W,4,06,1.5,189.868,M,-37.20,M,01,0000*6C
$GPGGA,180649.00,4346.9380647,N,07927.9067163,W,4,06,1.5,189.866,M,-37.20,M,01,0000*6C
$GPGGA,180649.25,4346.9380870,N,07927.9065537,W,4,06,1.5,189.862,M,-37.20,M,01,0000*62
$GPGGA,180649.50,4346.9381037,N,07927.9063908,W,4,06,1.5,189.872,M,-37.20,M,01,0000*6D
$GPGGA,180649.75,4346.9381220,N,07927.9062342,W,4,06,1.5,189.862,M,-37.20,M,01,0000*6A
$GPGGA,180650.00,4346.9381520,N,07927.9060648,W,4,06,1.5,189.865,M,-37.20,M,02,0000*6E
$GPGGA,180650.25,4346.9381736,N,07927.9058982,W,4,06,1.5,189.869,M,-37.20,M,02,0000*62
$GPGGA,180650.50,4346.9382010,N,07927.9057378,W,4,06,1.5,189.863,M,-37.20,M,02,0000*6A
$GPGGA,180650.75,4346.9382174,N,07927.9055704,W,4,06,1.5,189.854,M,-37.20,M,02,0000*67
$GPGGA,180651.00,4346.9382444,N,07927.9053930,W,4,06,1.5,189.856,M,-37.20,M,02,0000*6F
$GPGGA,180651.25,4346.9382687,N,07927.9052257,W,4,06,1.5,189.837,M,-37.20,M,02,0000*69
$GPGGA,180651.50,4346.9382968,N,07927.9050458,W,4,06,1.5,189.819,M,-37.20,M,01,0000*61
$GPGGA,180651.75,4346.9383225,N,07927.9048854,W,4,06,1.5,189.831,M,-37.20,M,01,0000*66
$GPGGA,180652.00,4346.9383455,N,07927.9047183,W,4,06,1.5,189.830,M,-37.20,M,01,0000*6B
$GPGGA,180652.25,4346.9383690,N,07927.9045615,W,4,06,1.5,189.836,M,-37.20,M,01,0000*6B
$GPGGA,180652.50,4346.9383961,N,07927.9044005,W,4,06,1.5,189.821,M,-37.20,M,01,0000*68
$GPGGA,180652.75,4346.9384209,N,07927.9042277,W,4,06,1.5,189.815,M,-37.20,M,01,0000*6B
$GPGGA,180653.00,4346.9384453,N,07927.9040652,W,4,06,1.5,189.814,M,-37.20,M,02,0000*62
$GPGGA,180653.25,4346.9384685,N,07927.9038962,W,4,06,1.5,189.811,M,-37.20,M,01,0000*69
$GPGGA,180653.50,4346.9384921,N,07927.9037357,W,4,06,1.5,189.809,M,-37.20,M,01,0000*60
$GPGGA,180653.75,4346.9385239,N,07927.9035660,W,4,06,1.5,189.809,M,-37.20,M,01,0000*67
$GPGGA,180654.00,4346.9385538,N,07927.9034038,W,4,06,1.5,189.787,M,-37.20,M,01,0000*67
$GPGGA,180654.25,4346.9385860,N,07927.9032411,W,4,06,1.5,189.795,M,-37.20,M,01,0000*6A
$GPGGA,180654.50,4346.9386216,N,07927.9030759,W,4,06,1.5,189.779,M,-37.20,M,00,0000*6E
$GPGGA,180654.75,4346.9386466,N,07927.9029076,W,4,06,1.5,189.774,M,-37.20,M,00,0000*67
$GPGGA,180655.00,4346.9386794,N,07927.9027394,W,4,06,1.5,189.784,M,-37.20,M,01,0000*65
$GPGGA,180655.25,4346.9387074,N,07927.9025759,W,4,06,1.5,189.770,M,-37.20,M,01,0000*66
$GPGGA,180655.50,4346.9387318,N,07927.9024145,W,4,06,1.5,189.757,M,-37.20,M,00,0000*63
$GPGGA,180655.75,4346.9387615,N,07927.9022492,W,4,06,1.5,189.757,M,-37.20,M,00,0000*65
$GPGGA,180656.00,4346.9387909,N,07927.9020809,W,4,06,1.5,189.750,M,-37.20,M,01,0000*6C
$GPGGA,180656.25,4346.9388219,N,07927.9019210,W,4,06,1.5,189.725,M,-37.20,M,01,0000*64
$GPGGA,180656.50,4346.9388554,N,07927.9017647,W,4,06,1.5,189.726,M,-37.20,M,01,0000*63
$GPGGA,180656.75,4346.9388896,N,07927.9015938,W,4,06,1.5,189.727,M,-37.20,M,00,0000*62
$GPGGA,180657.00,4346.9389235,N,07927.9014299,W,4,06,1.5,189.720,M,-37.20,M,01,0000*64
$GPGGA,180657.25,4346.9389505,N,07927.9012666,W,4,06,1.5,189.724,M,-37.20,M,01,0000*61
$GPGGA,180657.50,4346.9389759,N,07927.9011071,W,4,06,1.5,189.722,M,-37.20,M,00,0000*6C
$GPGGA,180657.75,4346.9389973,N,07927.9009373,W,4,06,1.5,189.724,M,-37.20,M,00,0000*63
$GPGGA,180658.00,4346.9390255,N,07927.9007769,W,4,06,1.5,189.697,M,-37.20,M,01,0000*60
$GPGGA,180658.25,4346.9390440,N,07927.9006042,W,4,06,1.2,189.692,M,-37.20,M,01,0000*68
$GPGGA,180658.50,4346.9390592,N,07927.9004394,W,4,06,1.2,189.690,M,-37.20,M,01,0000*6C
$GPGGA,180658.75,4346.9390664,N,07927.9002617,W,4,06,1.5,189.677,M,-37.20,M,00,0000*66
$GPGGA,180659.00,4346.9390692,N,07927.9000902,W,4,06,1.5,189.666,M,-37.20,M,01,0000*64
$GPGGA,180659.25,4346.9390671,N,07927.8999253,W,4,06,1.5,189.651,M,-37.20,M,01,0000*6D
$GPGGA,180659.50,4346.9390578,N,07927.8997570,W,4,06,1.5,189.649,M,-37.20,M,01,0000*64
$GPGGA,180659.75,4346.9390477,N,07927.8995928,W,4,06,1.5,189.651,M,-37.20,M,01,0000*67
$GPGGA,180700.00,4346.9390428,N,07927.8994266,W,4,06,1.5,189.638,M,-37.20,M,02,0000*6E
$GPGGA,180700.25,4346.9390399,N,07927.8992580,W,4,06,1.5,189.642,M,-37.20,M,02,0000*60
$GPGGA,180700.50,4346.9390318,N,07927.8990897,W,4,06,1.5,189.638,M,-37.20,M,02,0000*6F
$GPGGA,180700.75,4346.9390264,N,07927.8989188,W,4,07,1.2,189.633,M,-37.20,M,02,0000*60
$GPGGA,180701.00,4346.9390160,N,07927.8987504,W,4,07,1.2,189.638,M,-37.20,M,02,0000*61
$GPGGA,180701.25,4346.9390057,N,07927.8985839,W,4,07,1.2,189.622,M,-37.20,M,02,0000*69
$GPGGA,180701.50,4346.9389876,N,07927.8984170,W,4,07,1.2,189.630,M,-37.20,M,02,0000*6E
$GPGGA,180701.75,4346.9389681,N,07927.8982463,W,4,07,1.2,189.626,M,-37.20,M,01,0000*6A
$GPGGA,180702.00,4346.9389447,N,07927.8980832,W,4,07,1.2,189.617,M,-37.20,M,02,0000*68
$GPGGA,180702.25,4346.9389135,N,07927.8979151,W,4,07,1.2,189.620,M,-37.20,M,01,0000*62
$GPGGA,180702.50,4346.9388758,N,07927.8977390,W,4,07,1.2,189.635,M,-37.20,M,01,0000*69
$GPGGA,180702.75,4346.9388395,N,07927.8975796,W,4,07,1.2,189.637,M,-37.20,M,01,0000*69
$GPGGA,180703.00,4346.9387936,N,07927.8974136,W,4,07,1.2,189.648,M,-37.20,M,02,0000*60
$GPGGA,180703.25,4346.9387491,N,07927.8972545,W,4,07,1.2,189.643,M,-37.20,M,02,0000*6A
$GPGGA,180703.50,4346.9386923,N,07927.8970969,W,4,07,1.2,189.642,M,-37.20,M,01,0000*6F
$GPGGA,180703.75,4346.9386509,N,07927.8969464,W,4,07,1.2,189.651,M,-37.20,M,01,0000*66
$GPGGA,180704.00,4346.9386166,N,07927.8968201,W,4,07,1.2,189.588,M,-37.20,M,01,0000*6D
$GPGGA,180704.25,4346.9385726,N,07927.8966598,W,4,06,1.2,189.587,M,-37.20,M,01,0000*6C
$GPGGA,180704.50,4346.9385119,N,07927.8964756,W,4,06,1.2,189.641,M,-37.20,M,00,0000*6E
$GPGGA,180704.75,4346.9384562,N,07927.8963222,W,4,06,1.5,189.635,M,-37.20,M,00,0000*65
$GPGGA,180705.00,4346.9384091,N,07927.8961639,W,4,06,1.5,189.646,M,-37.20,M,01,0000*66
$GPGGA,180705.25,4346.9383538,N,07927.8960114,W,4,06,1.5,189.653,M,-37.20,M,00,0000*6C
$GPGGA,180705.50,4346.9383033,N,07927.8958483,W,4,06,1.5,189.649,M,-37.20,M,00,0000*6B
$GPGGA,180705.75,4346.9382562,N,07927.8957100,W,4,06,1.5,189.646,M,-37.20,M,00,0000*62
$GPGGA,180706.00,4346.9382072,N,07927.8955516,W,4,06,1.5,189.646,M,-37.20,M,01,0000*67
$GPGGA,180706.25,4346.9381531,N,07927.8954075,W,4,06,1.5,189.639,M,-37.20,M,01,0000*68
$GPGGA,180706.50,4346.9381019,N,07927.8952422,W,4,06,1.5,189.665,M,-37.20,M,01,0000*6C
$GPGGA,180706.75,4346.9380464,N,07927.8950951,W,4,06,1.5,189.633,M,-37.20,M,01,0000*6C
$GPGGA,180707.00,4346.9379960,N,07927.8949399,W,4,06,1.5,189.636,M,-37.20,M,01,0000*63
$GPGGA,180707.25,4346.9379432,N,07927.8947818,W,4,06,1.5,189.635,M,-37.20,M,01,0000*61
$GPGGA,180707.50,4346.9378879,N,07927.8946247,W,4,06,1.5,189.626,M,-37.20,M,01,0000*62
$GPGGA,180707.75,4346.9378344,N,07927.8944772,W,4,06,1.5,189.615,M,-37.20,M,01,0000*61
$GPGGA,180708.00,4346.9377818,N,07927.8943254,W,4,06,1.5,189.622,M,-37.20,M,02,0000*60
$GPGGA,180708.25,4346.9377246,N,07927.8941656,W,4,06,1.5,189.625,M,-37.20,M,02,0000*65
$GPGGA,180708.50,4346.9376745,N,07927.8940163,W,4,06,1.5,189.613,M,-37.20,M,02,0000*65
$GPGGA,180708.75,4346.9376168,N,07927.8938651,W,4,06,1.5,189.613,M,-37.20,M,02,0000*62
$GPGGA,180709.00,4346.9375641,N,07927.8937153,W,4,06,1.5,189.610,M,-37.20,M,02,0000*67
$GPGGA,180709.25,4346.9375123,N,07927.8935574,W,4,06,1.5,189.624,M,-37.20,M,02,0000*67
$GPGGA,180709.50,4346.9374604,N,07927.8934079,W,4,06,1.5,189.608,M,-37.20,M,02,0000*61
$GPGGA,180709.75,4346.9374080,N,07927.8932546,W,4,06,1.5,189.602,M,-37.20,M,02,0000*69
$GPGGA,180710.00,4346.9373539,N,07927.8930976,W,4,06,1.5,189.627,M,-37.20,M,03,0000*68
$GPGGA,180710.25,4346.9373046,N,07927.8929507,W,4,06,1.5,189.585,M,-37.20,M,03,0000*6B
$GPGGA,180710.50,4346.9372446,N,07927.8927850,W,4,06,1.5,189.620,M,-37.20,M,03,0000*61
$GPGGA,180710.75,4346.9371938,N,07927.8926461,W,4,06,1.5,189.565,M,-37.20,M,02,0000*6D
$GPGGA,180711.00,4346.9371373,N,07927.8924852,W,4,06,1.5,189.580,M,-37.20,M,03,0000*6F
$GPGGA,180711.25,4346.9370838,N,07927.8923298,W,4,06,1.5,189.568,M,-37.20,M,02,0000*61
$GPGGA,180711.50,4346.9370321,N,07927.8921760,W,4,06,1.5,189.574,M,-37.20,M,00,0000*6F
$GPGGA,180711.75,4346.9369799,N,07927.8920131,W,4,06,1.5,189.581,M,-37.20,M,00,0000*6E
$GPGGA,180712.00,4346.9369282,N,07927.8918680,W,4,06,1.5,189.574,M,-37.20,M,01,0000*6D
$GPGGA,180712.25,4346.9368753,N,07927.8917109,W,4,06,1.5,189.569,M,-37.20,M,00,0000*66
$GPGGA,180712.50,4346.9368218,N,07927.8915586,W,4,06,1.5,189.538,M,-37.20,M,00,0000*6B
$GPGGA,180712.75,4346.9367710,N,07927.8914050,W,4,06,1.5,189.542,M,-37.20,M,00,0000*6C
$GPGGA,180713.00,4346.9367182,N,07927.8912521,W,4,06,1.5,189.525,M,-37.20,M,01,0000*67
$GPGGA,180713.25,4346.9366616,N,07927.8911011,W,4,06,1.5,189.537,M,-37.20,M,01,0000*6D
$GPGGA,180713.50,4346.9366044,N,07927.8909537,W,4,06,1.5,189.556,M,-37.20,M,00,0000*60
$GPGGA,180713.75,4346.9365401,N,07927.8908025,W,4,06,1.5,189.555,M,-37.20,M,00,0000*65
$GPGGA,180714.00,4346.9364754,N,07927.8906575,W,4,06,1.5,189.539,M,-37.20,M,01,0000*67
$GPGGA,180714.25,4346.9364129,N,07927.8905040,W,4,06,1.5,189.520,M,-37.20,M,00,0000*65
$GPGGA,180714.50,4346.9363424,N,07927.8903641,W,4,06,1.5,189.508,M,-37.20,M,00,0000*63
$GPGGA,180714.75,4346.9362734,N,07927.8902162,W,4,06,1.5,189.486,M,-37.20,M,00,0000*67
$GPGGA,180715.00,4346.9362078,N,07927.8900720,W,4,06,1.5,189.482,M,-37.20,M,01,0000*6C
$GPGGA,180715.25,4346.9361457,N,07927.8899284,W,4,06,1.5,189.478,M,-37.20,M,01,0000*6E
$GPGGA,180715.50,4346.9360861,N,07927.8897907,W,4,06,1.5,189.483,M,-37.20,M,01,0000*6E
$GPGGA,180715.75,4346.9360168,N,07927.8896473,W,4,06,1.5,189.496,M,-37.20,M,00,0000*63
$GPGGA,180716.00,4346.9359455,N,07927.8895104,W,4,06,1.5,189.491,M,-37.20,M,01,0000*63
$GPGGA,180716.25,4346.9358780,N,07927.8893743,W,4,06,1.5,189.466,M,-37.20,M,01,0000*65
$GPGGA,180716.50,4346.9358076,N,07927.8892303,W,4,06,1.5,189.477,M,-37.20,M,01,0000*68
$GPGGA,180716.75,4346.9357379,N,07927.8890909,W,4,06,1.5,189.459,M,-37.20,M,01,0000*62
$GPGGA,180717.00,4346.9356628,N,07927.8889463,W,4,06,1.5,189.438,M,-37.20,M,01,0000*6F
$GPGGA,180717.25,4346.9355901,N,07927.8888109,W,4,06,1.5,189.438,M,-37.20,M,01,0000*67
$GPGGA,180717.50,4346.9355160,N,07927.8886771,W,4,06,1.5,189.442,M,-37.20,M,01,0000*60
$GPGGA,180717.75,4346.9354377,N,07927.8885532,W,4,06,1.5,189.431,M,-37.20,M,01,0000*60
$GPGGA,180718.00,4346.9353573,N,07927.8884210,W,4,06,1.5,189.438,M,-37.20,M,02,0000*64
$GPGGA,180718.25,4346.9352775,N,07927.8883113,W,4,06,1.5,189.400,M,-37.20,M,02,0000*6A
$GPGGA,180718.50,4346.9351950,N,07927.8881732,W,4,06,1.5,189.422,M,-37.20,M,02,0000*65
$GPGGA,180718.75,4346.9351084,N,07927.8880599,W,4,06,1.5,189.413,M,-37.20,M,01,0000*61
$GPGGA,180719.00,4346.9350188,N,07927.8879473,W,4,06,1.5,189.386,M,-37.20,M,02,0000*65
$GPGGA,180719.25,4346.9349330,N,07927.8878085,W,4,06,1.5,189.453,M,-37.20,M,01,0000*6B
$GPGGA,180719.50,4346.9348408,N,07927.8876887,W,4,06,1.5,189.454,M,-37.20,M,01,0000*67
$GPGGA,180719.75,4346.9347567,N,07927.8875677,W,4,06,1.5,189.437,M,-37.20,M,01,0000*60
$GPGGA,180720.00,4346.9346740,N,07927.8874538,W,4,06,1.5,189.407,M,-37.20,M,02,0000*67
$GPGGA,180720.25,4346.9345860,N,07927.8873363,W,4,06,1.5,189.421,M,-37.20,M,02,0000*65
$GPGGA,180720.50,4346.9344930,N,07927.8872110,W,4,06,1.5,189.450,M,-37.20,M,02,0000*63
$GPGGA,180720.75,4346.9344129,N,07927.8871004,W,4,06,1.5,189.426,M,-37.20,M,02,0000*62
$GPGGA,180721.00,4346.9343231,N,07927.8869900,W,4,06,1.5,189.413,M,-37.20,M,03,0000*6F
$GPGGA,180721.25,4346.9342352,N,07927.8868627,W,4,06,1.5,189.422,M,-37.20,M,03,0000*64
$GPGGA,180721.50,4346.9341430,N,07927.8867437,W,4,06,1.5,189.461,M,-37.20,M,02,0000*6C
$GPGGA,180721.75,4346.9340642,N,07927.8866400,W,4,06,1.5,189.410,M,-37.20,M,02,0000*6E
$GPGGA,180722.00,4346.9339733,N,07927.8865171,W,4,06,1.5,189.430,M,-37.20,M,03,0000*65
$GPGGA,180722.25,4346.9338810,N,07927.8863937,W,4,06,1.5,189.453,M,-37.20,M,03,0000*64
$GPGGA,180722.50,4346.9337896,N,07927.8862754,W,4,06,1.5,189.461,M,-37.20,M,03,0000*6C
$GPGGA,180722.75,4346.9337049,N,07927.8861705,W,4,06,1.5,189.426,M,-37.20,M,02,0000*64
$GPGGA,180723.00,4346.9336141,N,07927.8860542,W,4,06,1.5,189.427,M,-37.20,M,03,0000*6F
$GPGGA,180723.25,4346.9335259,N,07927.8859348,W,4,06,1.5,189.415,M,-37.20,M,03,0000*66
$GPGGA,180723.50,4346.9334347,N,07927.8858147,W,4,06,1.5,189.436,M,-37.20,M,03,0000*66
$GPGGA,180723.75,4346.9333453,N,07927.8857097,W,4,06,1.5,189.414,M,-37.20,M,03,0000*67
$GPGGA,180724.00,4346.9332573,N,07927.8855940,W,4,06,1.5,189.417,M,-37.20,M,04,0000*65
$GPGGA,180724.25,4346.9331647,N,07927.8854783,W,4,06,1.5,189.441,M,-37.20,M,04,0000*66
$GPGGA,180724.50,4346.9330764,N,07927.8853688,W,4,06,1.5,189.425,M,-37.20,M,04,0000*6A
$GPGGA,180724.75,4346.9329784,N,07927.8852425,W,4,06,1.5,189.486,M,-37.20,M,02,0000*60
$GPGGA,180725.00,4346.9328817,N,07927.8851222,W,4,06,1.5,189.501,M,-37.20,M,03,0000*6A
$GPGGA,180725.25,4346.9327887,N,07927.8850074,W,4,06,1.5,189.502,M,-37.20,M,03,0000*68
$GPGGA,180725.50,4346.9327007,N,07927.8848973,W,4,06,1.5,189.494,M,-37.20,M,03,0000*63
$GPGGA,180725.75,4346.9326226,N,07927.8848040,W,4,06,1.5,189.444,M,-37.20,M,02,0000*61
$GPGGA,180726.00,4346.9325343,N,07927.8846826,W,4,06,1.5,189.475,M,-37.20,M,03,0000*64
$GPGGA,180726.25,4346.9324535,N,07927.8845782,W,4,06,1.5,189.451,M,-37.20,M,03,0000*61
$GPGGA,180726.50,4346.9323574,N,07927.8844619,W,4,06,1.5,189.439,M,-37.20,M,02,0000*6C
$GPGGA,180726.75,4346.9322578,N,07927.8843512,W,4,06,1.5,189.446,M,-37.20,M,02,0000*61
$GPGGA,180727.00,4346.9321788,N,07927.8842463,W,4,06,1.5,189.432,M,-37.20,M,03,0000*68
$GPGGA,180727.25,4346.9320884,N,07927.8841280,W,4,06,1.5,189.475,M,-37.20,M,03,0000*66
$GPGGA,180727.50,4346.9319924,N,07927.8840277,W,4,06,1.5,189.449,M,-37.20,M,02,0000*62
$GPGGA,180727.75,4346.9318875,N,07927.8839088,W,4,06,1.5,189.460,M,-37.20,M,02,0000*66
$GPGGA,180728.00,4346.9317996,N,07927.8838108,W,4,06,1.5,189.453,M,-37.20,M,03,0000*61
$GPGGA,180728.25,4346.9317104,N,07927.8837112,W,4,06,1.5,189.426,M,-37.20,M,02,0000*62
$GPGGA,180728.50,4346.9316209,N,07927.8836157,W,4,06,1.5,189.393,M,-37.20,M,02,0000*66
$GPGGA,180728.75,4346.9315100,N,07927.8835024,W,4,06,1.5,189.399,M,-37.20,M,02,0000*64
$GPGGA,180729.00,4346.9314134,N,07927.8833956,W,4,07,1.5,189.426,M,-37.20,M,03,0000*68
$GPGGA,180729.25,4346.9313227,N,07927.8832809,W,4,07,1.3,189.442,M,-37.20,M,03,0000*67
$GPGGA,180729.50,4346.9312210,N,07927.8831849,W,4,07,1.3,189.449,M,-37.20,M,03,0000*6C
$GPGGA,180729.75,4346.9311195,N,07927.8830738,W,4,07,1.3,189.458,M,-37.20,M,03,0000*6E
$GPGGA,180730.00,4346.9310254,N,07927.8829742,W,4,07,1.3,189.472,M,-37.20,M,04,0000*61
$GPGGA,180730.25,4346.9309303,N,07927.8828782,W,4,07,1.3,189.425,M,-37.20,M,04,0000*62
$GPGGA,180730.50,4346.9308354,N,07927.8827792,W,4,07,1.3,189.455,M,-37.20,M,04,0000*6A
$GPGGA,180730.75,4346.9307262,N,07927.8826691,W,4,07,1.3,189.479,M,-37.20,M,04,0000*6B
$GPGGA,180731.00,4346.9306297,N,07927.8825730,W,4,07,1.3,189.449,M,-37.20,M,04,0000*69
$GPGGA,180731.25,4346.9305296,N,07927.8824673,W,4,07,1.3,189.460,M,-37.20,M,04,0000*60
$GPGGA,180731.50,4346.9304320,N,07927.8823589,W,4,07,1.3,189.459,M,-37.20,M,04,0000*64
$GPGGA,180731.75,4346.9303369,N,07927.8822552,W,4,07,1.3,189.487,M,-37.20,M,03,0000*6A
$GPGGA,180732.00,4346.9302442,N,07927.8821480,W,4,07,1.3,189.472,M,-37.20,M,04,0000*64
$GPGGA,180732.25,4346.9301498,N,07927.8820428,W,4,07,1.3,189.450,M,-37.20,M,04,0000*64
$GPGGA,180732.50,4346.9300533,N,07927.8819381,W,4,07,1.3,189.474,M,-37.20,M,04,0000*6F
$GPGGA,180732.75,4346.9299444,N,07927.8818184,W,4,07,1.3,189.481,M,-37.20,M,03,0000*63
$GPGGA,180733.00,4346.9298581,N,07927.8817173,W,4,07,1.3,189.490,M,-37.20,M,04,0000*69
$GPGGA,180733.25,4346.9297591,N,07927.8816183,W,4,07,1.3,189.467,M,-37.20,M,04,0000*66
$GPGGA,180733.50,4346.9296612,N,07927.8815095,W,4,07,1.3,189.463,M,-37.20,M,04,0000*6C
$GPGGA,180733.75,4346.9295599,N,07927.8814171,W,4,07,1.3,189.454,M,-37.20,M,04,0000*66
$GPGGA,180734.00,4346.9294597,N,07927.8813039,W,4,07,1.3,189.496,M,-37.20,M,05,0000*69
$GPGGA,180734.25,4346.9293680,N,07927.8812076,W,4,07,1.3,189.480,M,-37.20,M,05,0000*61
$GPGGA,180734.50,4346.9292714,N,07927.8811166,W,4,07,1.3,189.456,M,-37.20,M,05,0000*66
$GPGGA,180734.75,4346.9291724,N,07927.8810101,W,4,07,1.3,189.487,M,-37.20,M,05,0000*6D
$GPGGA,180735.00,4346.9290713,N,07927.8809173,W,4,07,1.3,189.492,M,-37.20,M,06,0000*61
$GPGGA,180735.25,4346.9289604,N,07927.8808468,W,4,07,1.3,189.486,M,-37.20,M,04,0000*60
$GPGGA,180735.50,4346.9288585,N,07927.8807614,W,4,07,1.3,189.474,M,-37.20,M,04,0000*62
$GPGGA,180735.75,4346.9287548,N,07927.8806679,W,4,07,1.3,189.489,M,-37.20,M,04,0000*63
$GPGGA,180736.00,4346.9286587,N,07927.8805574,W,4,07,1.3,189.513,M,-37.20,M,04,0000*6F
$GPGGA,180736.25,4346.9285550,N,07927.8804661,W,4,07,1.3,189.516,M,-37.20,M,04,0000*62
$GPGGA,180736.50,4346.9284519,N,07927.8803694,W,4,07,1.3,189.518,M,-37.20,M,04,0000*6F
$GPGGA,180736.75,4346.9283473,N,07927.8802797,W,4,07,1.3,189.523,M,-37.20,M,04,0000*69
$GPGGA,180737.00,4346.9282435,N,07927.8801902,W,4,07,1.3,189.537,M,-37.20,M,05,0000*6C
$GPGGA,180737.25,4346.9281500,N,07927.8800994,W,4,07,1.3,189.512,M,-37.20,M,05,0000*66
$GPGGA,180737.50,4346.9280503,N,07927.8800023,W,4,07,1.3,189.455,M,-37.20,M,03,0000*67
$GPGGA,180737.75,4346.9279504,N,07927.8799156,W,4,07,1.3,189.462,M,-37.20,M,02,0000*68
$GPGGA,180738.00,4346.9278479,N,07927.8798259,W,4,06,1.3,189.478,M,-37.20,M,02,0000*68
$GPGGA,180738.25,4346.9277376,N,07927.8797280,W,4,06,1.5,189.494,M,-37.20,M,02,0000*67
$GPGGA,180738.50,4346.9276412,N,07927.8796314,W,4,06,1.5,189.504,M,-37.20,M,02,0000*64
$GPGGA,180738.75,4346.9275350,N,07927.8795446,W,4,06,1.5,189.484,M,-37.20,M,02,0000*6B
$GPGGA,180739.00,4346.9274347,N,07927.8794533,W,4,06,1.5,189.466,M,-37.20,M,02,0000*61
$GPGGA,180739.25,4346.9273209,N,07927.8793573,W,4,06,1.5,189.477,M,-37.20,M,02,0000*69
$GPGGA,180739.50,4346.9272258,N,07927.8792583,W,4,06,1.5,189.474,M,-37.20,M,01,0000*60
$GPGGA,180739.75,4346.9271191,N,07927.8791671,W,4,06,1.5,189.454,M,-37.20,M,00,0000*6C
$GPGGA,180740.00,4346.9270206,N,07927.8790744,W,4,06,1.5,189.463,M,-37.20,M,01,0000*6F
$GPGGA,180740.25,4346.9269158,N,07927.8789832,W,4,06,1.5,189.483,M,-37.20,M,00,0000*61
$GPGGA,180740.50,4346.9268086,N,07927.8788922,W,4,06,1.5,189.477,M,-37.20,M,00,0000*6A
$GPGGA,180740.75,4346.9267092,N,07927.8788042,W,4,06,1.5,189.471,M,-37.20,M,00,0000*6E
$GPGGA,180741.00,4346.9266076,N,07927.8787106,W,4,06,1.5,189.461,M,-37.20,M,01,0000*68
$GPGGA,180741.25,4346.9264944,N,07927.8786334,W,4,06,1.5,189.502,M,-37.20,M,00,0000*62
$GPGGA,180741.50,4346.9263918,N,07927.8785290,W,4,06,1.5,189.491,M,-37.20,M,00,0000*69
$GPGGA,180741.75,4346.9262905,N,07927.8784364,W,4,06,1.5,189.474,M,-37.20,M,00,0000*63
$GPGGA,180742.00,4346.9261820,N,07927.8783431,W,4,06,1.5,189.515,M,-37.20,M,01,0000*60
$GPGGA,180742.25,4346.9260836,N,07927.8782405,W,4,06,1.5,189.503,M,-37.20,M,00,0000*61
$GPGGA,180742.50,4346.9259835,N,07927.8781433,W,4,06,1.5,189.495,M,-37.20,M,00,0000*62
$GPGGA,180742.75,4346.9258808,N,07927.8780443,W,4,06,1.5,189.498,M,-37.20,M,00,0000*61
$GPGGA,180743.00,4346.9257853,N,07927.8779471,W,4,06,1.5,189.474,M,-37.20,M,01,0000*67
$GPGGA,180743.25,4346.9256837,N,07927.8778490,W,4,07,1.3,189.478,M,-37.20,M,00,0000*67
$GPGGA,180743.50,4346.9255846,N,07927.8777533,W,4,07,1.3,189.472,M,-37.20,M,00,0000*6D
$GPGGA,180743.75,4346.9254772,N,07927.8776551,W,4,07,1.3,189.494,M,-37.20,M,00,0000*6E
$GPGGA,180744.00,4346.9253825,N,07927.8775664,W,4,07,1.3,189.473,M,-37.20,M,01,0000*6F
$GPGGA,180744.25,4346.9252820,N,07927.8774609,W,4,07,1.3,189.466,M,-37.20,M,00,0000*63
$GPGGA,180744.50,4346.9251809,N,07927.8773649,W,4,07,1.3,189.462,M,-37.20,M,00,0000*6E
$GPGGA,180744.75,4346.9250816,N,07927.8772743,W,4,07,1.3,189.461,M,-37.20,M,00,0000*6F
$GPGGA,180745.00,4346.9249792,N,07927.8771739,W,4,07,1.3,189.474,M,-37.20,M,01,0000*6C
$GPGGA,180745.25,4346.9248781,N,07927.8770799,W,4,07,1.3,189.452,M,-37.20,M,00,0000*66
$GPGGA,180745.50,4346.9247799,N,07927.8769874,W,4,07,1.3,189.453,M,-37.20,M,00,0000*67
$GPGGA,180745.75,4346.9246787,N,07927.8768780,W,4,07,1.3,189.466,M,-37.20,M,00,0000*6D
$GPGGA,180746.00,4346.9245812,N,07927.8767894,W,4,07,1.3,189.442,M,-37.20,M,01,0000*6E
$GPGGA,180746.25,4346.9244770,N,07927.8766961,W,4,07,1.3,189.447,M,-37.20,M,00,0000*6D
$GPGGA,180746.50,4346.9243776,N,07927.8765834,W,4,07,1.3,189.461,M,-37.20,M,00,0000*68
$GPGGA,180746.75,4346.9242847,N,07927.8764895,W,4,07,1.3,189.448,M,-37.20,M,00,0000*62
$GPGGA,180747.00,4346.9241820,N,07927.8763822,W,4,07,1.3,189.464,M,-37.20,M,01,0000*67
