$GPGGA,202303.25,4346.9291776,N,07927.9667699,W,5,06,1.9,190.838,M,-37.20,M,00,0000*60
$GPGGA,202303.50,4346.9291848,N,07927.9667708,W,5,06,1.9,190.824,M,-37.20,M,00,0000*64
$GPGGA,202303.75,4346.9291777,N,07927.9667702,W,5,06,1.9,190.842,M,-37.20,M,00,0000*6A
$GPGGA,202304.00,4346.9291791,N,07927.9667713,W,5,06,1.9,190.838,M,-37.20,M,01,0000*6B
$GPGGA,202304.25,4346.9291738,N,07927.9667628,W,5,06,1.9,190.847,M,-37.20,M,00,0000*6F
$GPGGA,202304.50,4346.9291737,N,07927.9667652,W,5,05,1.9,190.847,M,-37.20,M,00,0000*6C
$GPGGA,202304.75,4346.9291767,N,07927.9667653,W,5,05,1.9,190.838,M,-37.20,M,00,0000*67
$GPGGA,202305.00,4346.9291757,N,07927.9667618,W,5,05,1.9,190.836,M,-37.20,M,01,0000*67
$GPGGA,202305.25,4346.9291744,N,07927.9667601,W,5,05,1.9,190.845,M,-37.20,M,00,0000*6F
$GPGGA,202305.50,4346.9291708,N,07927.9667657,W,5,05,1.9,190.845,M,-37.20,M,00,0000*66
$GPGGA,202305.75,4346.9291725,N,07927.9667666,W,5,05,1.9,190.840,M,-37.20,M,00,0000*69
$GPGGA,202306.00,4346.9291734,N,07927.9667661,W,5,05,1.9,190.848,M,-37.20,M,01,0000*66
$GPGGA,202306.25,4346.9291854,N,07927.9667545,W,5,05,1.9,190.818,M,-37.20,M,00,0000*69
$GPGGA,202306.50,4346.9291800,N,07927.9667588,W,5,05,1.9,190.828,M,-37.20,M,00,0000*68
$GPGGA,202306.75,4346.9291785,N,07927.9667561,W,5,05,1.9,190.838,M,-37.20,M,00,0000*6B
$GPGGA,202307.00,4346.9291830,N,07927.9667602,W,5,05,1.9,190.823,M,-37.20,M,01,0000*64
$GPGGA,202307.25,4346.9291808,N,07927.9667633,W,5,05,1.9,190.833,M,-37.20,M,00,0000*6A
$GPGGA,202307.50,4346.9291754,N,07927.9667615,W,5,05,1.9,190.844,M,-37.20,M,00,0000*6A
$GPGGA,202307.75,4346.9291807,N,07927.9667634,W,5,05,1.9,190.831,M,-37.20,M,00,0000*65
$GPGGA,202308.00,4346.9291767,N,07927.9667622,W,5,05,1.9,190.848,M,-37.20,M,01,0000*69
$GPGGA,202308.25,4346.9291960,N,07927.9667582,W,5,05,1.9,190.786,M,-37.20,M,00,0000*62
$GPGGA,202308.50,4346.9291718,N,07927.9667553,W,5,05,1.9,190.851,M,-37.20,M,00,0000*68
$GPGGA,202308.75,4346.9291852,N,07927.9667568,W,5,05,1.9,190.820,M,-37.20,M,00,0000*60
$GPGGA,202309.00,4346.9291778,N,07927.9667582,W,5,05,1.9,190.832,M,-37.20,M,01,0000*62
$GPGGA,202309.25,4346.9291885,N,07927.9667531,W,5,05,1.9,190.812,M,-37.20,M,00,0000*63
$GPGGA,202309.50,4346.9291836,N,07927.9667513,W,5,05,1.9,190.819,M,-37.20,M,00,0000*62
$GPGGA,202309.75,4346.9291789,N,07927.9667536,W,5,05,1.9,190.835,M,-37.20,M,00,0000*67
$GPGGA,202310.00,4346.9291871,N,07927.9667512,W,5,05,1.9,190.815,M,-37.20,M,01,0000*60
$GPGGA,202310.25,4346.9291853,N,07927.9667507,W,5,05,1.9,190.817,M,-37.20,M,00,0000*60
$GPGGA,202310.50,4346.9291797,N,07927.9667474,W,5,05,1.9,190.840,M,-37.20,M,00,0000*62
$GPGGA,202310.75,4346.9291826,N,07927.9667541,W,5,05,1.9,190.824,M,-37.20,M,00,0000*65
$GPGGA,202311.00,4346.9291869,N,07927.9667521,W,5,05,1.9,190.817,M,-37.20,M,01,0000*6A
$GPGGA,202311.25,4346.9291944,N,07927.9667475,W,5,05,1.9,190.795,M,-37.20,M,00,0000*67
$GPGGA,202311.50,4346.9291907,N,07927.9667466,W,5,05,1.9,190.805,M,-37.20,M,00,0000*66
$GPGGA,202311.75,4346.9291918,N,07927.9667480,W,5,05,1.9,190.808,M,-37.20,M,00,0000*6A
$GPGGA,202312.00,4346.9291946,N,07927.9667486,W,5,05,1.9,190.800,M,-37.20,M,01,0000*6F
$GPGGA,202312.25,4346.9291879,N,07927.9667422,W,5,05,1.9,190.811,M,-37.20,M,00,0000*6A
$GPGGA,202312.50,4346.9291853,N,07927.9667477,W,5,05,1.9,190.813,M,-37.20,M,00,0000*62
$GPGGA,202312.75,4346.9291864,N,07927.9667423,W,5,05,1.9,190.815,M,-37.20,M,00,0000*66
$GPGGA,202313.00,4346.9291881,N,07927.9667442,W,5,05,1.9,190.808,M,-37.20,M,01,0000*64
$GPGGA,202313.25,4346.9291969,N,07927.9667365,W,5,05,1.9,190.785,M,-37.20,M,00,0000*6D
$GPGGA,202313.50,4346.9291964,N,07927.9667364,W,5,05,1.9,190.788,M,-37.20,M,00,0000*6E
$GPGGA,202313.75,4346.9291958,N,07927.9667400,W,5,05,1.9,190.788,M,-37.20,M,00,0000*63
$GPGGA,202314.00,4346.9291951,N,07927.9667414,W,5,05,1.9,190.793,M,-37.20,M,01,0000*61
$GPGGA,202314.25,4346.9291988,N,07927.9667366,W,5,05,1.9,190.775,M,-37.20,M,00,0000*69
$GPGGA,202314.50,4346.9291943,N,07927.9667411,W,5,05,1.9,190.787,M,-37.20,M,00,0000*66
$GPGGA,202314.75,4346.9291916,N,07927.9667381,W,5,05,1.9,190.795,M,-37.20,M,00,0000*6C
$GPGGA,202315.00,4346.9292005,N,07927.9667369,W,5,04,1.9,190.780,M,-37.20,M,01,0000*65
$GPGGA,202315.25,4346.9291855,N,07927.9667375,W,5,04,6.9,190.811,M,-37.20,M,00,0000*60
$GPGGA,202315.50,4346.9291914,N,07927.9667481,W,5,04,6.9,190.805,M,-37.20,M,00,0000*6F
$GPGGA,202315.75,4346.9291738,N,07927.9667843,W,5,04,6.9,190.828,M,-37.20,M,00,0000*65
$GPGGA,202316.00,4346.9291693,N,07927.9668241,W,5,04,6.9,190.843,M,-37.20,M,01,0000*6F
$GPGGA,202316.25,4346.9291481,N,07927.9668769,W,5,04,6.9,190.850,M,-37.20,M,00,0000*65
$GPGGA,202316.50,4346.9291392,N,07927.9669220,W,5,04,6.9,190.855,M,-37.20,M,00,0000*6E
$GPGGA,202316.75,4346.9291279,N,07927.9669691,W,5,04,6.9,190.834,M,-37.20,M,00,0000*64
$GPGGA,202317.00,4346.9291196,N,07927.9670173,W,5,04,6.9,190.814,M,-37.20,M,01,0000*65
$GPGGA,202317.25,4346.9290986,N,07927.9670686,W,5,04,6.9,190.830,M,-37.20,M,00,0000*60
$GPGGA,202317.50,4346.9290784,N,07927.9671249,W,5,04,6.9,190.815,M,-37.20,M,00,0000*6F
$GPGGA,202317.75,4346.9290509,N,07927.9671936,W,5,04,6.9,190.818,M,-37.20,M,00,0000*61
$GPGGA,202318.00,4346.9290281,N,07927.9672419,W,5,04,6.9,190.844,M,-37.20,M,01,0000*60
$GPGGA,202318.25,4346.9290023,N,07927.9672974,W,5,04,6.9,190.826,M,-37.20,M,00,0000*6E
$GPGGA,202318.50,4346.9289932,N,07927.9673508,W,5,04,6.9,190.760,M,-37.20,M,00,0000*66
$GPGGA,202318.75,4346.9289462,N,07927.9674207,W,5,04,6.9,190.812,M,-37.20,M,00,0000*6C
$GPGGA,202319.00,4346.9289120,N,07927.9674810,W,5,04,6.9,190.817,M,-37.20,M,01,0000*64
$GPGGA,202319.25,4346.9289022,N,07927.9675262,W,5,04,6.9,190.725,M,-37.20,M,00,0000*61
$GPGGA,202319.50,4346.9288829,N,07927.9675747,W,5,04,6.9,190.703,M,-37.20,M,00,0000*67
$GPGGA,202319.75,4346.9288479,N,07927.9676514,W,5,04,6.9,190.720,M,-37.20,M,00,0000*6F
$GPGGA,202320.00,4346.9287868,N,07927.9677296,W,5,04,6.9,190.756,M,-37.20,M,01,0000*68
$GPGGA,202320.25,4346.9287568,N,07927.9678036,W,5,04,6.9,190.749,M,-37.20,M,00,0000*6A
$GPGGA,202320.50,4346.9287351,N,07927.9678812,W,5,04,6.9,190.719,M,-37.20,M,00,0000*6F
$GPGGA,202320.75,4346.9287032,N,07927.9679521,W,5,04,6.9,190.671,M,-37.20,M,00,0000*6D
$GPGGA,202321.00,4346.9286512,N,07927.9680374,W,5,04,6.9,190.720,M,-37.20,M,01,0000*6C
$GPGGA,202321.25,4346.9285884,N,07927.9681255,W,5,04,6.9,190.780,M,-37.20,M,00,0000*62
$GPGGA,202321.50,4346.9285386,N,07927.9682005,W,5,06,6.9,190.782,M,-37.20,M,00,0000*6D
$GPGGA,202321.75,4346.9285045,N,07927.9682816,W,5,05,1.9,190.787,M,-37.20,M,00,0000*6D
$GPGGA,202322.00,4346.9284585,N,07927.9683633,W,5,05,1.9,190.779,M,-37.20,M,01,0000*6C
$GPGGA,202322.25,4346.9284205,N,07927.9684538,W,5,06,1.9,190.745,M,-37.20,M,00,0000*66
$GPGGA,202322.50,4346.9283803,N,07927.9685425,W,5,06,1.9,190.757,M,-37.20,M,00,0000*60
$GPGGA,202322.75,4346.9283354,N,07927.9686202,W,5,06,1.8,190.759,M,-37.20,M,00,0000*61
$GPGGA,202323.00,4346.9283075,N,07927.9687273,W,5,06,1.8,190.734,M,-37.20,M,01,0000*6F
$GPGGA,202323.25,4346.9282672,N,07927.9688229,W,5,06,1.8,190.758,M,-37.20,M,00,0000*63
$GPGGA,202323.50,4346.9282398,N,07927.9689116,W,5,06,1.8,190.756,M,-37.20,M,00,0000*60
$GPGGA,202323.75,4346.9282006,N,07927.9689995,W,5,06,1.8,190.761,M,-37.20,M,00,0000*64
$GPGGA,202324.00,4346.9281585,N,07927.9690903,W,5,06,1.8,190.741,M,-37.20,M,01,0000*68
$GPGGA,202324.25,4346.9281085,N,07927.9691763,W,5,06,1.8,190.770,M,-37.20,M,00,0000*60
$GPGGA,202324.50,4346.9280758,N,07927.9692686,W,5,06,1.8,190.761,M,-37.20,M,00,0000*6D
$GPGGA,202324.75,4346.9280301,N,07927.9693605,W,5,06,1.8,190.788,M,-37.20,M,00,0000*6F
$GPGGA,202325.00,4346.9279976,N,07927.9694537,W,5,06,1.8,190.786,M,-37.20,M,01,0000*6A
$GPGGA,202325.25,4346.9279464,N,07927.9695519,W,5,06,1.8,190.789,M,-37.20,M,01,0000*61
$GPGGA,202325.50,4346.9279070,N,07927.9696331,W,5,06,1.8,190.778,M,-37.20,M,01,0000*63
$GPGGA,202325.75,4346.9278685,N,07927.9697293,W,5,06,1.8,190.784,M,-37.20,M,01,0000*62
$GPGGA,202326.00,4346.9278266,N,07927.9698225,W,5,06,1.8,190.795,M,-37.20,M,02,0000*6B
$GPGGA,202326.25,4346.9278238,N,07927.9698977,W,5,07,1.8,190.653,M,-37.20,M,00,0000*63
$GPGGA,202326.50,4346.9277787,N,07927.9699990,W,5,07,1.8,190.666,M,-37.20,M,00,0000*61
$GPGGA,202326.75,4346.9277489,N,07927.9700923,W,5,07,1.1,190.651,M,-37.20,M,00,0000*6F
$GPGGA,202327.00,4346.9277204,N,07927.9701911,W,5,06,1.1,190.656,M,-37.20,M,01,0000*68
$GPGGA,202327.25,4346.9276710,N,07927.9702907,W,5,06,1.3,190.679,M,-37.20,M,00,0000*64
$GPGGA,202327.50,4346.9276428,N,07927.9703887,W,5,06,1.3,190.675,M,-37.20,M,00,0000*6A
$GPGGA,202327.75,4346.9276124,N,07927.9704900,W,5,06,1.3,190.674,M,-37.20,M,00,0000*6C
$GPGGA,202328.00,4346.9275952,N,07927.9705931,W,5,06,1.3,190.669,M,-37.20,M,01,0000*65
$GPGGA,202328.25,4346.9275697,N,07927.9706898,W,5,06,1.3,190.673,M,-37.20,M,00,0000*6F
$GPGGA,202328.50,4346.9275519,N,07927.9707882,W,5,06,1.3,190.653,M,-37.20,M,00,0000*60
$GPGGA,202328.75,4346.9275252,N,07927.9708921,W,5,06,1.3,190.662,M,-37.20,M,00,0000*6A
$GPGGA,202329.00,4346.9274980,N,07927.9709730,W,5,06,1.3,190.613,M,-37.20,M,01,0000*64
$GPGGA,202329.25,4346.9275123,N,07927.9710697,W,5,06,1.3,190.525,M,-37.20,M,00,0000*60
$GPGGA,202329.50,4346.9274822,N,07927.9711778,W,5,06,1.3,190.541,M,-37.20,M,00,0000*68
$GPGGA,202329.75,4346.9274573,N,07927.9712745,W,5,06,1.3,190.542,M,-37.20,M,00,0000*68
$GPGGA,202330.00,4346.9274253,N,07927.9713771,W,5,06,1.3,190.534,M,-37.20,M,01,0000*61
$GPGGA,202330.25,4346.9273920,N,07927.9714729,W,5,06,1.3,190.573,M,-37.20,M,00,0000*66
$GPGGA,202330.50,4346.9273705,N,07927.9715691,W,5,06,1.3,190.549,M,-37.20,M,00,0000*67
$GPGGA,202330.75,4346.9273387,N,07927.9716667,W,5,06,1.3,190.550,M,-37.20,M,00,0000*6C
$GPGGA,202331.00,4346.9273072,N,07927.9717739,W,5,06,1.3,190.548,M,-37.20,M,01,0000*65
$GPGGA,202331.25,4346.9272831,N,07927.9718583,W,5,06,1.3,190.507,M,-37.20,M,00,0000*6A
$GPGGA,202331.50,4346.9272567,N,07927.9719668,W,5,06,1.3,190.525,M,-37.20,M,00,0000*61
$GPGGA,202331.75,4346.9272276,N,07927.9720736,W,5,06,1.3,190.519,M,-37.20,M,00,0000*6E
$GPGGA,202332.00,4346.9272011,N,07927.9721689,W,5,06,1.3,190.523,M,-37.20,M,01,0000*60
$GPGGA,202332.25,4346.9271869,N,07927.9722649,W,5,06,1.3,190.523,M,-37.20,M,00,0000*6D
$GPGGA,202332.50,4346.9271527,N,07927.9723652,W,5,06,1.3,190.545,M,-37.20,M,00,0000*63
$GPGGA,202332.75,4346.9271316,N,07927.9724672,W,5,06,1.3,190.544,M,-37.20,M,00,0000*64
$GPGGA,202333.00,4346.9271072,N,07927.9725655,W,5,06,1.3,190.536,M,-37.20,M,01,0000*66
$GPGGA,202333.25,4346.9270852,N,07927.9726679,W,5,06,1.3,190.497,M,-37.20,M,00,0000*6C
$GPGGA,202333.50,4346.9270633,N,07927.9727653,W,5,06,1.3,190.498,M,-37.20,M,00,0000*61
$GPGGA,202333.75,4346.9270328,N,07927.9728669,W,5,06,1.3,190.503,M,-37.20,M,00,0000*6C
$GPGGA,202334.00,4346.9270018,N,07927.9729847,W,5,06,1.3,190.514,M,-37.20,M,01,0000*6D
$GPGGA,202334.25,4346.9269782,N,07927.9730898,W,5,06,1.3,190.505,M,-37.20,M,00,0000*6D
$GPGGA,202334.50,4346.9269544,N,07927.9732111,W,5,06,1.3,190.500,M,-37.20,M,00,0000*68
$GPGGA,202334.75,4346.9269297,N,07927.9733213,W,5,06,1.3,190.489,M,-37.20,M,00,0000*66
$GPGGA,202335.00,4346.9269097,N,07927.9734405,W,5,06,1.3,190.479,M,-37.20,M,01,0000*6F
$GPGGA,202335.25,4346.9268756,N,07927.9735642,W,5,06,1.3,190.471,M,-37.20,M,00,0000*6A
$GPGGA,202335.50,4346.9268440,N,07927.9736828,W,5,06,1.3,190.448,M,-37.20,M,00,0000*67
$GPGGA,202335.75,4346.9268171,N,07927.9738068,W,5,06,1.3,190.442,M,-37.20,M,00,0000*6F
$GPGGA,202336.00,4346.9267830,N,07927.9739361,W,5,06,1.3,190.448,M,-37.20,M,01,0000*6D
$GPGGA,202336.25,4346.9267669,N,07927.9740585,W,5,06,1.3,190.448,M,-37.20,M,00,0000*6B
$GPGGA,202336.50,4346.9267300,N,07927.9741969,W,5,06,1.3,190.433,M,-37.20,M,00,0000*60
$GPGGA,202336.75,4346.9266960,N,07927.9743430,W,5,06,1.3,190.427,M,-37.20,M,00,0000*6C
$GPGGA,202337.00,4346.9266661,N,07927.9744977,W,5,06,1.3,190.426,M,-37.20,M,01,0000*68
$GPGGA,202337.25,4346.9266352,N,07927.9746380,W,5,06,1.3,190.420,M,-37.20,M,00,0000*6D
$GPGGA,202337.50,4346.9266055,N,07927.9747901,W,5,06,1.3,190.430,M,-37.20,M,00,0000*68
$GPGGA,202337.75,4346.9265670,N,07927.9749428,W,5,06,1.3,190.416,M,-37.20,M,00,0000*61
$GPGGA,202338.00,4346.9265354,N,07927.9750973,W,5,06,1.3,190.400,M,-37.20,M,01,0000*62
$GPGGA,202338.25,4346.9264910,N,07927.9752558,W,5,06,1.3,190.378,M,-37.20,M,00,0000*60
$GPGGA,202338.50,4346.9264581,N,07927.9754128,W,5,06,1.3,190.362,M,-37.20,M,00,0000*68
$GPGGA,202338.75,4346.9264213,N,07927.9755727,W,5,06,1.3,190.358,M,-37.20,M,00,0000*62
$GPGGA,202339.00,4346.9263900,N,07927.9757347,W,5,06,1.3,190.343,M,-37.20,M,01,0000*64
$GPGGA,202339.25,4346.9263528,N,07927.9758944,W,5,06,1.3,190.321,M,-37.20,M,00,0000*66
$GPGGA,202339.50,4346.9263188,N,07927.9760465,W,5,06,1.3,190.308,M,-37.20,M,00,0000*64
$GPGGA,202339.75,4346.9262896,N,07927.9761893,W,5,06,1.3,190.313,M,-37.20,M,00,0000*6A
$GPGGA,202340.00,4346.9262618,N,07927.9763534,W,5,06,1.3,190.312,M,-37.20,M,01,0000*6C
$GPGGA,202340.25,4346.9262252,N,07927.9765057,W,5,06,1.3,190.301,M,-37.20,M,00,0000*64
$GPGGA,202340.50,4346.9262023,N,07927.9766716,W,5,06,1.3,190.290,M,-37.20,M,00,0000*6A
$GPGGA,202340.75,4346.9261635,N,07927.9768387,W,5,06,1.3,190.288,M,-37.20,M,00,0000*64
$GPGGA,202341.00,4346.9261544,N,07927.9770086,W,5,06,1.3,190.304,M,-37.20,M,01,0000*6D
$GPGGA,202341.25,4346.9261255,N,07927.9771719,W,5,06,1.3,190.251,M,-37.20,M,00,0000*6D
$GPGGA,202341.50,4346.9261171,N,07927.9773302,W,5,06,1.3,190.268,M,-37.20,M,00,0000*6C
$GPGGA,202341.75,4346.9261044,N,07927.9774901,W,5,06,1.3,190.250,M,-37.20,M,00,0000*69
$GPGGA,202342.00,4346.9260928,N,07927.9776526,W,5,06,1.3,190.264,M,-37.20,M,01,0000*67
$GPGGA,202342.25,4346.9260779,N,07927.9778169,W,5,06,1.3,190.263,M,-37.20,M,00,0000*6D
$GPGGA,202342.50,4346.9260625,N,07927.9779823,W,5,06,1.3,190.249,M,-37.20,M,00,0000*69
$GPGGA,202342.75,4346.9260534,N,07927.9781579,W,5,06,1.3,190.240,M,-37.20,M,00,0000*61
$GPGGA,202343.00,4346.9260348,N,07927.9783317,W,5,05,1.3,190.228,M,-37.20,M,01,0000*6F
$GPGGA,202343.25,4346.9260197,N,07927.9784988,W,5,04,1.6,190.225,M,-37.20,M,00,0000*6B
$GPGGA,202343.50,4346.9260243,N,07927.9786674,W,5,04,1.6,190.248,M,-37.20,M,00,0000*66
$GPGGA,202343.75,4346.9259965,N,07927.9788318,W,5,04,9.7,190.224,M,-37.20,M,00,0000*66
$GPGGA,202344.00,4346.9259684,N,07927.9790008,W,5,04,9.7,190.186,M,-37.20,M,01,0000*62
$GPGGA,202344.25,4346.9259666,N,07927.9791599,W,5,04,9.7,190.205,M,-37.20,M,00,0000*6C
$GPGGA,202344.50,4346.9259461,N,07927.9793256,W,5,04,9.7,190.170,M,-37.20,M,00,0000*6C
$GPGGA,202344.75,4346.9259575,N,07927.9794951,W,5,04,9.7,190.215,M,-37.20,M,00,0000*64
$GPGGA,202345.00,4346.9259392,N,07927.9796645,W,5,04,9.7,190.186,M,-37.20,M,01,0000*68
$GPGGA,202345.25,4346.9259279,N,07927.9798273,W,5,05,1.6,190.193,M,-37.20,M,01,0000*68
$GPGGA,202345.50,4346.9259115,N,07927.9800038,W,5,06,1.6,190.169,M,-37.20,M,01,0000*66
$GPGGA,202345.75,4346.9258931,N,07927.9801669,W,5,06,1.3,190.172,M,-37.20,M,01,0000*62
$GPGGA,202346.00,4346.9258823,N,07927.9803409,W,5,06,1.3,190.166,M,-37.20,M,02,0000*61
$GPGGA,202346.25,4346.9258820,N,07927.9805107,W,5,06,1.3,190.165,M,-37.20,M,02,0000*6B
$GPGGA,202346.50,4346.9258527,N,07927.9806798,W,5,06,1.3,190.147,M,-37.20,M,02,0000*60
$GPGGA,202346.75,4346.9258431,N,07927.9808488,W,5,06,1.3,190.120,M,-37.20,M,02,0000*6C
$GPGGA,202347.00,4346.9258414,N,07927.9810152,W,5,05,1.3,190.150,M,-37.20,M,03,0000*66
$GPGGA,202347.25,4346.9258224,N,07927.9811853,W,5,05,1.6,190.114,M,-37.20,M,00,0000*6B
$GPGGA,202347.50,4346.9258023,N,07927.9813588,W,5,05,1.6,190.091,M,-37.20,M,00,0000*69
$GPGGA,202347.75,4346.9257983,N,07927.9815274,W,5,05,1.6,190.082,M,-37.20,M,00,0000*62
$GPGGA,202348.00,4346.9257910,N,07927.9817010,W,5,05,1.6,190.114,M,-37.20,M,01,0000*68
$GPGGA,202348.25,4346.9257678,N,07927.9818709,W,5,05,1.6,190.085,M,-37.20,M,00,0000*66
$GPGGA,202348.50,4346.9257518,N,07927.9820396,W,5,05,1.6,190.064,M,-37.20,M,00,0000*67
$GPGGA,202348.75,4346.9257205,N,07927.9822140,W,5,04,1.6,189.985,M,-37.20,M,00,0000*6F
$GPGGA,202349.00,4346.9257178,N,07927.9823794,W,5,04,1.6,190.024,M,-37.20,M,01,0000*60
$GPGGA,202349.25,4346.9256945,N,07927.9825465,W,5,05,1.3,189.999,M,-37.20,M,00,0000*69
$GPGGA,202349.50,4346.9256772,N,07927.9827095,W,5,05,1.3,190.007,M,-37.20,M,00,0000*6E
$GPGGA,202349.75,4346.9256575,N,07927.9828745,W,5,05,1.5,190.009,M,-37.20,M,00,0000*61
$GPGGA,202350.00,4346.9256387,N,07927.9830422,W,5,05,1.5,189.989,M,-37.20,M,01,0000*63
$GPGGA,202350.25,4346.9256125,N,07927.9831986,W,5,05,1.5,189.976,M,-37.20,M,00,0000*6D
$GPGGA,202350.50,4346.9255841,N,07927.9833745,W,5,05,1.5,189.970,M,-37.20,M,00,0000*62
$GPGGA,202350.75,4346.9255557,N,07927.9835350,W,5,05,1.5,189.954,M,-37.20,M,00,0000*6F
$GPGGA,202351.00,4346.9255250,N,07927.9836944,W,5,05,1.5,189.960,M,-37.20,M,01,0000*66
$GPGGA,202351.25,4346.9254934,N,07927.9838654,W,5,05,1.5,189.951,M,-37.20,M,00,0000*6A
$GPGGA,202351.50,4346.9254594,N,07927.9840219,W,5,05,1.5,189.938,M,-37.20,M,00,0000*63
$GPGGA,202351.75,4346.9254300,N,07927.9841846,W,5,05,1.5,189.920,M,-37.20,M,00,0000*67
$GPGGA,202352.00,4346.9253960,N,07927.9843490,W,5,05,1.5,189.931,M,-37.20,M,01,0000*69
$GPGGA,202352.25,4346.9253632,N,07927.9845074,W,5,05,1.5,189.921,M,-37.20,M,00,0000*6E
$GPGGA,202352.50,4346.9253277,N,07927.9846658,W,5,05,1.5,189.905,M,-37.20,M,00,0000*64
$GPGGA,202352.75,4346.9252927,N,07927.9848294,W,5,05,1.5,189.904,M,-37.20,M,00,0000*67
$GPGGA,202353.00,4346.9252542,N,07927.9849876,W,5,05,1.5,189.894,M,-37.20,M,01,0000*65
$GPGGA,202353.25,4346.9252221,N,07927.9851590,W,5,05,1.5,189.899,M,-37.20,M,00,0000*60
$GPGGA,202353.50,4346.9251849,N,07927.9853137,W,5,05,1.5,189.886,M,-37.20,M,00,0000*60
$GPGGA,202353.75,4346.9251423,N,07927.9854711,W,5,06,1.3,189.868,M,-37.20,M,00,0000*67
$GPGGA,202354.00,4346.9251023,N,07927.9856400,W,5,06,1.3,189.875,M,-37.20,M,01,0000*6A
$GPGGA,202354.25,4346.9250598,N,07927.9857878,W,5,06,1.3,189.868,M,-37.20,M,00,0000*66
$GPGGA,202354.50,4346.9250197,N,07927.9859448,W,5,06,1.3,189.852,M,-37.20,M,00,0000*67
$GPGGA,202354.75,4346.9249704,N,07927.9861053,W,5,06,1.3,189.836,M,-37.20,M,00,0000*63
$GPGGA,202355.00,4346.9249174,N,07927.9862650,W,5,06,1.3,189.839,M,-37.20,M,01,0000*69
$GPGGA,202355.25,4346.9248765,N,07927.9864115,W,5,06,1.3,189.833,M,-37.20,M,00,0000*62
$GPGGA,202355.50,4346.9248200,N,07927.9865633,W,5,06,1.3,189.833,M,-37.20,M,00,0000*64
$GPGGA,202355.75,4346.9247666,N,07927.9867177,W,5,06,1.3,189.821,M,-37.20,M,00,0000*6E
$GPGGA,202356.00,4346.9247119,N,07927.9868740,W,5,06,1.3,189.813,M,-37.20,M,01,0000*6D
$GPGGA,202356.25,4346.9253856,N,07927.9866169,W,5,06,1.3,188.891,M,-37.20,M,00,0000*64
$GPGGA,202356.50,4346.9253306,N,07927.9867666,W,5,06,1.3,188.884,M,-37.20,M,00,0000*65
$GPGGA,202356.75,4346.9252751,N,07927.9869122,W,5,06,1.3,188.885,M,-37.20,M,00,0000*6D
$GPGGA,202357.00,4346.9252178,N,07927.9870633,W,5,06,1.3,188.884,M,-37.20,M,01,0000*6C
$GPGGA,202357.25,4346.9251521,N,07927.9872141,W,5,06,1.3,188.873,M,-37.20,M,00,0000*69
$GPGGA,202357.50,4346.9250970,N,07927.9873613,W,5,06,1.3,188.871,M,-37.20,M,00,0000*61
$GPGGA,202357.75,4346.9250391,N,07927.9875037,W,5,06,1.3,188.857,M,-37.20,M,00,0000*61
$GPGGA,202358.00,4346.9249827,N,07927.9876501,W,5,06,1.3,188.848,M,-37.20,M,01,0000*6E
$GPGGA,202358.25,4346.9249115,N,07927.9878032,W,5,06,1.3,188.861,M,-37.20,M,00,0000*60
$GPGGA,202358.50,4346.9248487,N,07927.9879564,W,5,06,1.3,188.866,M,-37.20,M,00,0000*6D
$GPGGA,202358.75,4346.9247888,N,07927.9881044,W,5,06,1.3,188.878,M,-37.20,M,00,0000*69
$GPGGA,202359.00,4346.9247418,N,07927.9882602,W,5,06,1.3,188.871,M,-37.20,M,01,0000*60
$GPGGA,202359.25,4346.9247004,N,07927.9884275,W,5,06,1.3,188.838,M,-37.20,M,00,0000*60
$GPGGA,202359.50,4346.9246488,N,07927.9885861,W,5,06,1.3,188.837,M,-37.20,M,00,0000*62
$GPGGA,202359.75,4346.9246083,N,07927.9887402,W,5,06,1.3,188.833,M,-37.20,M,00,0000*65
$GPGGA,202400.00,4346.9245584,N,07927.9888927,W,5,06,1.3,188.827,M,-37.20,M,01,0000*6C
$GPGGA,202400.25,4346.9245042,N,07927.9890487,W,5,06,1.3,188.808,M,-37.20,M,00,0000*66
$GPGGA,202400.50,4346.9244573,N,07927.9892073,W,5,06,1.3,188.811,M,-37.20,M,00,0000*67
$GPGGA,202400.75,4346.9244084,N,07927.9893607,W,5,06,1.3,188.802,M,-37.20,M,00,0000*6B
$GPGGA,202401.00,4346.9243575,N,07927.9895168,W,5,06,1.3,188.793,M,-37.20,M,01,0000*6A
$GPGGA,202401.25,4346.9243153,N,07927.9896800,W,5,06,1.3,188.775,M,-37.20,M,00,0000*60
$GPGGA,202401.50,4346.9242686,N,07927.9898258,W,5,06,1.3,188.762,M,-37.20,M,00,0000*63
$GPGGA,202401.75,4346.9242261,N,07927.9899826,W,5,06,1.3,188.765,M,-37.20,M,00,0000*6C
$GPGGA,202402.00,4346.9241771,N,07927.9901375,W,5,06,1.3,188.747,M,-37.20,M,01,0000*66
$GPGGA,202402.25,4346.9241328,N,07927.9902880,W,5,06,1.3,188.729,M,-37.20,M,00,0000*62
$GPGGA,202402.50,4346.9240905,N,07927.9904396,W,5,06,1.3,188.724,M,-37.20,M,00,0000*63
$GPGGA,202402.75,4346.9240463,N,07927.9905831,W,5,06,1.3,188.704,M,-37.20,M,00,0000*6C
$GPGGA,202403.00,4346.9239932,N,07927.9907425,W,5,06,1.3,188.700,M,-37.20,M,01,0000*66
$GPGGA,202403.25,4346.9239482,N,07927.9908990,W,5,06,1.3,188.690,M,-37.20,M,00,0000*62
$GPGGA,202403.50,4346.9239062,N,07927.9910531,W,5,06,1.3,188.689,M,-37.20,M,00,0000*6C
$GPGGA,202403.75,4346.9238647,N,07927.9912106,W,5,06,1.3,188.689,M,-37.20,M,00,0000*69
$GPGGA,202404.00,4346.9238298,N,07927.9913781,W,5,06,1.3,188.691,M,-37.20,M,01,0000*6A
$GPGGA,202404.25,4346.9238065,N,07927.9915252,W,5,06,1.3,188.648,M,-37.20,M,00,0000*65
$GPGGA,202404.50,4346.9237656,N,07927.9916883,W,5,06,1.3,188.647,M,-37.20,M,00,0000*64
$GPGGA,202404.75,4346.9237251,N,07927.9918439,W,5,06,1.3,188.637,M,-37.20,M,00,0000*64
$GPGGA,202405.00,4346.9236894,N,07927.9920010,W,5,06,1.3,188.619,M,-37.20,M,01,0000*6C
$GPGGA,202405.25,4346.9236318,N,07927.9921809,W,5,06,1.3,188.618,M,-37.20,M,00,0000*65
$GPGGA,202405.50,4346.9235932,N,07927.9923409,W,5,06,1.3,188.626,M,-37.20,M,00,0000*65
$GPGGA,202405.75,4346.9235560,N,07927.9925007,W,5,06,1.3,188.620,M,-37.20,M,00,0000*63
$GPGGA,202406.00,4346.9235291,N,07927.9926682,W,5,06,1.3,188.615,M,-37.20,M,01,0000*64
$GPGGA,202406.25,4346.9235022,N,07927.9928174,W,5,06,1.3,188.602,M,-37.20,M,00,0000*6E
$GPGGA,202406.50,4346.9234759,N,07927.9929836,W,5,06,1.3,188.597,M,-37.20,M,00,0000*67
$GPGGA,202406.75,4346.9234538,N,07927.9931516,W,5,06,1.3,188.600,M,-37.20,M,00,0000*6E
$GPGGA,202407.00,4346.9234367,N,07927.9933179,W,5,06,1.3,188.581,M,-37.20,M,01,0000*65
$GPGGA,202407.25,4346.9234047,N,07927.9934776,W,5,06,1.3,188.566,M,-37.20,M,00,0000*65
$GPGGA,202407.50,4346.9233819,N,07927.9936448,W,5,06,1.3,188.557,M,-37.20,M,00,0000*6D
$GPGGA,202407.75,4346.9233549,N,07927.9938052,W,5,06,1.3,188.548,M,-37.20,M,00,0000*6D
$GPGGA,202408.00,4346.9233330,N,07927.9939751,W,5,06,1.3,188.546,M,-37.20,M,01,0000*62
$GPGGA,202408.25,4346.9233130,N,07927.9941315,W,5,06,1.3,188.538,M,-37.20,M,00,0000*64
$GPGGA,202408.50,4346.9232849,N,07927.9943008,W,5,06,1.3,188.531,M,-37.20,M,00,0000*64
$GPGGA,202408.75,4346.9232639,N,07927.9944623,W,5,06,1.3,188.535,M,-37.20,M,00,0000*66
$GPGGA,202409.00,4346.9232403,N,07927.9946267,W,5,06,1.3,188.539,M,-37.20,M,01,0000*65
$GPGGA,202409.25,4346.9232042,N,07927.9948019,W,5,06,1.3,188.524,M,-37.20,M,00,0000*6B
$GPGGA,202409.50,4346.9231811,N,07927.9949614,W,5,06,1.3,188.521,M,-37.20,M,00,0000*6B
$GPGGA,202409.75,4346.9231577,N,07927.9951312,W,5,06,1.3,188.530,M,-37.20,M,00,0000*6B
$GPGGA,202410.00,4346.9231314,N,07927.9953029,W,5,06,1.3,188.513,M,-37.20,M,01,0000*6B
$GPGGA,202410.25,4346.9231170,N,07927.9954607,W,5,06,1.3,188.525,M,-37.20,M,00,0000*65
$GPGGA,202410.50,4346.9230894,N,07927.9956239,W,5,06,1.3,188.521,M,-37.20,M,00,0000*6A
$GPGGA,202410.75,4346.9230685,N,07927.9957923,W,5,06,1.3,188.520,M,-37.20,M,00,0000*63
$GPGGA,202411.00,4346.9230421,N,07927.9959607,W,5,06,1.3,188.526,M,-37.20,M,01,0000*6C
$GPGGA,202411.25,4346.9230223,N,07927.9961307,W,5,06,1.3,188.536,M,-37.20,M,00,0000*61
$GPGGA,202411.50,4346.9229980,N,07927.9962945,W,5,06,1.3,188.537,M,-37.20,M,00,0000*67
$GPGGA,202411.75,4346.9229804,N,07927.9964645,W,5,06,1.3,188.544,M,-37.20,M,00,0000*60
$GPGGA,202412.00,4346.9229512,N,07927.9966327,W,5,06,1.3,188.545,M,-37.20,M,01,0000*68
$GPGGA,202412.25,4346.9229308,N,07927.9967969,W,5,06,1.3,188.530,M,-37.20,M,00,0000*60
$GPGGA,202412.50,4346.9229075,N,07927.9969672,W,5,06,1.3,188.531,M,-37.20,M,00,0000*61
$GPGGA,202412.75,4346.9228841,N,07927.9971292,W,5,06,1.3,188.521,M,-37.20,M,00,0000*6A
$GPGGA,202413.00,4346.9228628,N,07927.9972994,W,5,06,1.3,188.506,M,-37.20,M,01,0000*62
$GPGGA,202413.25,4346.9228294,N,07927.9974733,W,5,06,1.3,188.515,M,-37.20,M,00,0000*60
$GPGGA,202413.50,4346.9228037,N,07927.9976449,W,5,06,1.3,188.512,M,-37.20,M,00,0000*62
$GPGGA,202413.75,4346.9227823,N,07927.9978193,W,5,06,1.3,188.502,M,-37.20,M,00,0000*6A
$GPGGA,202414.00,4346.9227584,N,07927.9979828,W,5,06,1.3,188.499,M,-37.20,M,01,0000*65
$GPGGA,202414.25,4346.9227438,N,07927.9981347,W,5,06,1.3,188.478,M,-37.20,M,00,0000*6F
$GPGGA,202414.50,4346.9227179,N,07927.9983017,W,5,06,1.3,188.478,M,-37.20,M,00,0000*69
$GPGGA,202414.75,4346.9226947,N,07927.9984636,W,5,06,1.3,188.466,M,-37.20,M,00,0000*67
$GPGGA,202415.00,4346.9226794,N,07927.9986261,W,5,06,1.3,188.460,M,-37.20,M,01,0000*67
$GPGGA,202415.25,4346.9226233,N,07927.9987929,W,5,06,1.3,188.434,M,-37.20,M,00,0000*6E
$GPGGA,202415.50,4346.9225967,N,07927.9989595,W,5,06,1.3,188.426,M,-37.20,M,00,0000*63
$GPGGA,202415.75,4346.9225722,N,07927.9991264,W,5,06,1.3,188.425,M,-37.20,M,00,0000*68
$GPGGA,202416.00,4346.9225436,N,07927.9992885,W,5,06,1.3,188.418,M,-37.20,M,01,0000*66
$GPGGA,202416.25,4346.9225429,N,07927.9994541,W,5,06,1.3,188.458,M,-37.20,M,00,0000*69
$GPGGA,202416.50,4346.9225145,N,07927.9996168,W,5,06,1.3,188.445,M,-37.20,M,00,0000*65
$GPGGA,202416.75,4346.9224877,N,07927.9997799,W,5,06,1.3,188.453,M,-37.20,M,00,0000*65
$GPGGA,202417.00,4346.9224574,N,07927.9999462,W,5,06,1.3,188.430,M,-37.20,M,01,0000*65
$GPGGA,202417.25,4346.9224268,N,07928.0001052,W,5,06,1.3,188.449,M,-37.20,M,00,0000*6E
$GPGGA,202417.50,4346.9224025,N,07928.0002737,W,5,06,1.3,188.451,M,-37.20,M,00,0000*69
$GPGGA,202417.75,4346.9223725,N,07928.0004410,W,5,06,1.3,188.441,M,-37.20,M,00,0000*6F
$GPGGA,202418.00,4346.9223468,N,07928.0006044,W,5,06,1.3,188.446,M,-37.20,M,01,0000*69
$GPGGA,202418.25,4346.9223202,N,07928.0007668,W,5,06,1.3,188.422,M,-37.20,M,00,0000*6E
$GPGGA,202418.50,4346.9222938,N,07928.0009247,W,5,06,1.3,188.421,M,-37.20,M,00,0000*6B
$GPGGA,202418.75,4346.9222643,N,07928.0010899,W,5,06,1.3,188.423,M,-37.20,M,00,0000*6C
$GPGGA,202419.00,4346.9222361,N,07928.0012559,W,5,06,1.3,188.422,M,-37.20,M,01,0000*69
$GPGGA,202419.25,4346.9222018,N,07928.0014161,W,5,06,1.3,188.439,M,-37.20,M,00,0000*61
$GPGGA,202419.50,4346.9221755,N,07928.0015789,W,5,06,1.3,188.435,M,-37.20,M,00,0000*63
$GPGGA,202419.75,4346.9221473,N,07928.0017452,W,5,06,1.3,188.436,M,-37.20,M,00,0000*67
$GPGGA,202420.00,4346.9221189,N,07928.0019059,W,5,06,1.3,188.435,M,-37.20,M,01,0000*6C
$GPGGA,202420.25,4346.9220912,N,07928.0020702,W,5,06,1.3,188.445,M,-37.20,M,00,0000*65
$GPGGA,202420.50,4346.9220633,N,07928.0022396,W,5,06,1.3,188.447,M,-37.20,M,00,0000*62
$GPGGA,202420.75,4346.9220317,N,07928.0024009,W,5,06,1.3,188.447,M,-37.20,M,00,0000*65
$GPGGA,202421.00,4346.9220065,N,07928.0025619,W,5,06,1.3,188.441,M,-37.20,M,01,0000*61
$GPGGA,202421.25,4346.9219657,N,07928.0027223,W,5,06,1.3,188.462,M,-37.20,M,00,0000*64
$GPGGA,202421.50,4346.9219382,N,07928.0028829,W,5,06,1.3,188.463,M,-37.20,M,00,0000*65
$GPGGA,202421.75,4346.9219044,N,07928.0030477,W,5,06,1.3,188.454,M,-37.20,M,00,0000*61
$GPGGA,202422.00,4346.9218732,N,07928.0032164,W,5,06,1.3,188.464,M,-37.20,M,01,0000*60
$GPGGA,202422.25,4346.9218399,N,07928.0033790,W,5,06,1.3,188.474,M,-37.20,M,00,0000*6E
$GPGGA,202422.50,4346.9218082,N,07928.0035394,W,5,06,1.3,188.480,M,-37.20,M,00,0000*68
$GPGGA,202422.75,4346.9217766,N,07928.0037015,W,5,06,1.3,188.479,M,-37.20,M,00,0000*63
$GPGGA,202423.00,4346.9217480,N,07928.0038635,W,5,06,1.3,188.478,M,-37.20,M,01,0000*60
$GPGGA,202423.25,4346.9217095,N,07928.0040281,W,5,06,1.3,188.484,M,-37.20,M,00,0000*61
$GPGGA,202423.50,4346.9216786,N,07928.0041917,W,5,06,1.3,188.479,M,-37.20,M,00,0000*60
$GPGGA,202423.75,4346.9216512,N,07928.0043607,W,5,06,1.3,188.470,M,-37.20,M,00,0000*6D
$GPGGA,202424.00,4346.9216279,N,07928.0045259,W,5,06,1.3,188.490,M,-37.20,M,01,0000*64
$GPGGA,202424.25,4346.9216106,N,07928.0046964,W,5,06,1.3,188.503,M,-37.20,M,00,0000*64
$GPGGA,202424.50,4346.9215883,N,07928.0048548,W,5,06,1.3,188.491,M,-37.20,M,00,0000*67
$GPGGA,202424.75,4346.9215605,N,07928.0050160,W,5,06,1.3,188.493,M,-37.20,M,00,0000*65
$GPGGA,202425.00,4346.9215393,N,07928.0051785,W,5,06,1.3,188.514,M,-37.20,M,01,0000*6F
$GPGGA,202425.25,4346.9215076,N,07928.0053389,W,5,06,1.3,188.508,M,-37.20,M,00,0000*66
$GPGGA,202425.50,4346.9214823,N,07928.0055044,W,5,06,1.3,188.517,M,-37.20,M,00,0000*67
$GPGGA,202425.75,4346.9214588,N,07928.0056735,W,5,06,1.3,188.525,M,-37.20,M,00,0000*6F
$GPGGA,202426.00,4346.9214345,N,07928.0058362,W,5,06,1.3,188.527,M,-37.20,M,01,0000*62
$GPGGA,202426.25,4346.9214157,N,07928.0060111,W,5,06,1.3,188.530,M,-37.20,M,00,0000*6E
$GPGGA,202426.50,4346.9213963,N,07928.0061798,W,5,06,1.3,188.546,M,-37.20,M,00,0000*63
$GPGGA,202426.75,4346.9213839,N,07928.0063485,W,5,06,1.3,188.547,M,-37.20,M,00,0000*66
$GPGGA,202427.00,4346.9213709,N,07928.0065114,W,5,06,1.3,188.543,M,-37.20,M,01,0000*67
$GPGGA,202427.25,4346.9213529,N,07928.0066867,W,5,06,1.3,188.542,M,-37.20,M,00,0000*6E
$GPGGA,202427.50,4346.9213476,N,07928.0068565,W,5,06,1.3,188.555,M,-37.20,M,00,0000*60
$GPGGA,202427.75,4346.9213394,N,07928.0070283,W,5,06,1.3,188.541,M,-37.20,M,00,0000*6F
$GPGGA,202428.00,4346.9213489,N,07928.0072012,W,5,06,1.3,188.547,M,-37.20,M,01,0000*66
$GPGGA,202428.25,4346.9213405,N,07928.0073640,W,5,06,1.3,188.584,M,-37.20,M,00,0000*6B
$GPGGA,202428.50,4346.9213418,N,07928.0075387,W,5,06,1.3,188.596,M,-37.20,M,00,0000*6E
$GPGGA,202428.75,4346.9213363,N,07928.0077022,W,5,06,1.3,188.588,M,-37.20,M,00,0000*63
$GPGGA,202429.00,4346.9213285,N,07928.0078655,W,5,06,1.3,188.598,M,-37.20,M,01,0000*60
$GPGGA,202429.25,4346.9213219,N,07928.0080368,W,5,06,1.3,188.584,M,-37.20,M,00,0000*62
$GPGGA,202429.50,4346.9213181,N,07928.0082022,W,5,06,1.3,188.587,M,-37.20,M,00,0000*6E
$GPGGA,202429.75,4346.9213107,N,07928.0083769,W,5,06,1.3,188.588,M,-37.20,M,00,0000*61
$GPGGA,202430.00,4346.9213101,N,07928.0085478,W,5,06,1.3,188.575,M,-37.20,M,01,0000*6B
$GPGGA,202430.25,4346.9213074,N,07928.0087069,W,5,06,1.3,188.579,M,-37.20,M,00,0000*64
$GPGGA,202430.50,4346.9213072,N,07928.0088791,W,5,06,1.3,188.592,M,-37.20,M,00,0000*6A
$GPGGA,202430.75,4346.9212944,N,07928.0090449,W,5,06,1.1,188.590,M,-37.20,M,00,0000*6F
$GPGGA,202431.00,4346.9212809,N,07928.0092211,W,5,06,1.1,188.587,M,-37.20,M,01,0000*6A
$GPGGA,202431.25,4346.9212561,N,07928.0093912,W,5,06,1.3,188.589,M,-37.20,M,00,0000*6A
$GPGGA,202431.50,4346.9212352,N,07928.0095579,W,5,06,1.3,188.588,M,-37.20,M,00,0000*68
$GPGGA,202431.75,4346.9212100,N,07928.0097260,W,5,06,1.3,188.567,M,-37.20,M,00,0000*66
$GPGGA,202432.00,4346.9211931,N,07928.0098932,W,5,06,1.3,188.573,M,-37.20,M,01,0000*69
$GPGGA,202432.25,4346.9211689,N,07928.0100649,W,5,06,1.3,188.611,M,-37.20,M,00,0000*67
$GPGGA,202432.50,4346.9211539,N,07928.0102309,W,5,06,1.3,188.604,M,-37.20,M,00,0000*6A
$GPGGA,202432.75,4346.9211320,N,07928.0103964,W,5,06,1.3,188.615,M,-37.20,M,00,0000*63
$GPGGA,202433.00,4346.9211110,N,07928.0105579,W,5,06,1.3,188.607,M,-37.20,M,01,0000*65
$GPGGA,202433.25,4346.9210791,N,07928.0107228,W,5,06,1.3,188.603,M,-37.20,M,00,0000*68
$GPGGA,202433.50,4346.9210586,N,07928.0108861,W,5,06,1.3,188.596,M,-37.20,M,00,0000*69
$GPGGA,202433.75,4346.9210358,N,07928.0110550,W,5,06,1.3,188.586,M,-37.20,M,00,0000*6C
$GPGGA,202434.00,4346.9210176,N,07928.0112220,W,5,06,1.3,188.592,M,-37.20,M,01,0000*61
$GPGGA,202434.25,4346.9209918,N,07928.0113934,W,5,06,1.3,188.622,M,-37.20,M,00,0000*68
$GPGGA,202434.50,4346.9209691,N,07928.0115595,W,5,06,1.3,188.628,M,-37.20,M,00,0000*6F
$GPGGA,202434.75,4346.9209443,N,07928.0117266,W,5,06,1.3,188.623,M,-37.20,M,00,0000*67
$GPGGA,202435.00,4346.9209184,N,07928.0118898,W,5,06,1.3,188.632,M,-37.20,M,01,0000*6F
$GPGGA,202435.25,4346.9208936,N,07928.0120562,W,5,06,1.3,188.650,M,-37.20,M,00,0000*6E
$GPGGA,202435.50,4346.9208687,N,07928.0122219,W,5,06,1.3,188.644,M,-37.20,M,00,0000*65
$GPGGA,202435.75,4346.9208392,N,07928.0123904,W,5,06,1.3,188.646,M,-37.20,M,00,0000*67
$GPGGA,202436.00,4346.9208127,N,07928.0125523,W,5,06,1.3,188.625,M,-37.20,M,01,0000*61
$GPGGA,202436.25,4346.9207636,N,07928.0127259,W,5,06,1.3,188.651,M,-37.20,M,00,0000*64
$GPGGA,202436.50,4346.9207423,N,07928.0128874,W,5,06,1.3,188.670,M,-37.20,M,00,0000*69
$GPGGA,202436.75,4346.9207105,N,07928.0130529,W,5,06,1.3,188.669,M,-37.20,M,00,0000*6B
$GPGGA,202437.00,4346.9206888,N,07928.0132171,W,5,06,1.3,188.664,M,-37.20,M,01,0000*62
$GPGGA,202437.25,4346.9206616,N,07928.0133793,W,5,06,1.3,188.666,M,-37.20,M,00,0000*64
$GPGGA,202437.50,4346.9206346,N,07928.0135471,W,5,06,1.3,188.648,M,-37.20,M,00,0000*63
$GPGGA,202437.75,4346.9206012,N,07928.0137181,W,5,06,1.3,188.659,M,-37.20,M,00,0000*6E
$GPGGA,202438.00,4346.9205779,N,07928.0138828,W,5,06,1.3,188.659,M,-37.20,M,01,0000*6E
$GPGGA,202438.25,4346.9205491,N,07928.0140517,W,5,06,1.3,188.658,M,-37.20,M,00,0000*62
$GPGGA,202438.50,4346.9205244,N,07928.0142146,W,5,06,1.3,188.665,M,-37.20,M,00,0000*62
$GPGGA,202438.75,4346.9205002,N,07928.0143795,W,5,06,1.3,188.664,M,-37.20,M,00,0000*6D
$GPGGA,202439.00,4346.9204785,N,07928.0145458,W,5,06,1.3,188.665,M,-37.20,M,01,0000*63
$GPGGA,202439.25,4346.9204555,N,07928.0147084,W,5,06,1.3,188.689,M,-37.20,M,00,0000*6F
$GPGGA,202439.50,4346.9204464,N,07928.0148797,W,5,06,1.3,188.690,M,-37.20,M,00,0000*6C
$GPGGA,202439.75,4346.9204307,N,07928.0150467,W,5,06,1.3,188.714,M,-37.20,M,00,0000*61
$GPGGA,202440.00,4346.9204157,N,07928.0152118,W,5,06,1.3,188.693,M,-37.20,M,01,0000*6A
$GPGGA,202440.25,4346.9203897,N,07928.0153790,W,5,06,1.3,188.683,M,-37.20,M,00,0000*68
$GPGGA,202440.50,4346.9203713,N,07928.0155531,W,5,06,1.3,188.669,M,-37.20,M,00,0000*62
$GPGGA,202440.75,4346.9203509,N,07928.0157188,W,5,06,1.3,188.676,M,-37.20,M,00,0000*66
$GPGGA,202441.00,4346.9203322,N,07928.0158865,W,5,06,1.3,188.667,M,-37.20,M,01,0000*6E
$GPGGA,202441.25,4346.9203228,N,07928.0160460,W,5,06,1.3,188.671,M,-37.20,M,00,0000*66
$GPGGA,202441.50,4346.9203052,N,07928.0162246,W,5,06,1.3,188.653,M,-37.20,M,00,0000*6B
$GPGGA,202441.75,4346.9202862,N,07928.0163952,W,5,06,1.3,188.656,M,-37.20,M,00,0000*6C
$GPGGA,202442.00,4346.9202684,N,07928.0165612,W,5,06,1.3,188.640,M,-37.20,M,01,0000*60
$GPGGA,202442.25,4346.9202407,N,07928.0167303,W,5,06,1.3,188.644,M,-37.20,M,00,0000*6C
$GPGGA,202442.50,4346.9202297,N,07928.0169016,W,5,06,1.3,188.642,M,-37.20,M,00,0000*6E
$GPGGA,202442.75,4346.9202047,N,07928.0170690,W,5,06,1.3,188.635,M,-37.20,M,00,0000*66
$GPGGA,202443.00,4346.9201872,N,07928.0172396,W,5,06,1.3,188.645,M,-37.20,M,01,0000*6F
$GPGGA,202443.25,4346.9201735,N,07928.0174044,W,5,06,1.3,188.624,M,-37.20,M,00,0000*68
$GPGGA,202443.50,4346.9201515,N,07928.0175702,W,5,06,1.3,188.612,M,-37.20,M,00,0000*6B
$GPGGA,202443.75,4346.9201293,N,07928.0177456,W,5,06,1.3,188.605,M,-37.20,M,00,0000*63
$GPGGA,202444.00,4346.9201137,N,07928.0179132,W,5,06,1.3,188.609,M,-37.20,M,01,0000*6F
$GPGGA,202444.25,4346.9201180,N,07928.0180738,W,5,06,1.3,188.621,M,-37.20,M,00,0000*65
$GPGGA,202444.50,4346.9201058,N,07928.0182447,W,5,06,1.3,188.597,M,-37.20,M,00,0000*64
$GPGGA,202444.75,4346.9200903,N,07928.0184138,W,5,06,1.3,188.580,M,-37.20,M,00,0000*68
$GPGGA,202445.00,4346.9200677,N,07928.0185778,W,5,06,1.3,188.584,M,-37.20,M,01,0000*61
$GPGGA,202445.25,4346.9200627,N,07928.0187462,W,5,06,1.3,188.574,M,-37.20,M,00,0000*67
$GPGGA,202445.50,4346.9200482,N,07928.0189123,W,5,06,1.3,188.562,M,-37.20,M,00,0000*61
$GPGGA,202445.75,4346.9200312,N,07928.0190889,W,5,06,1.3,188.544,M,-37.20,M,00,0000*6D
$GPGGA,202446.00,4346.9200205,N,07928.0192568,W,5,06,1.3,188.552,M,-37.20,M,01,0000*6D
$GPGGA,202446.25,4346.9200029,N,07928.0194263,W,5,06,1.3,188.535,M,-37.20,M,00,0000*6C
$GPGGA,202446.50,4346.9199934,N,07928.0196026,W,5,05,1.3,188.526,M,-37.20,M,00,0000*68
$GPGGA,202446.75,4346.9199782,N,07928.0197667,W,5,05,1.6,188.522,M,-37.20,M,00,0000*6F
$GPGGA,202447.00,4346.9199631,N,07928.0199353,W,5,05,1.6,188.513,M,-37.20,M,01,0000*6A
$GPGGA,202447.25,4346.9199492,N,07928.0201032,W,5,05,1.6,188.495,M,-37.20,M,00,0000*6E
$GPGGA,202447.50,4346.9199388,N,07928.0202720,W,5,05,1.6,188.482,M,-37.20,M,00,0000*61
$GPGGA,202447.75,4346.9199226,N,07928.0204401,W,5,05,1.6,188.486,M,-37.20,M,00,0000*61
$GPGGA,202448.00,4346.9199095,N,07928.0206114,W,5,05,1.6,188.470,M,-37.20,M,01,0000*6D
$GPGGA,202448.25,4346.9198879,N,07928.0207792,W,5,05,1.6,188.469,M,-37.20,M,00,0000*61
$GPGGA,202448.50,4346.9198770,N,07928.0209522,W,5,05,1.6,188.450,M,-37.20,M,00,0000*68
$GPGGA,202448.75,4346.9198626,N,07928.0211176,W,5,05,1.6,188.444,M,-37.20,M,00,0000*64
$GPGGA,202449.00,4346.9198432,N,07928.0212818,W,5,05,1.6,188.435,M,-37.20,M,01,0000*65
$GPGGA,202449.25,4346.9198304,N,07928.0214516,W,5,05,1.6,188.424,M,-37.20,M,00,0000*64
$GPGGA,202449.50,4346.9198190,N,07928.0216182,W,5,05,1.6,188.417,M,-37.20,M,00,0000*62
$GPGGA,202449.75,4346.9198157,N,07928.0217895,W,5,06,1.3,188.399,M,-37.20,M,00,0000*67
$GPGGA,202450.00,4346.9198142,N,07928.0219569,W,5,06,1.3,188.394,M,-37.20,M,01,0000*65
$GPGGA,202450.25,4346.9198109,N,07928.0221255,W,5,06,1.3,188.382,M,-37.20,M,00,0000*68
$GPGGA,202450.50,4346.9198091,N,07928.0222942,W,5,06,1.3,188.372,M,-37.20,M,00,0000*6B
$GPGGA,202450.75,4346.9198026,N,07928.0224621,W,5,06,1.3,188.356,M,-37.20,M,00,0000*6A
$GPGGA,202451.00,4346.9197954,N,07928.0226260,W,5,06,1.3,188.362,M,-37.20,M,01,0000*6F
$GPGGA,202451.25,4346.9197932,N,07928.0227986,W,5,06,1.3,188.346,M,-37.20,M,00,0000*6D
$GPGGA,202451.50,4346.9197985,N,07928.0229695,W,5,06,1.3,188.329,M,-37.20,M,00,0000*69
$GPGGA,202451.75,4346.9198090,N,07928.0231415,W,5,06,1.3,188.319,M,-37.20,M,00,0000*6C
$GPGGA,202452.00,4346.9198103,N,07928.0233096,W,5,06,1.3,188.299,M,-37.20,M,01,0000*63
$GPGGA,202452.25,4346.9198107,N,07928.0234777,W,5,06,1.3,188.303,M,-37.20,M,00,0000*6C
$GPGGA,202452.50,4346.9198113,N,07928.0236432,W,5,06,1.3,188.304,M,-37.20,M,00,0000*6C
$GPGGA,202452.75,4346.9198195,N,07928.0238134,W,5,07,1.1,188.279,M,-37.20,M,00,0000*60
$GPGGA,202453.00,4346.9198235,N,07928.0239835,W,5,07,1.1,188.278,M,-37.20,M,01,0000*63
$GPGGA,202453.25,4346.9198271,N,07928.0241532,W,5,07,1.1,188.266,M,-37.20,M,00,0000*6F
$GPGGA,202453.50,4346.9198334,N,07928.0243218,W,5,07,1.1,188.251,M,-37.20,M,00,0000*64
$GPGGA,202453.75,4346.9198397,N,07928.0244903,W,5,07,1.1,188.241,M,-37.20,M,00,0000*6D
$GPGGA,202454.00,4346.9198472,N,07928.0246604,W,5,07,1.1,188.229,M,-37.20,M,01,0000*61
$GPGGA,202454.25,4346.9198525,N,07928.0248349,W,5,07,1.1,188.205,M,-37.20,M,00,0000*68
$GPGGA,202454.50,4346.9198584,N,07928.0249997,W,5,07,1.1,188.201,M,-37.20,M,00,0000*6D
$GPGGA,202454.75,4346.9198662,N,07928.0251721,W,5,07,1.1,188.180,M,-37.20,M,00,0000*61
$GPGGA,202455.00,4346.9198711,N,07928.0253338,W,5,07,1.1,188.189,M,-37.20,M,01,0000*61
$GPGGA,202455.25,4346.9198745,N,07928.0255132,W,5,07,1.1,188.174,M,-37.20,M,00,0000*6A
$GPGGA,202455.50,4346.9198789,N,07928.0256808,W,5,07,1.1,188.155,M,-37.20,M,00,0000*68
$GPGGA,202455.75,4346.9198858,N,07928.0258500,W,5,06,1.1,188.154,M,-37.20,M,00,0000*67
$GPGGA,202456.00,4346.9198922,N,07928.0260270,W,5,06,1.1,188.133,M,-37.20,M,01,0000*61
$GPGGA,202456.25,4346.9198878,N,07928.0261954,W,5,06,1.1,188.143,M,-37.20,M,00,0000*62
$GPGGA,202456.50,4346.9198967,N,07928.0263665,W,5,06,1.1,188.127,M,-37.20,M,00,0000*62
$GPGGA,202456.75,4346.9199048,N,07928.0265329,W,5,06,1.4,188.125,M,-37.20,M,00,0000*6C
$GPGGA,202457.00,4346.9199084,N,07928.0267047,W,5,06,1.4,188.098,M,-37.20,M,01,0000*60
$GPGGA,202457.25,4346.9199132,N,07928.0268713,W,5,06,1.4,188.103,M,-37.20,M,00,0000*60
$GPGGA,202457.50,4346.9199203,N,07928.0270418,W,5,06,1.4,188.093,M,-37.20,M,00,0000*6A
$GPGGA,202457.75,4346.9199297,N,07928.0272077,W,5,06,1.4,188.096,M,-37.20,M,00,0000*6A
$GPGGA,202458.00,4346.9199283,N,07928.0273737,W,5,06,1.4,188.080,M,-37.20,M,01,0000*66
$GPGGA,202458.25,4346.9199373,N,07928.0275464,W,5,07,1.1,188.059,M,-37.20,M,00,0000*6D
$GPGGA,202458.50,4346.9199444,N,07928.0277075,W,5,07,1.1,188.069,M,-37.20,M,00,0000*69
$GPGGA,202458.75,4346.9199471,N,07928.0278825,W,5,07,1.1,188.043,M,-37.20,M,00,0000*62
$GPGGA,202459.00,4346.9199549,N,07928.0280535,W,5,07,1.1,188.031,M,-37.20,M,01,0000*64
$GPGGA,202459.25,4346.9199575,N,07928.0282220,W,5,07,1.1,188.026,M,-37.20,M,00,0000*6A
$GPGGA,202459.50,4346.9199688,N,07928.0283879,W,5,07,1.1,188.014,M,-37.20,M,00,0000*6F
$GPGGA,202459.75,4346.9199731,N,07928.0285559,W,5,07,1.1,188.019,M,-37.20,M,00,0000*6F
$GPGGA,202500.00,4346.9199806,N,07928.0287286,W,5,07,1.1,188.013,M,-37.20,M,01,0000*67
$GPGGA,202500.25,4346.9199843,N,07928.0288907,W,5,07,1.1,187.985,M,-37.20,M,00,0000*64
$GPGGA,202500.50,4346.9199857,N,07928.0290594,W,5,07,1.1,187.981,M,-37.20,M,00,0000*68
$GPGGA,202500.75,4346.9199872,N,07928.0292266,W,5,07,1.1,187.981,M,-37.20,M,00,0000*60
$GPGGA,202501.00,4346.9199906,N,07928.0294017,W,5,07,1.1,187.948,M,-37.20,M,01,0000*67
$GPGGA,202501.25,4346.9199859,N,07928.0295797,W,5,07,1.1,187.952,M,-37.20,M,00,0000*6F
$GPGGA,202501.50,4346.9199855,N,07928.0297554,W,5,07,1.1,187.916,M,-37.20,M,00,0000*6E
$GPGGA,202501.75,4346.9199878,N,07928.0299204,W,5,07,1.1,187.908,M,-37.20,M,00,0000*65
$GPGGA,202502.00,4346.9200008,N,07928.0301024,W,5,07,1.1,187.863,M,-37.20,M,01,0000*65
$GPGGA,202502.25,4346.9200153,N,07928.0302648,W,5,07,1.1,187.842,M,-37.20,M,00,0000*60
$GPGGA,202502.50,4346.9200370,N,07928.0304163,W,5,07,1.1,187.844,M,-37.20,M,00,0000*6F
$GPGGA,202502.75,4346.9200672,N,07928.0305647,W,5,07,1.1,187.840,M,-37.20,M,00,0000*6B
$GPGGA,202503.00,4346.9201119,N,07928.0307232,W,5,07,1.1,187.830,M,-37.20,M,01,0000*61
$GPGGA,202503.25,4346.9201494,N,07928.0308751,W,5,06,1.1,187.840,M,-37.20,M,00,0000*6E
$GPGGA,202503.50,4346.9202015,N,07928.0310243,W,5,06,1.1,187.834,M,-37.20,M,00,0000*6E
$GPGGA,202503.75,4346.9202650,N,07928.0311722,W,5,06,1.3,187.828,M,-37.20,M,00,0000*62
$GPGGA,202504.00,4346.9203221,N,07928.0313271,W,5,06,1.3,187.826,M,-37.20,M,01,0000*6A
$GPGGA,202504.25,4346.9203537,N,07928.0314791,W,5,05,1.3,187.811,M,-37.20,M,00,0000*67
$GPGGA,202504.50,4346.9203968,N,07928.0316298,W,5,05,1.3,187.794,M,-37.20,M,00,0000*6F
$GPGGA,202504.75,4346.9204575,N,07928.0317832,W,5,05,1.6,187.791,M,-37.20,M,00,0000*64
$GPGGA,202505.00,4346.9205191,N,07928.0319311,W,5,05,1.6,187.780,M,-37.20,M,01,0000*6D
$GPGGA,202505.25,4346.9205798,N,07928.0320797,W,5,05,1.6,187.789,M,-37.20,M,00,0000*6D
$GPGGA,202505.50,4346.9206315,N,07928.0322338,W,5,05,1.6,187.775,M,-37.20,M,00,0000*6D
$GPGGA,202505.75,4346.9206990,N,07928.0323795,W,5,05,1.6,187.797,M,-37.20,M,00,0000*63
$GPGGA,202506.00,4346.9207407,N,07928.0325322,W,5,05,1.6,187.774,M,-37.20,M,01,0000*62
$GPGGA,202506.25,4346.9208078,N,07928.0326747,W,5,05,1.6,187.793,M,-37.20,M,00,0000*6A
$GPGGA,202506.50,4346.9208554,N,07928.0328259,W,5,05,1.6,187.777,M,-37.20,M,00,0000*6D
$GPGGA,202506.75,4346.9209157,N,07928.0329751,W,5,05,1.6,187.746,M,-37.20,M,00,0000*62
$GPGGA,202507.00,4346.9209727,N,07928.0331177,W,5,05,1.6,187.765,M,-37.20,M,01,0000*6B
$GPGGA,202507.25,4346.9210479,N,07928.0332742,W,5,05,1.6,187.780,M,-37.20,M,00,0000*65
$GPGGA,202507.50,4346.9210992,N,07928.0334193,W,5,05,1.6,187.771,M,-37.20,M,00,0000*6D
$GPGGA,202507.75,4346.9211618,N,07928.0335707,W,5,06,1.3,187.765,M,-37.20,M,00,0000*6F
$GPGGA,202508.00,4346.9212201,N,07928.0337147,W,5,06,1.3,187.759,M,-37.20,M,01,0000*63
$GPGGA,202508.25,4346.9212740,N,07928.0338552,W,5,05,1.3,187.760,M,-37.20,M,00,0000*63
$GPGGA,202508.50,4346.9213448,N,07928.0339940,W,5,05,1.3,187.745,M,-37.20,M,00,0000*62
$GPGGA,202508.75,4346.9214312,N,07928.0341261,W,5,06,1.3,187.753,M,-37.20,M,00,0000*69
$GPGGA,202509.00,4346.9215102,N,07928.0342490,W,5,05,1.3,187.748,M,-37.20,M,01,0000*6B
$GPGGA,202509.25,4346.9215860,N,07928.0343775,W,5,05,1.6,187.748,M,-37.20,M,00,0000*6C
$GPGGA,202509.50,4346.9216720,N,07928.0344910,W,5,06,1.6,187.741,M,-37.20,M,00,0000*66
$GPGGA,202509.75,4346.9217686,N,07928.0346013,W,5,06,1.3,187.769,M,-37.20,M,00,0000*6A
$GPGGA,202510.00,4346.9218646,N,07928.0347055,W,5,05,1.3,187.780,M,-37.20,M,01,0000*65
$GPGGA,202510.25,4346.9219544,N,07928.0348076,W,5,06,1.4,187.766,M,-37.20,M,00,0000*61
$GPGGA,202510.50,4346.9220484,N,07928.0349153,W,5,06,1.4,187.763,M,-37.20,M,00,0000*66
$GPGGA,202510.75,4346.9221450,N,07928.0350251,W,5,05,1.4,187.771,M,-37.20,M,00,0000*60
$GPGGA,202511.00,4346.9222355,N,07928.0351296,W,5,05,1.4,187.784,M,-37.20,M,01,0000*63
$GPGGA,202511.25,4346.9223419,N,07928.0352203,W,5,05,3.2,187.797,M,-37.20,M,00,0000*62
$GPGGA,202511.50,4346.9224353,N,07928.0353264,W,5,06,3.2,187.789,M,-37.20,M,00,0000*62
$GPGGA,202511.75,4346.9225391,N,07928.0354251,W,5,06,1.4,187.806,M,-37.20,M,00,0000*67
$GPGGA,202512.00,4346.9226415,N,07928.0355212,W,5,06,1.4,187.827,M,-37.20,M,01,0000*6A
$GPGGA,202512.25,4346.9227644,N,07928.0356155,W,5,06,1.4,187.865,M,-37.20,M,00,0000*6E
$GPGGA,202512.50,4346.9228629,N,07928.0357110,W,5,06,1.4,187.866,M,-37.20,M,00,0000*6B
$GPGGA,202512.75,4346.9229687,N,07928.0358072,W,5,06,1.4,187.875,M,-37.20,M,00,0000*61
$GPGGA,202513.00,4346.9230608,N,07928.0359025,W,5,06,1.4,187.874,M,-37.20,M,01,0000*6E
$GPGGA,202513.25,4346.9231813,N,07928.0360039,W,5,06,1.4,187.891,M,-37.20,M,00,0000*61
$GPGGA,202513.50,4346.9232717,N,07928.0360995,W,5,06,1.4,187.886,M,-37.20,M,00,0000*62
$GPGGA,202513.75,4346.9233792,N,07928.0361930,W,5,06,1.4,187.885,M,-37.20,M,00,0000*64
$GPGGA,202514.00,4346.9234810,N,07928.0362881,W,5,06,1.4,187.888,M,-37.20,M,01,0000*67
$GPGGA,202514.25,4346.9235933,N,07928.0363892,W,5,06,1.4,187.892,M,-37.20,M,00,0000*68
$GPGGA,202514.50,4346.9236968,N,07928.0364862,W,5,06,1.4,187.894,M,-37.20,M,00,0000*69
$GPGGA,202514.75,4346.9237894,N,07928.0365782,W,5,06,1.4,187.874,M,-37.20,M,00,0000*63
$GPGGA,202515.00,4346.9238959,N,07928.0366714,W,5,06,1.4,187.880,M,-37.20,M,01,0000*69
$GPGGA,202515.25,4346.9239958,N,07928.0367680,W,5,06,1.4,187.866,M,-37.20,M,01,0000*6B
$GPGGA,202515.50,4346.9240993,N,07928.0368671,W,5,06,1.4,187.878,M,-37.20,M,01,0000*6E
$GPGGA,202515.75,4346.9241988,N,07928.0369583,W,5,06,1.4,187.883,M,-37.20,M,01,0000*69
$GPGGA,202516.00,4346.9242932,N,07928.0370548,W,5,06,1.4,187.883,M,-37.20,M,02,0000*66
$GPGGA,202516.25,4346.9244209,N,07928.0371409,W,5,06,1.4,187.911,M,-37.20,M,00,0000*69
$GPGGA,202516.50,4346.9245208,N,07928.0372377,W,5,06,1.4,187.905,M,-37.20,M,00,0000*63
$GPGGA,202516.75,4346.9246285,N,07928.0373313,W,5,06,1.4,187.913,M,-37.20,M,00,0000*66
$GPGGA,202517.00,4346.9247287,N,07928.0374267,W,5,06,1.4,187.916,M,-37.20,M,01,0000*67
$GPGGA,202517.25,4346.9248381,N,07928.0375179,W,5,06,1.4,187.929,M,-37.20,M,00,0000*68
$GPGGA,202517.50,4346.9249404,N,07928.0376057,W,5,06,1.4,187.957,M,-37.20,M,00,0000*66
$GPGGA,202517.75,4346.9250457,N,07928.0377009,W,5,06,1.4,187.955,M,-37.20,M,00,0000*67
$GPGGA,202518.00,4346.9251425,N,07928.0377923,W,5,06,1.4,187.952,M,-37.20,M,01,0000*69
$GPGGA,202518.25,4346.9252465,N,07928.0378929,W,5,06,1.4,187.944,M,-37.20,M,01,0000*6B
$GPGGA,202518.50,4346.9253493,N,07928.0379849,W,5,06,1.4,187.962,M,-37.20,M,01,0000*63
$GPGGA,202518.75,4346.9254565,N,07928.0380790,W,5,06,1.4,187.962,M,-37.20,M,01,0000*66
$GPGGA,202519.00,4346.9255576,N,07928.0381726,W,5,06,1.4,187.968,M,-37.20,M,02,0000*63
$GPGGA,202519.25,4346.9256360,N,07928.0382641,W,5,06,1.4,187.897,M,-37.20,M,00,0000*66
$GPGGA,202519.50,4346.9257413,N,07928.0383610,W,5,06,1.4,187.919,M,-37.20,M,00,0000*64
$GPGGA,202519.75,4346.9258477,N,07928.0384407,W,5,06,1.4,187.916,M,-37.20,M,00,0000*62
$GPGGA,202520.00,4346.9259533,N,07928.0385220,W,5,05,1.4,187.917,M,-37.20,M,01,0000*6B
$GPGGA,202520.25,4346.9260505,N,07928.0385987,W,5,04,1.5,187.880,M,-37.20,M,00,0000*6B
$GPGGA,202520.50,4346.9261888,N,07928.0386711,W,5,04,1.5,187.959,M,-37.20,M,00,0000*67
$GPGGA,202520.75,4346.9262832,N,07928.0387441,W,5,04,9.9,187.910,M,-37.20,M,00,0000*6C
$GPGGA,202521.00,4346.9263986,N,07928.0388121,W,5,04,9.9,187.920,M,-37.20,M,01,0000*6E
$GPGGA,202521.25,4346.9265071,N,07928.0388768,W,5,04,9.9,187.872,M,-37.20,M,00,0000*62
$GPGGA,202521.50,4346.9266161,N,07928.0389399,W,5,04,9.9,187.868,M,-37.20,M,00,0000*63
$GPGGA,202521.75,4346.9267537,N,07928.0389937,W,5,04,9.9,187.934,M,-37.20,M,00,0000*64
$GPGGA,202522.00,4346.9268598,N,07928.0390428,W,5,04,9.9,187.897,M,-37.20,M,01,0000*6D
$GPGGA,202522.25,4346.9269804,N,07928.0390862,W,5,05,3.2,187.900,M,-37.20,M,00,0000*6F
$GPGGA,202522.50,4346.9270812,N,07928.0391353,W,5,05,3.2,187.863,M,-37.20,M,00,0000*6E
$GPGGA,202522.75,4346.9271904,N,07928.0391826,W,5,06,1.4,187.864,M,-37.20,M,00,0000*67
$GPGGA,202523.00,4346.9273152,N,07928.0392255,W,5,06,1.4,187.855,M,-37.20,M,01,0000*63
$GPGGA,202523.25,4346.9274583,N,07928.0392593,W,5,06,1.4,187.926,M,-37.20,M,00,0000*62
$GPGGA,202523.50,4346.9275731,N,07928.0392977,W,5,06,1.4,187.916,M,-37.20,M,00,0000*6F
$GPGGA,202523.75,4346.9276965,N,07928.0393278,W,5,06,1.4,187.915,M,-37.20,M,00,0000*62
$GPGGA,202524.00,4346.9278185,N,07928.0393550,W,5,06,1.4,187.915,M,-37.20,M,01,0000*63
$GPGGA,202524.25,4346.9279362,N,07928.0393830,W,5,06,1.4,187.917,M,-37.20,M,01,0000*67
$GPGGA,202524.50,4346.9280595,N,07928.0394153,W,5,06,1.4,187.920,M,-37.20,M,01,0000*62
$GPGGA,202524.75,4346.9281739,N,07928.0394494,W,5,06,1.4,187.907,M,-37.20,M,01,0000*6B
$GPGGA,202525.00,4346.9282952,N,07928.0394838,W,5,06,1.4,187.901,M,-37.20,M,02,0000*67
$GPGGA,202525.25,4346.9284184,N,07928.0395025,W,5,07,1.1,187.889,M,-37.20,M,00,0000*67
$GPGGA,202525.50,4346.9285260,N,07928.0395394,W,5,07,1.1,187.893,M,-37.20,M,00,0000*6F
$GPGGA,202525.75,4346.9286570,N,07928.0395662,W,5,07,1.1,187.881,M,-37.20,M,00,0000*62
$GPGGA,202526.00,4346.9287692,N,07928.0395994,W,5,07,1.1,187.888,M,-37.20,M,01,0000*63
$GPGGA,202526.25,4346.9289235,N,07928.0396193,W,5,06,1.1,187.949,M,-37.20,M,00,0000*63
$GPGGA,202526.50,4346.9290352,N,07928.0396499,W,5,06,1.1,187.949,M,-37.20,M,00,0000*66
$GPGGA,202526.75,4346.9291498,N,07928.0396986,W,5,06,1.5,187.927,M,-37.20,M,00,0000*6E
$GPGGA,202527.00,4346.9292716,N,07928.0397339,W,5,06,1.5,187.941,M,-37.20,M,01,0000*65
$GPGGA,202527.25,4346.9293869,N,07928.0397843,W,5,06,1.5,187.959,M,-37.20,M,01,0000*6B
$GPGGA,202527.50,4346.9295082,N,07928.0398227,W,5,06,1.5,187.964,M,-37.20,M,01,0000*6B
$GPGGA,202527.75,4346.9296296,N,07928.0398568,W,5,06,1.5,187.956,M,-37.20,M,01,0000*65
$GPGGA,202528.00,4346.9297467,N,07928.0398973,W,5,06,1.5,187.970,M,-37.20,M,02,0000*60
$GPGGA,202528.25,4346.9299104,N,07928.0399335,W,5,07,1.1,188.024,M,-37.20,M,00,0000*60
$GPGGA,202528.50,4346.9300161,N,07928.0399734,W,5,07,1.1,188.024,M,-37.20,M,00,0000*65
$GPGGA,202528.75,4346.9301379,N,07928.0400050,W,5,06,1.1,188.036,M,-37.20,M,00,0000*68
$GPGGA,202529.00,4346.9302572,N,07928.0400410,W,5,06,1.1,188.026,M,-37.20,M,01,0000*65
$GPGGA,202529.25,4346.9303504,N,07928.0400797,W,5,07,1.1,187.962,M,-37.20,M,00,0000*68
$GPGGA,202529.50,4346.9304828,N,07928.0401124,W,5,07,1.1,187.987,M,-37.20,M,00,0000*6A
$GPGGA,202529.75,4346.9306132,N,07928.0401455,W,5,07,1.1,187.973,M,-37.20,M,00,0000*65
$GPGGA,202530.00,4346.9307265,N,07928.0401883,W,5,07,1.1,188.010,M,-37.20,M,01,0000*6A
$GPGGA,202530.25,4346.9308469,N,07928.0402272,W,5,07,1.1,187.961,M,-37.20,M,00,0000*6E
$GPGGA,202530.50,4346.9309582,N,07928.0402671,W,5,07,1.1,187.977,M,-37.20,M,00,0000*69
$GPGGA,202530.75,4346.9310810,N,07928.0403099,W,5,07,1.1,187.964,M,-37.20,M,00,0000*63
$GPGGA,202531.00,4346.9312004,N,07928.0403515,W,5,07,1.1,187.967,M,-37.20,M,01,0000*6C
$GPGGA,202531.25,4346.9313170,N,07928.0403888,W,5,06,1.1,187.961,M,-37.20,M,00,0000*67
$GPGGA,202531.50,4346.9314392,N,07928.0404281,W,5,06,1.1,187.953,M,-37.20,M,00,0000*69
$GPGGA,202531.75,4346.9315641,N,07928.0404662,W,5,06,1.3,187.960,M,-37.20,M,00,0000*6F
$GPGGA,202532.00,4346.9316762,N,07928.0405187,W,5,06,1.3,187.962,M,-37.20,M,01,0000*63
$GPGGA,202532.25,4346.9317959,N,07928.0405539,W,5,06,1.3,187.948,M,-37.20,M,00,0000*6B
$GPGGA,202532.50,4346.9319118,N,07928.0405912,W,5,06,1.3,187.957,M,-37.20,M,00,0000*61
$GPGGA,202532.75,4346.9320278,N,07928.0406340,W,5,06,1.3,187.942,M,-37.20,M,00,0000*63
$GPGGA,202533.00,4346.9321469,N,07928.0406813,W,5,06,1.3,187.954,M,-37.20,M,01,0000*6C
$GPGGA,202533.25,4346.9322702,N,07928.0407384,W,5,06,1.3,187.989,M,-37.20,M,00,0000*63
$GPGGA,202533.50,4346.9323911,N,07928.0407736,W,5,06,1.3,187.989,M,-37.20,M,00,0000*61
$GPGGA,202533.75,4346.9325130,N,07928.0408066,W,5,06,1.3,187.974,M,-37.20,M,00,0000*64
$GPGGA,202534.00,4346.9326249,N,07928.0408584,W,5,06,1.3,187.973,M,-37.20,M,01,0000*60
$GPGGA,202534.25,4346.9327389,N,07928.0408878,W,5,06,1.3,187.980,M,-37.20,M,01,0000*69
$GPGGA,202534.50,4346.9328557,N,07928.0409189,W,5,06,1.3,187.992,M,-37.20,M,01,0000*64
$GPGGA,202534.75,4346.9329637,N,07928.0409544,W,5,06,1.3,187.993,M,-37.20,M,01,0000*63
$GPGGA,202535.00,4346.9330823,N,07928.0409969,W,5,06,1.3,188.008,M,-37.20,M,02,0000*67
$GPGGA,202535.25,4346.9332016,N,07928.0410326,W,5,06,1.3,188.008,M,-37.20,M,02,0000*65
$GPGGA,202535.50,4346.9333253,N,07928.0410712,W,5,06,1.3,188.016,M,-37.20,M,02,0000*69
$GPGGA,202535.75,4346.9334540,N,07928.0411045,W,5,06,1.3,188.010,M,-37.20,M,02,0000*6E
$GPGGA,202536.00,4346.9335714,N,07928.0411367,W,5,06,1.3,188.007,M,-37.20,M,03,0000*69
$GPGGA,202536.25,4346.9336929,N,07928.0411682,W,5,06,1.3,188.017,M,-37.20,M,03,0000*62
$GPGGA,202536.50,4346.9338083,N,07928.0412091,W,5,06,1.3,188.024,M,-37.20,M,03,0000*60
$GPGGA,202536.75,4346.9339334,N,07928.0412474,W,5,06,1.3,188.029,M,-37.20,M,03,0000*6B
$GPGGA,202537.00,4346.9340477,N,07928.0412857,W,5,06,1.3,188.039,M,-37.20,M,04,0000*6D
$GPGGA,202537.25,4346.9341675,N,07928.0413266,W,5,06,1.3,188.038,M,-37.20,M,04,0000*63
$GPGGA,202537.50,4346.9342883,N,07928.0413619,W,5,06,1.3,188.051,M,-37.20,M,04,0000*66
$GPGGA,202537.75,4346.9344154,N,07928.0414008,W,5,06,1.3,188.040,M,-37.20,M,04,0000*65
$GPGGA,202538.00,4346.9345299,N,07928.0414412,W,5,06,1.3,188.052,M,-37.20,M,05,0000*66
$GPGGA,202538.25,4346.9346553,N,07928.0414795,W,5,06,1.3,188.042,M,-37.20,M,05,0000*6E
$GPGGA,202538.50,4346.9347668,N,07928.0415197,W,5,06,1.3,188.059,M,-37.20,M,05,0000*69
$GPGGA,202538.75,4346.9348872,N,07928.0415578,W,5,06,1.3,188.050,M,-37.20,M,05,0000*68
$GPGGA,202539.00,4346.9350087,N,07928.0415993,W,5,06,1.3,188.057,M,-37.20,M,06,0000*6D
$GPGGA,202539.25,4346.9351256,N,07928.0416384,W,5,06,1.3,188.057,M,-37.20,M,06,0000*6A
$GPGGA,202539.50,4346.9352467,N,07928.0416797,W,5,06,1.3,188.055,M,-37.20,M,06,0000*6B
$GPGGA,202539.75,4346.9353714,N,07928.0417131,W,5,06,1.3,188.048,M,-37.20,M,06,0000*6D
$GPGGA,202540.00,4346.9354849,N,07928.0417529,W,5,06,1.3,188.055,M,-37.20,M,07,0000*61
$GPGGA,202540.25,4346.9356059,N,07928.0417928,W,5,06,1.3,188.054,M,-37.20,M,07,0000*61
$GPGGA,202540.50,4346.9357168,N,07928.0418239,W,5,06,1.3,188.072,M,-37.20,M,07,0000*61
$GPGGA,202540.75,4346.9358323,N,07928.0418645,W,5,06,1.3,188.074,M,-37.20,M,07,0000*6D
$GPGGA,202541.00,4346.9359541,N,07928.0419038,W,5,06,1.3,188.082,M,-37.20,M,08,0000*66
$GPGGA,202541.25,4346.9360564,N,07928.0419494,W,5,06,1.3,188.080,M,-37.20,M,00,0000*64
$GPGGA,202541.50,4346.9361777,N,07928.0419971,W,5,06,1.3,188.082,M,-37.20,M,00,0000*63
$GPGGA,202541.75,4346.9362996,N,07928.0420469,W,5,06,1.3,188.066,M,-37.20,M,00,0000*62
$GPGGA,202542.00,4346.9364170,N,07928.0420902,W,5,06,1.3,188.092,M,-37.20,M,01,0000*6F
$GPGGA,202542.25,4346.9365377,N,07928.0421390,W,5,06,1.3,188.087,M,-37.20,M,01,0000*68
$GPGGA,202542.50,4346.9366672,N,07928.0421755,W,5,06,1.3,188.120,M,-37.20,M,00,0000*69
$GPGGA,202542.75,4346.9367859,N,07928.0422265,W,5,06,1.3,188.114,M,-37.20,M,00,0000*6A
$GPGGA,202543.00,4346.9369065,N,07928.0422724,W,5,06,1.3,188.113,M,-37.20,M,01,0000*66
$GPGGA,202543.25,4346.9370221,N,07928.0423189,W,5,06,1.3,188.129,M,-37.20,M,01,0000*62
$GPGGA,202543.50,4346.9371356,N,07928.0423619,W,5,06,1.3,188.125,M,-37.20,M,01,0000*62
$GPGGA,202543.75,4346.9372580,N,07928.0424048,W,5,06,1.3,188.126,M,-37.20,M,01,0000*6D
$GPGGA,202544.00,4346.9373745,N,07928.0424505,W,5,06,1.3,188.130,M,-37.20,M,02,0000*6A
$GPGGA,202544.25,4346.9374975,N,07928.0424920,W,5,06,1.3,188.155,M,-37.20,M,00,0000*6D
$GPGGA,202544.50,4346.9376218,N,07928.0425321,W,5,06,1.3,188.138,M,-37.20,M,00,0000*6C
$GPGGA,202544.75,4346.9377414,N,07928.0425816,W,5,06,1.3,188.129,M,-37.20,M,00,0000*6F
$GPGGA,202545.00,4346.9378527,N,07928.0426277,W,5,06,1.3,188.136,M,-37.20,M,01,0000*63
$GPGGA,202545.25,4346.9379711,N,07928.0426769,W,5,06,1.3,188.126,M,-37.20,M,00,0000*68
$GPGGA,202545.50,4346.9380837,N,07928.0427124,W,5,06,1.3,188.150,M,-37.20,M,00,0000*68
$GPGGA,202545.75,4346.9382046,N,07928.0427541,W,5,06,1.3,188.140,M,-37.20,M,00,0000*65
$GPGGA,202546.00,4346.9383203,N,07928.0428090,W,5,06,1.3,188.142,M,-37.20,M,01,0000*63
$GPGGA,202546.25,4346.9384405,N,07928.0428508,W,5,06,1.3,188.149,M,-37.20,M,01,0000*6C
$GPGGA,202546.50,4346.9385525,N,07928.0428958,W,5,06,1.3,188.151,M,-37.20,M,01,0000*6C
$GPGGA,202546.75,4346.9386731,N,07928.0429370,W,5,06,1.3,188.143,M,-37.20,M,01,0000*6D
$GPGGA,202547.00,4346.9387901,N,07928.0429803,W,5,06,1.3,188.156,M,-37.20,M,02,0000*6A
$GPGGA,202547.25,4346.9389024,N,07928.0430092,W,5,06,1.3,188.158,M,-37.20,M,02,0000*6B
$GPGGA,202547.50,4346.9390207,N,07928.0430380,W,5,07,1.3,188.166,M,-37.20,M,02,0000*6E
$GPGGA,202547.75,4346.9391471,N,07928.0430680,W,5,07,1.1,188.160,M,-37.20,M,02,0000*6E
$GPGGA,202548.00,4346.9392695,N,07928.0430861,W,5,07,1.1,188.166,M,-37.20,M,03,0000*6E
$GPGGA,202548.25,4346.9393845,N,07928.0431090,W,5,07,1.1,188.174,M,-37.20,M,03,0000*6F
$GPGGA,202548.50,4346.9395104,N,07928.0431213,W,5,07,1.1,188.182,M,-37.20,M,03,0000*67
$GPGGA,202548.75,4346.9396239,N,07928.0431304,W,5,07,1.1,188.177,M,-37.20,M,03,0000*63
$GPGGA,202549.00,4346.9397447,N,07928.0431415,W,5,07,1.1,188.183,M,-37.20,M,04,0000*65
$GPGGA,202549.25,4346.9398702,N,07928.0431437,W,5,07,1.1,188.184,M,-37.20,M,04,0000*68
$GPGGA,202549.50,4346.9399907,N,07928.0431310,W,5,07,1.1,188.202,M,-37.20,M,04,0000*6F
$GPGGA,202549.75,4346.9401121,N,07928.0431159,W,5,07,1.1,188.194,M,-37.20,M,04,0000*61
$GPGGA,202550.00,4346.9402403,N,07928.0430920,W,5,07,1.1,188.227,M,-37.20,M,05,0000*60
$GPGGA,202550.25,4346.9403608,N,07928.0430707,W,5,07,1.1,188.220,M,-37.20,M,05,0000*63
$GPGGA,202550.50,4346.9404763,N,07928.0430413,W,5,07,1.1,188.213,M,-37.20,M,05,0000*6C
$GPGGA,202550.75,4346.9405972,N,07928.0430035,W,5,07,1.1,188.225,M,-37.20,M,05,0000*61
$GPGGA,202551.00,4346.9407146,N,07928.0429546,W,5,07,1.1,188.235,M,-37.20,M,06,0000*64
$GPGGA,202551.25,4346.9408304,N,07928.0429039,W,5,07,1.1,188.228,M,-37.20,M,06,0000*69
$GPGGA,202551.50,4346.9409473,N,07928.0428487,W,5,06,1.1,188.240,M,-37.20,M,06,0000*62
$GPGGA,202551.75,4346.9410627,N,07928.0427997,W,5,06,1.3,188.245,M,-37.20,M,06,0000*6A
$GPGGA,202552.00,4346.9411773,N,07928.0427464,W,5,06,1.3,188.252,M,-37.20,M,07,0000*6C
$GPGGA,202552.25,4346.9412966,N,07928.0426911,W,5,06,1.3,188.250,M,-37.20,M,07,0000*6E
$GPGGA,202552.50,4346.9414116,N,07928.0426382,W,5,06,1.3,188.258,M,-37.20,M,07,0000*6D
$GPGGA,202552.75,4346.9415277,N,07928.0425956,W,5,06,1.3,188.275,M,-37.20,M,07,0000*60
$GPGGA,202553.00,4346.9416485,N,07928.0425685,W,5,06,1.3,188.281,M,-37.20,M,08,0000*6E
$GPGGA,202553.25,4346.9417730,N,07928.0425333,W,5,06,1.3,188.287,M,-37.20,M,00,0000*63
$GPGGA,202553.50,4346.9418910,N,07928.0425149,W,5,06,1.3,188.298,M,-37.20,M,00,0000*63
$GPGGA,202553.75,4346.9420183,N,07928.0424964,W,5,06,1.3,188.297,M,-37.20,M,00,0000*64
$GPGGA,202554.00,4346.9421365,N,07928.0424834,W,5,06,1.3,188.309,M,-37.20,M,01,0000*69
$GPGGA,202554.25,4346.9422624,N,07928.0424790,W,5,06,1.3,188.298,M,-37.20,M,01,0000*65
$GPGGA,202554.50,4346.9423776,N,07928.0424718,W,5,06,1.3,188.312,M,-37.20,M,01,0000*63
$GPGGA,202554.75,4346.9425020,N,07928.0424788,W,5,06,1.3,188.320,M,-37.20,M,01,0000*6E
$GPGGA,202555.00,4346.9426183,N,07928.0424873,W,5,06,1.3,188.323,M,-37.20,M,02,0000*6D
$GPGGA,202555.25,4346.9427410,N,07928.0425069,W,5,06,1.3,188.321,M,-37.20,M,02,0000*64
