$GPGGA,165553.00,4346.9292251,N,07927.9709682,W,4,05,3.0,189.477,M,-37.20,M,01,0000*61
$GPGGA,165553.25,4346.9292264,N,07927.9709723,W,4,05,3.0,189.481,M,-37.20,M,00,0000*62
$GPGGA,165553.50,4346.9292291,N,07927.9709755,W,4,05,3.0,189.482,M,-37.20,M,00,0000*68
$GPGGA,165553.75,4346.9292312,N,07927.9709731,W,4,05,3.0,189.478,M,-37.20,M,00,0000*62
$GPGGA,165554.00,4346.9292307,N,07927.9709731,W,4,05,3.0,189.470,M,-37.20,M,01,0000*6A
$GPGGA,165554.25,4346.9292254,N,07927.9709706,W,4,05,3.0,189.482,M,-37.20,M,00,0000*62
$GPGGA,165554.50,4346.9292245,N,07927.9709682,W,4,05,3.0,189.472,M,-37.20,M,00,0000*62
$GPGGA,165554.75,4346.9292206,N,07927.9709673,W,4,05,3.0,189.472,M,-37.20,M,00,0000*6C
$GPGGA,165555.00,4346.9292233,N,07927.9709675,W,4,05,3.0,189.470,M,-37.20,M,01,0000*6C
$GPGGA,165555.25,4346.9292269,N,07927.9709697,W,4,05,3.0,189.472,M,-37.20,M,00,0000*6B
$GPGGA,165555.50,4346.9292254,N,07927.9709684,W,4,05,3.0,189.476,M,-37.20,M,00,0000*61
$GPGGA,165555.75,4346.9292245,N,07927.9709704,W,4,05,3.0,189.480,M,-37.20,M,00,0000*66
$GPGGA,165556.00,4346.9292247,N,07927.9709705,W,4,05,3.0,189.476,M,-37.20,M,01,0000*6C
$GPGGA,165556.25,4346.9292223,N,07927.9709685,W,4,05,3.0,189.465,M,-37.20,M,00,0000*63
$GPGGA,165556.50,4346.9292233,N,07927.9709703,W,4,05,3.0,189.468,M,-37.20,M,00,0000*62
$GPGGA,165556.75,4346.9292199,N,07927.9709713,W,4,05,3.0,189.481,M,-37.20,M,00,0000*60
$GPGGA,165557.00,4346.9292206,N,07927.9709675,W,4,05,3.0,189.473,M,-37.20,M,01,0000*6B
$GPGGA,165557.25,4346.9292205,N,07927.9709694,W,4,05,3.0,189.473,M,-37.20,M,00,0000*61
$GPGGA,165557.50,4346.9292211,N,07927.9709712,W,4,05,3.0,189.476,M,-37.20,M,00,0000*6C
$GPGGA,165557.75,4346.9292234,N,07927.9709697,W,4,05,3.0,189.473,M,-37.20,M,00,0000*65
$GPGGA,165558.00,4346.9292190,N,07927.9709670,W,4,05,3.0,189.474,M,-37.20,M,01,0000*6A
$GPGGA,165558.25,4346.9292227,N,07927.9709676,W,4,05,3.0,189.469,M,-37.20,M,00,0000*69
$GPGGA,165558.50,4346.9292245,N,07927.9709677,W,4,05,3.0,189.468,M,-37.20,M,00,0000*6F
$GPGGA,165558.75,4346.9292187,N,07927.9709634,W,4,05,3.0,189.464,M,-37.20,M,00,0000*6E
$GPGGA,165559.00,4346.9292195,N,07927.9709651,W,4,05,3.0,189.474,M,-37.20,M,01,0000*6D
$GPGGA,165559.25,4346.9292254,N,07927.9709731,W,4,05,3.0,189.474,M,-37.20,M,00,0000*62
$GPGGA,165559.50,4346.9292243,N,07927.9709732,W,4,05,3.0,189.471,M,-37.20,M,00,0000*60
$GPGGA,165559.75,4346.9292214,N,07927.9709699,W,4,05,3.0,189.469,M,-37.20,M,00,0000*6C
$GPGGA,165600.00,4346.9292240,N,07927.9709708,W,4,05,3.0,189.469,M,-37.20,M,01,0000*68
$GPGGA,165600.25,4346.9292244,N,07927.9709708,W,4,05,3.0,189.470,M,-37.20,M,00,0000*62
$GPGGA,165600.50,4346.9292216,N,07927.9709701,W,4,05,3.0,189.474,M,-37.20,M,00,0000*6A
$GPGGA,165600.75,4346.9292175,N,07927.9709662,W,4,05,3.0,189.473,M,-37.20,M,00,0000*68
$GPGGA,165601.00,4346.9292229,N,07927.9709736,W,4,05,3.0,189.482,M,-37.20,M,01,0000*6E
$GPGGA,165601.25,4346.9292238,N,07927.9709695,W,4,05,3.0,189.463,M,-37.20,M,00,0000*6F
$GPGGA,165601.50,4346.9292244,N,07927.9709747,W,4,05,3.0,189.477,M,-37.20,M,00,0000*6D
$GPGGA,165601.75,4346.9292273,N,07927.9709746,W,4,05,3.0,189.480,M,-37.20,M,00,0000*67
$GPGGA,165602.00,4346.9292232,N,07927.9709690,W,4,05,3.0,189.462,M,-37.20,M,01,0000*64
$GPGGA,165602.25,4346.9292240,N,07927.9709731,W,4,05,3.0,189.477,M,-37.20,M,00,0000*69
$GPGGA,165602.50,4346.9292282,N,07927.9709752,W,4,05,3.0,189.481,M,-37.20,M,00,0000*69
$GPGGA,165602.75,4346.9292348,N,07927.9709786,W,4,05,3.0,189.473,M,-37.20,M,00,0000*6D
$GPGGA,165603.00,4346.9292318,N,07927.9709754,W,4,05,3.0,189.474,M,-37.20,M,01,0000*62
$GPGGA,165603.25,4346.9292233,N,07927.9709723,W,4,05,3.0,189.479,M,-37.20,M,00,0000*61
$GPGGA,165603.50,4346.9292239,N,07927.9709706,W,4,05,3.0,189.470,M,-37.20,M,00,0000*67
$GPGGA,165603.75,4346.9292331,N,07927.9709806,W,4,05,3.0,189.473,M,-37.20,M,00,0000*65
$GPGGA,165604.00,4346.9292280,N,07927.9709774,W,4,05,3.0,189.478,M,-37.20,M,01,0000*6B
$GPGGA,165604.25,4346.9292244,N,07927.9709728,W,4,05,3.0,189.479,M,-37.20,M,00,0000*6D
$GPGGA,165604.50,4346.9292260,N,07927.9709733,W,4,05,3.0,189.473,M,-37.20,M,00,0000*69
$GPGGA,165604.75,4346.9292215,N,07927.9709727,W,4,05,3.0,189.478,M,-37.20,M,00,0000*62
$GPGGA,165605.00,4346.9292238,N,07927.9709722,W,4,05,3.0,189.484,M,-37.20,M,01,0000*69
$GPGGA,165605.25,4346.9292276,N,07927.9709736,W,4,05,3.0,189.479,M,-37.20,M,00,0000*62
$GPGGA,165605.50,4346.9292262,N,07927.9709758,W,4,05,3.0,189.483,M,-37.20,M,00,0000*68
$GPGGA,165605.75,4346.9292260,N,07927.9709754,W,4,05,3.0,189.484,M,-37.20,M,00,0000*66
$GPGGA,165606.00,4346.9292256,N,07927.9709707,W,4,05,3.0,189.474,M,-37.20,M,01,0000*6A
$GPGGA,165606.25,4346.9292246,N,07927.9709712,W,4,05,3.0,189.482,M,-37.20,M,00,0000*60
$GPGGA,165606.50,4346.9292294,N,07927.9709755,W,4,06,3.0,189.483,M,-37.20,M,00,0000*6C
$GPGGA,165606.75,4346.9292216,N,07927.9709722,W,4,06,1.6,189.481,M,-37.20,M,00,0000*67
$GPGGA,165607.00,4346.9292225,N,07927.9709676,W,4,06,1.6,189.470,M,-37.20,M,01,0000*6B
$GPGGA,165607.25,4346.9292282,N,07927.9709747,W,4,06,1.6,189.486,M,-37.20,M,00,0000*6A
$GPGGA,165607.50,4346.9292255,N,07927.9709690,W,4,06,1.6,189.465,M,-37.20,M,00,0000*64
$GPGGA,165607.75,4346.9292275,N,07927.9709714,W,4,06,1.6,189.474,M,-37.20,M,00,0000*6C
$GPGGA,165608.00,4346.9292277,N,07927.9709713,W,4,06,1.6,189.468,M,-37.20,M,01,0000*68
$GPGGA,165608.25,4346.9292231,N,07927.9709718,W,4,06,1.6,189.474,M,-37.20,M,00,0000*6A
$GPGGA,165608.50,4346.9292262,N,07927.9709761,W,4,06,1.6,189.472,M,-37.20,M,00,0000*66
$GPGGA,165608.75,4346.9292243,N,07927.9709719,W,4,06,1.6,189.468,M,-37.20,M,00,0000*66
$GPGGA,165609.00,4346.9292233,N,07927.9709719,W,4,06,1.6,189.483,M,-37.20,M,01,0000*66
$GPGGA,165609.25,4346.9292300,N,07927.9709756,W,4,06,1.6,189.464,M,-37.20,M,00,0000*63
$GPGGA,165609.50,4346.9292249,N,07927.9709728,W,4,06,1.6,189.466,M,-37.20,M,00,0000*66
$GPGGA,165609.75,4346.9292264,N,07927.9709767,W,4,06,1.6,189.462,M,-37.20,M,00,0000*61
$GPGGA,165610.00,4346.9292232,N,07927.9709752,W,4,06,1.6,189.471,M,-37.20,M,01,0000*6D
$GPGGA,165610.25,4346.9292268,N,07927.9709744,W,4,06,1.6,189.481,M,-37.20,M,00,0000*6C
$GPGGA,165610.50,4346.9292250,N,07927.9709746,W,4,06,1.6,189.483,M,-37.20,M,00,0000*65
$GPGGA,165610.75,4346.9292287,N,07927.9709749,W,4,06,1.6,189.482,M,-37.20,M,00,0000*66
$GPGGA,165611.00,4346.9292275,N,07927.9709774,W,4,06,1.6,189.490,M,-37.20,M,01,0000*64
$GPGGA,165611.25,4346.9292257,N,07927.9709763,W,4,06,1.6,189.485,M,-37.20,M,00,0000*60
$GPGGA,165611.50,4346.9292236,N,07927.9709752,W,4,06,1.6,189.484,M,-37.20,M,00,0000*66
$GPGGA,165611.75,4346.9292240,N,07927.9709765,W,4,06,1.6,189.485,M,-37.20,M,00,0000*65
$GPGGA,165612.00,4346.9292246,N,07927.9709758,W,4,06,1.6,189.480,M,-37.20,M,01,0000*68
$GPGGA,165612.25,4346.9292268,N,07927.9709779,W,4,06,1.6,189.488,M,-37.20,M,00,0000*69
$GPGGA,165612.50,4346.9292292,N,07927.9709780,W,4,06,1.6,189.486,M,-37.20,M,00,0000*66
$GPGGA,165612.75,4346.9292253,N,07927.9709751,W,4,06,1.6,189.483,M,-37.20,M,00,0000*65
$GPGGA,165613.00,4346.9292293,N,07927.9709789,W,4,06,1.6,189.498,M,-37.20,M,01,0000*64
$GPGGA,165613.25,4346.9292303,N,07927.9709766,W,4,06,1.6,189.480,M,-37.20,M,00,0000*62
$GPGGA,165613.50,4346.9292299,N,07927.9709756,W,4,06,1.6,189.479,M,-37.20,M,00,0000*67
$GPGGA,165613.75,4346.9292283,N,07927.9709784,W,4,06,1.6,189.480,M,-37.20,M,00,0000*62
$GPGGA,165614.00,4346.9292305,N,07927.9709803,W,4,06,1.6,189.482,M,-37.20,M,01,0000*6B
$GPGGA,165614.25,4346.9292291,N,07927.9709770,W,4,06,1.6,189.494,M,-37.20,M,00,0000*6D
$GPGGA,165614.50,4346.9292249,N,07927.9709744,W,4,06,1.6,189.485,M,-37.20,M,00,0000*6D
$GPGGA,165614.75,4346.9292254,N,07927.9709769,W,4,06,1.6,189.487,M,-37.20,M,00,0000*6B
$GPGGA,165615.00,4346.9292268,N,07927.9709770,W,4,06,1.6,189.484,M,-37.20,M,01,0000*6D
$GPGGA,165615.25,4346.9292306,N,07927.9709782,W,4,06,1.6,189.485,M,-37.20,M,00,0000*6E
$GPGGA,165615.50,4346.9292292,N,07927.9709802,W,4,06,1.6,189.491,M,-37.20,M,00,0000*62
$GPGGA,165615.75,4346.9292260,N,07927.9709747,W,4,06,1.6,189.482,M,-37.20,M,00,0000*64
$GPGGA,165616.00,4346.9292265,N,07927.9709750,W,4,06,1.6,189.480,M,-37.20,M,01,0000*65
$GPGGA,165616.25,4346.9292311,N,07927.9709794,W,4,06,1.6,189.484,M,-37.20,M,00,0000*6D
$GPGGA,165616.50,4346.9292295,N,07927.9709801,W,4,06,1.6,189.495,M,-37.20,M,00,0000*61
$GPGGA,165616.75,4346.9292293,N,07927.9709802,W,4,06,1.6,189.494,M,-37.20,M,00,0000*62
$GPGGA,165617.00,4346.9292286,N,07927.9709771,W,4,06,1.6,189.486,M,-37.20,M,01,0000*6C
$GPGGA,165617.25,4346.9292289,N,07927.9709769,W,4,06,1.6,189.476,M,-37.20,M,00,0000*63
$GPGGA,165617.50,4346.9292270,N,07927.9709744,W,4,06,1.6,189.485,M,-37.20,M,00,0000*64
$GPGGA,165617.75,4346.9292277,N,07927.9709738,W,4,06,1.6,189.478,M,-37.20,M,00,0000*6D
$GPGGA,165618.00,4346.9292250,N,07927.9709740,W,4,06,1.6,189.484,M,-37.20,M,01,0000*68
$GPGGA,165618.25,4346.9292275,N,07927.9709752,W,4,06,1.6,189.482,M,-37.20,M,00,0000*6C
$GPGGA,165618.50,4346.9292284,N,07927.9709743,W,4,06,1.6,189.486,M,-37.20,M,00,0000*64
$GPGGA,165618.75,4346.9292289,N,07927.9709777,W,4,06,1.6,189.487,M,-37.20,M,00,0000*68
$GPGGA,165619.00,4346.9292275,N,07927.9709740,W,4,06,1.6,189.476,M,-37.20,M,01,0000*63
$GPGGA,165619.25,4346.9292266,N,07927.9709780,W,4,06,1.6,189.487,M,-37.20,M,00,0000*65
$GPGGA,165619.50,4346.9292268,N,07927.9709754,W,4,06,1.6,189.482,M,-37.20,M,00,0000*65
$GPGGA,165619.75,4346.9292295,N,07927.9709812,W,4,06,1.6,189.490,M,-37.20,M,00,0000*6E
$GPGGA,165620.00,4346.9292267,N,07927.9709752,W,4,06,1.6,189.480,M,-37.20,M,01,0000*60
$GPGGA,165620.25,4346.9292303,N,07927.9709773,W,4,06,1.6,189.491,M,-37.20,M,00,0000*66
$GPGGA,165620.50,4346.9292293,N,07927.9709798,W,4,06,1.6,189.487,M,-37.20,M,00,0000*6E
$GPGGA,165620.75,4346.9292271,N,07927.9709789,W,4,06,1.6,189.490,M,-37.20,M,00,0000*63
$GPGGA,165621.00,4346.9292327,N,07927.9709795,W,4,06,1.6,189.487,M,-37.20,M,01,0000*68
$GPGGA,165621.25,4346.9292235,N,07927.9709701,W,4,05,1.6,189.479,M,-37.20,M,00,0000*63
$GPGGA,165621.50,4346.9292215,N,07927.9709683,W,4,05,1.6,189.475,M,-37.20,M,00,0000*64
$GPGGA,165621.75,4346.9292186,N,07927.9709635,W,4,05,3.1,189.477,M,-37.20,M,00,0000*60
$GPGGA,165622.00,4346.9292228,N,07927.9709686,W,4,05,3.1,189.473,M,-37.20,M,01,0000*6B
$GPGGA,165622.25,4346.9292273,N,07927.9709766,W,4,05,3.1,189.484,M,-37.20,M,00,0000*64
$GPGGA,165622.50,4346.9292319,N,07927.9709802,W,4,05,3.1,189.482,M,-37.20,M,00,0000*60
$GPGGA,165622.75,4346.9292271,N,07927.9709769,W,4,05,3.1,189.483,M,-37.20,M,00,0000*6B
$GPGGA,165623.00,4346.9292271,N,07927.9709767,W,4,05,3.1,189.486,M,-37.20,M,01,0000*62
$GPGGA,165623.25,4346.9292216,N,07927.9709717,W,4,05,3.1,189.481,M,-37.20,M,00,0000*65
$GPGGA,165623.50,4346.9292257,N,07927.9709756,W,4,05,3.1,189.481,M,-37.20,M,00,0000*67
$GPGGA,165623.75,4346.9292285,N,07927.9709802,W,4,05,3.1,189.487,M,-37.20,M,00,0000*67
$GPGGA,165624.00,4346.9292269,N,07927.9709767,W,4,05,3.1,189.475,M,-37.20,M,01,0000*60
$GPGGA,165624.25,4346.9292279,N,07927.9709774,W,4,05,3.1,189.481,M,-37.20,M,00,0000*6E
$GPGGA,165624.50,4346.9292257,N,07927.9709691,W,4,05,3.1,189.474,M,-37.20,M,00,0000*60
$GPGGA,165624.75,4346.9292251,N,07927.9709723,W,4,05,3.1,189.477,M,-37.20,M,00,0000*6A
$GPGGA,165625.00,4346.9292280,N,07927.9709775,W,4,05,3.1,189.487,M,-37.20,M,01,0000*68
$GPGGA,165625.25,4346.9292305,N,07927.9709751,W,4,05,3.1,189.474,M,-37.20,M,00,0000*68
$GPGGA,165625.50,4346.9292303,N,07927.9709758,W,4,05,3.1,189.473,M,-37.20,M,00,0000*62
$GPGGA,165625.75,4346.9292288,N,07927.9709787,W,4,05,3.1,189.488,M,-37.20,M,00,0000*61
$GPGGA,165626.00,4346.9292283,N,07927.9709717,W,4,05,3.1,189.467,M,-37.20,M,01,0000*62
$GPGGA,165626.25,4346.9292288,N,07927.9709764,W,4,05,3.1,189.482,M,-37.20,M,00,0000*60
$GPGGA,165626.50,4346.9292275,N,07927.9709749,W,4,05,3.1,189.485,M,-37.20,M,00,0000*68
$GPGGA,165626.75,4346.9292294,N,07927.9709788,W,4,05,3.1,189.481,M,-37.20,M,00,0000*69
$GPGGA,165627.00,4346.9292297,N,07927.9709749,W,4,05,3.1,189.476,M,-37.20,M,01,0000*6D
$GPGGA,165627.25,4346.9292369,N,07927.9709776,W,4,05,3.1,189.469,M,-37.20,M,00,0000*69
$GPGGA,165627.50,4346.9292362,N,07927.9709783,W,4,05,3.1,189.476,M,-37.20,M,00,0000*64
$GPGGA,165627.75,4346.9292348,N,07927.9709823,W,4,05,3.1,189.489,M,-37.20,M,00,0000*6E
$GPGGA,165628.00,4346.9292329,N,07927.9709771,W,4,05,3.1,189.474,M,-37.20,M,01,0000*6F
$GPGGA,165628.25,4346.9292277,N,07927.9709762,W,4,05,3.1,189.482,M,-37.20,M,00,0000*68
$GPGGA,165628.50,4346.9292268,N,07927.9709787,W,4,05,3.1,189.487,M,-37.20,M,00,0000*6A
$GPGGA,165628.75,4346.9292243,N,07927.9709929,W,4,05,3.1,189.470,M,-37.20,M,00,0000*66
$GPGGA,165629.00,4346.9292199,N,07927.9710132,W,4,05,3.1,189.457,M,-37.20,M,01,0000*6F
$GPGGA,165629.25,4346.9291944,N,07927.9710301,W,4,05,3.1,189.480,M,-37.20,M,00,0000*6A
$GPGGA,165629.50,4346.9291669,N,07927.9710489,W,4,05,3.1,189.447,M,-37.20,M,00,0000*64
$GPGGA,165629.75,4346.9291629,N,07927.9710739,W,4,05,3.1,189.445,M,-37.20,M,00,0000*6D
$GPGGA,165630.00,4346.9291533,N,07927.9711150,W,4,05,3.1,189.457,M,-37.20,M,01,0000*65
$GPGGA,165630.25,4346.9291527,N,07927.9711700,W,4,05,3.1,189.445,M,-37.20,M,00,0000*66
$GPGGA,165630.50,4346.9291348,N,07927.9712206,W,4,04,3.1,189.459,M,-37.20,M,00,0000*67
$GPGGA,165630.75,4346.9291211,N,07927.9712765,W,4,04,4.1,189.415,M,-37.20,M,00,0000*62
$GPGGA,165631.00,4346.9290998,N,07927.9713437,W,4,04,4.1,189.431,M,-37.20,M,01,0000*68
$GPGGA,165631.25,4346.9290897,N,07927.9714121,W,4,04,4.1,189.433,M,-37.20,M,00,0000*67
$GPGGA,165631.50,4346.9290729,N,07927.9714616,W,4,04,4.1,189.406,M,-37.20,M,00,0000*6A
$GPGGA,165631.75,4346.9290567,N,07927.9715316,W,4,04,4.1,189.444,M,-37.20,M,00,0000*67
$GPGGA,165632.00,4346.9290373,N,07927.9716013,W,4,04,4.1,189.452,M,-37.20,M,01,0000*66
$GPGGA,165632.25,4346.9290140,N,07927.9716624,W,4,04,4.1,189.436,M,-37.20,M,00,0000*62
$GPGGA,165632.50,4346.9289823,N,07927.9717277,W,4,05,4.1,189.405,M,-37.20,M,00,0000*66
$GPGGA,165632.75,4346.9289578,N,07927.9718125,W,4,05,1.8,189.418,M,-37.20,M,00,0000*69
$GPGGA,165633.00,4346.9289408,N,07927.9718937,W,4,05,1.8,189.413,M,-37.20,M,01,0000*6D
$GPGGA,165633.25,4346.9289210,N,07927.9719708,W,4,06,1.6,189.437,M,-37.20,M,00,0000*6C
$GPGGA,165633.50,4346.9288972,N,07927.9720512,W,4,06,1.6,189.441,M,-37.20,M,00,0000*62
$GPGGA,165633.75,4346.9288773,N,07927.9721320,W,4,06,1.6,189.419,M,-37.20,M,00,0000*61
$GPGGA,165634.00,4346.9288473,N,07927.9722116,W,4,06,1.6,189.421,M,-37.20,M,01,0000*69
$GPGGA,165634.25,4346.9288171,N,07927.9723027,W,4,06,1.6,189.422,M,-37.20,M,00,0000*69
$GPGGA,165634.50,4346.9287937,N,07927.9723982,W,4,05,1.6,189.397,M,-37.20,M,00,0000*62
$GPGGA,165634.75,4346.9287681,N,07927.9724861,W,4,05,3.1,189.382,M,-37.20,M,00,0000*6D
$GPGGA,165635.00,4346.9287393,N,07927.9725740,W,4,06,3.1,189.378,M,-37.20,M,01,0000*62
$GPGGA,165635.25,4346.9287223,N,07927.9726767,W,4,06,1.6,189.395,M,-37.20,M,00,0000*6E
$GPGGA,165635.50,4346.9286873,N,07927.9727642,W,4,06,1.6,189.388,M,-37.20,M,00,0000*69
$GPGGA,165635.75,4346.9286615,N,07927.9728588,W,4,06,1.6,189.378,M,-37.20,M,00,0000*65
$GPGGA,165636.00,4346.9286265,N,07927.9729465,W,4,06,1.6,189.387,M,-37.20,M,01,0000*65
$GPGGA,165636.25,4346.9285995,N,07927.9730239,W,4,06,1.6,189.343,M,-37.20,M,00,0000*6B
$GPGGA,165636.50,4346.9285780,N,07927.9731340,W,4,06,1.6,189.366,M,-37.20,M,00,0000*6A
$GPGGA,165636.75,4346.9285413,N,07927.9732072,W,4,06,1.6,189.335,M,-37.20,M,00,0000*63
$GPGGA,165637.00,4346.9285077,N,07927.9733061,W,4,05,1.6,189.344,M,-37.20,M,01,0000*61
$GPGGA,165637.25,4346.9284996,N,07927.9733959,W,4,05,3.1,189.339,M,-37.20,M,00,0000*6D
$GPGGA,165637.50,4346.9284658,N,07927.9734837,W,4,05,3.1,189.294,M,-37.20,M,00,0000*6A
$GPGGA,165637.75,4346.9284418,N,07927.9735840,W,4,05,3.1,189.327,M,-37.20,M,00,0000*63
$GPGGA,165638.00,4346.9284135,N,07927.9736768,W,4,05,3.1,189.338,M,-37.20,M,01,0000*6D
$GPGGA,165638.25,4346.9283889,N,07927.9737701,W,4,05,3.1,189.319,M,-37.20,M,01,0000*6E
$GPGGA,165638.50,4346.9283334,N,07927.9738471,W,4,05,3.1,189.287,M,-37.20,M,00,0000*6D
$GPGGA,165638.75,4346.9283145,N,07927.9739671,W,4,05,3.1,189.345,M,-37.20,M,00,0000*62
$GPGGA,165639.00,4346.9282826,N,07927.9740492,W,4,05,3.1,189.337,M,-37.20,M,01,0000*69
$GPGGA,165639.25,4346.9282635,N,07927.9741453,W,4,05,3.1,189.330,M,-37.20,M,00,0000*68
$GPGGA,165639.50,4346.9282466,N,07927.9742458,W,4,05,3.1,189.321,M,-37.20,M,00,0000*66
$GPGGA,165639.75,4346.9282281,N,07927.9743489,W,4,05,3.1,189.299,M,-37.20,M,00,0000*61
$GPGGA,165640.00,4346.9282061,N,07927.9744334,W,4,05,3.1,189.279,M,-37.20,M,01,0000*68
$GPGGA,165640.25,4346.9281869,N,07927.9745320,W,4,05,3.1,189.283,M,-37.20,M,00,0000*6C
$GPGGA,165640.50,4346.9281834,N,07927.9746413,W,4,05,3.1,189.271,M,-37.20,M,00,0000*6F
$GPGGA,165640.75,4346.9281669,N,07927.9747359,W,4,05,3.1,189.275,M,-37.20,M,00,0000*62
$GPGGA,165641.00,4346.9281557,N,07927.9748401,W,4,06,3.1,189.288,M,-37.20,M,01,0000*6A
$GPGGA,165641.25,4346.9281347,N,07927.9749408,W,4,06,1.6,189.268,M,-37.20,M,00,0000*68
$GPGGA,165641.50,4346.9281117,N,07927.9750314,W,4,06,1.6,189.247,M,-37.20,M,00,0000*62
$GPGGA,165641.75,4346.9281175,N,07927.9751360,W,4,06,1.6,189.223,M,-37.20,M,00,0000*61
$GPGGA,165642.00,4346.9281054,N,07927.9752219,W,4,06,1.6,189.167,M,-37.20,M,01,0000*6C
$GPGGA,165642.25,4346.9281136,N,07927.9753396,W,4,06,1.6,189.192,M,-37.20,M,00,0000*62
$GPGGA,165642.50,4346.9281258,N,07927.9754378,W,4,06,1.6,189.138,M,-37.20,M,00,0000*6C
$GPGGA,165642.75,4346.9281192,N,07927.9755375,W,4,06,1.6,189.132,M,-37.20,M,00,0000*68
$GPGGA,165643.00,4346.9281144,N,07927.9756453,W,4,06,1.6,189.154,M,-37.20,M,01,0000*61
$GPGGA,165643.25,4346.9281137,N,07927.9757326,W,4,06,1.6,189.159,M,-37.20,M,00,0000*6A
$GPGGA,165643.50,4346.9281250,N,07927.9758425,W,4,06,1.6,189.176,M,-37.20,M,00,0000*6C
$GPGGA,165643.75,4346.9281236,N,07927.9759364,W,4,06,1.6,189.176,M,-37.20,M,00,0000*68
$GPGGA,165644.00,4346.9281266,N,07927.9760193,W,4,06,1.6,189.113,M,-37.20,M,01,0000*6A
$GPGGA,165644.25,4346.9281374,N,07927.9761342,W,4,06,1.6,189.153,M,-37.20,M,00,0000*65
$GPGGA,165644.50,4346.9281416,N,07927.9762213,W,4,06,1.6,189.142,M,-37.20,M,00,0000*62
$GPGGA,165644.75,4346.9281541,N,07927.9763219,W,4,06,1.6,189.170,M,-37.20,M,00,0000*6C
$GPGGA,165645.00,4346.9281532,N,07927.9763975,W,4,06,1.6,189.107,M,-37.20,M,01,0000*6B
$GPGGA,165645.25,4346.9281940,N,07927.9765577,W,4,05,1.6,189.337,M,-37.20,M,00,0000*6E
$GPGGA,165645.50,4346.9281941,N,07927.9766498,W,4,05,1.6,189.317,M,-37.20,M,00,0000*6C
$GPGGA,165645.75,4346.9281991,N,07927.9767469,W,4,05,1.8,189.309,M,-37.20,M,00,0000*68
$GPGGA,165646.00,4346.9281890,N,07927.9768408,W,4,05,1.8,189.326,M,-37.20,M,01,0000*6D
$GPGGA,165646.25,4346.9281900,N,07927.9769381,W,4,05,1.8,189.262,M,-37.20,M,00,0000*65
$GPGGA,165646.50,4346.9281887,N,07927.9770330,W,4,05,1.8,189.250,M,-37.20,M,00,0000*6A
$GPGGA,165646.75,4346.9281916,N,07927.9771300,W,4,05,1.8,189.246,M,-37.20,M,00,0000*61
$GPGGA,165647.00,4346.9281833,N,07927.9772203,W,4,05,1.8,189.224,M,-37.20,M,01,0000*60
$GPGGA,165647.25,4346.9281887,N,07927.9773132,W,4,06,1.6,189.219,M,-37.20,M,00,0000*6A
$GPGGA,165647.50,4346.9281828,N,07927.9774009,W,4,06,1.6,189.229,M,-37.20,M,00,0000*60
$GPGGA,165647.75,4346.9281755,N,07927.9774930,W,4,05,1.6,189.220,M,-37.20,M,00,0000*6B
$GPGGA,165648.00,4346.9281795,N,07927.9775683,W,4,05,1.6,189.234,M,-37.20,M,01,0000*68
$GPGGA,165648.25,4346.9281903,N,07927.9776511,W,4,05,1.6,189.273,M,-37.20,M,00,0000*67
$GPGGA,165648.50,4346.9281980,N,07927.9777366,W,4,04,1.6,189.278,M,-37.20,M,00,0000*63
$GPGGA,165648.75,4346.9281994,N,07927.9778253,W,4,04,4.2,189.261,M,-37.20,M,00,0000*60
$GPGGA,165649.00,4346.9281877,N,07927.9779134,W,4,04,4.2,189.261,M,-37.20,M,01,0000*6D
$GPGGA,165649.25,4346.9281979,N,07927.9780116,W,4,04,4.2,189.277,M,-37.20,M,00,0000*65
$GPGGA,165649.50,4346.9282171,N,07927.9781085,W,4,04,4.2,189.269,M,-37.20,M,00,0000*61
$GPGGA,165649.75,4346.9282290,N,07927.9782114,W,4,04,4.2,189.282,M,-37.20,M,00,0000*65
$GPGGA,165650.00,4346.9282327,N,07927.9783004,W,4,04,4.2,189.255,M,-37.20,M,01,0000*68
$GPGGA,165650.25,4346.9282166,N,07927.9783837,W,4,05,3.1,189.233,M,-37.20,M,00,0000*64
$GPGGA,165650.50,4346.9282234,N,07927.9784802,W,4,05,3.1,189.232,M,-37.20,M,00,0000*62
$GPGGA,165650.75,4346.9282079,N,07927.9785662,W,4,05,3.1,189.209,M,-37.20,M,00,0000*6F
$GPGGA,165651.00,4346.9281941,N,07927.9786525,W,4,05,3.1,189.187,M,-37.20,M,01,0000*6A
$GPGGA,165651.25,4346.9281805,N,07927.9787318,W,4,05,3.1,189.173,M,-37.20,M,00,0000*6F
$GPGGA,165651.50,4346.9281751,N,07927.9788237,W,4,05,3.1,189.201,M,-37.20,M,00,0000*66
$GPGGA,165651.75,4346.9281585,N,07927.9788997,W,4,05,3.1,189.205,M,-37.20,M,00,0000*6F
$GPGGA,165652.00,4346.9281477,N,07927.9789770,W,4,05,3.1,189.170,M,-37.20,M,01,0000*64
$GPGGA,165652.25,4346.9281090,N,07927.9790776,W,4,05,3.1,189.163,M,-37.20,M,00,0000*63
$GPGGA,165652.50,4346.9281030,N,07927.9791494,W,4,05,3.1,189.163,M,-37.20,M,00,0000*65
$GPGGA,165652.75,4346.9280937,N,07927.9792320,W,4,05,3.1,189.180,M,-37.20,M,00,0000*6B
$GPGGA,165653.00,4346.9280733,N,07927.9792997,W,4,04,3.1,189.191,M,-37.20,M,01,0000*64
$GPGGA,165653.25,4346.9280604,N,07927.9793752,W,4,04,4.2,189.188,M,-37.20,M,01,0000*6C
$GPGGA,165653.50,4346.9280181,N,07927.9793834,W,4,04,4.2,189.017,M,-37.20,M,01,0000*6C
$GPGGA,165653.75,4346.9280074,N,07927.9794758,W,4,04,4.2,189.034,M,-37.20,M,01,0000*63
$GPGGA,165654.00,,,,,0,00,4.2,,,,,01,0000*64
$GPGGA,165654.25,,,,,0,00,9.9,,,,,01,0000*65
$GPGGA,165654.50,,,,,0,00,9.9,,,,,01,0000*67
$GPGGA,165654.75,,,,,0,00,9.9,,,,,01,0000*60
$GPGGA,165655.00,,,,,0,00,9.9,,,,,01,0000*63
$GPGGA,165655.25,,,,,0,00,9.9,,,,,01,0000*64
$GPGGA,165655.50,,,,,0,00,9.9,,,,,01,0000*66
$GPGGA,165655.75,,,,,0,00,9.9,,,,,01,0000*61
$GPGGA,165656.00,,,,,0,00,9.9,,,,,01,0000*60
$GPGGA,165656.25,,,,,0,00,3.1,,,,,01,0000*65
$GPGGA,165656.50,4346.9281010,N,07927.9820202,W,2,05,3.1,191.836,M,-37.20,M,00,0000*69
$GPGGA,165656.75,4346.9277904,N,07927.9808600,W,2,05,3.1,187.976,M,-37.20,M,00,0000*65
$GPGGA,165657.00,4346.9278416,N,07927.9813080,W,2,05,3.1,189.141,M,-37.20,M,01,0000*60
$GPGGA,165657.25,4346.9278881,N,07927.9811317,W,2,05,3.1,188.588,M,-37.20,M,00,0000*6B
$GPGGA,165657.50,4346.9279618,N,07927.9816169,W,2,05,3.1,189.702,M,-37.20,M,00,0000*6B
$GPGGA,165657.75,4346.9277391,N,07927.9812162,W,2,05,3.1,187.852,M,-37.20,M,00,0000*6D
$GPGGA,165658.00,4346.9279100,N,07927.9824144,W,2,05,3.1,190.894,M,-37.20,M,01,0000*68
$GPGGA,165658.25,4346.9278555,N,07927.9825623,W,2,05,3.1,190.685,M,-37.20,M,00,0000*62
$GPGGA,165658.50,4346.9276747,N,07927.9826560,W,2,05,3.1,190.116,M,-37.20,M,00,0000*65
$GPGGA,165658.75,4346.9274532,N,07927.9825869,W,2,05,3.1,189.095,M,-37.20,M,00,0000*65
$GPGGA,165659.00,4346.9274815,N,07927.9829642,W,2,05,3.1,189.715,M,-37.20,M,01,0000*6B
$GPGGA,165659.25,4346.9274829,N,07927.9829265,W,2,05,3.1,189.476,M,-37.20,M,00,0000*65
$GPGGA,165659.50,4346.9274466,N,07927.9831140,W,2,05,3.1,189.437,M,-37.20,M,00,0000*68
$GPGGA,165659.75,4346.9274798,N,07927.9835951,W,2,05,3.1,190.321,M,-37.20,M,00,0000*69
$GPGGA,165700.00,4346.9274879,N,07927.9834523,W,2,06,1.6,189.825,M,-37.20,M,01,0000*6E
$GPGGA,165700.25,4346.9273903,N,07927.9830838,W,2,06,1.6,188.331,M,-37.20,M,00,0000*6F
$GPGGA,165700.50,4346.9273432,N,07927.9828848,W,2,06,1.6,187.850,M,-37.20,M,00,0000*6F
$GPGGA,165700.75,4346.9269931,N,07927.9828153,W,2,06,1.6,188.153,M,-37.20,M,00,0000*6B
$GPGGA,165701.00,4346.9272100,N,07927.9832825,W,2,06,1.6,188.497,M,-37.20,M,01,0000*67
$GPGGA,165701.25,4346.9273874,N,07927.9836507,W,2,06,1.6,188.976,M,-37.20,M,00,0000*61
$GPGGA,165701.50,4346.9272412,N,07927.9835343,W,2,06,1.6,188.512,M,-37.20,M,00,0000*65
$GPGGA,165701.75,4346.9269386,N,07927.9831602,W,2,06,1.6,187.963,M,-37.20,M,00,0000*63
$GPGGA,165702.00,4346.9267388,N,07927.9834212,W,2,06,1.6,188.706,M,-37.20,M,01,0000*61
$GPGGA,165702.25,4346.9269816,N,07927.9840412,W,2,06,1.6,188.949,M,-37.20,M,00,0000*65
$GPGGA,165702.50,4346.9267350,N,07927.9837437,W,2,06,1.6,188.124,M,-37.20,M,00,0000*64
$GPGGA,165702.75,4346.9270275,N,07927.9842787,W,2,06,1.6,188.607,M,-37.20,M,00,0000*6F
$GPGGA,165703.00,4346.9269437,N,07927.9845228,W,2,06,1.6,188.893,M,-37.20,M,01,0000*61
$GPGGA,165703.25,4346.9269160,N,07927.9845337,W,2,06,1.6,188.857,M,-37.20,M,00,0000*67
$GPGGA,165703.50,4346.9268305,N,07927.9847059,W,2,06,1.6,188.932,M,-37.20,M,00,0000*6E
$GPGGA,165703.75,4346.9269023,N,07927.9849430,W,2,06,1.6,188.778,M,-37.20,M,00,0000*6A
$GPGGA,165704.00,4346.9268687,N,07927.9849377,W,2,06,1.6,188.293,M,-37.20,M,01,0000*63
$GPGGA,165704.25,4346.9269069,N,07927.9851817,W,2,06,1.6,188.094,M,-37.20,M,00,0000*63
$GPGGA,165704.50,4346.9269735,N,07927.9855016,W,2,06,1.6,188.150,M,-37.20,M,00,0000*6B
$GPGGA,165704.75,4346.9270865,N,07927.9859458,W,2,06,1.6,188.509,M,-37.20,M,00,0000*64
$GPGGA,165705.00,4346.9271325,N,07927.9862991,W,2,06,1.6,188.953,M,-37.20,M,01,0000*6B
$GPGGA,165705.25,4346.9270882,N,07927.9862370,W,2,06,1.6,187.873,M,-37.20,M,00,0000*63
$GPGGA,165705.50,4346.9270565,N,07927.9865174,W,2,06,1.6,188.368,M,-37.20,M,00,0000*6A
$GPGGA,165705.75,4346.9270359,N,07927.9868423,W,2,06,1.6,188.911,M,-37.20,M,00,0000*6A
$GPGGA,165706.00,4346.9269697,N,07927.9870620,W,2,06,1.6,189.313,M,-37.20,M,01,0000*64
$GPGGA,165706.25,4346.9269902,N,07927.9872622,W,2,06,1.6,189.504,M,-37.20,M,00,0000*61
$GPGGA,165706.50,4346.9270752,N,07927.9874482,W,2,06,1.6,189.424,M,-37.20,M,00,0000*6D
$GPGGA,165706.75,4346.9270604,N,07927.9875490,W,2,06,1.6,189.453,M,-37.20,M,00,0000*6A
$GPGGA,165707.00,4346.9271200,N,07927.9878041,W,2,06,1.6,189.622,M,-37.20,M,01,0000*68
$GPGGA,165707.25,4346.9270669,N,07927.9875173,W,4,06,1.6,188.719,M,-37.20,M,00,0000*67
$GPGGA,165707.50,4346.9270836,N,07927.9876838,W,4,06,1.6,188.720,M,-37.20,M,00,0000*6E
$GPGGA,165707.75,4346.9271031,N,07927.9878575,W,4,06,1.6,188.707,M,-37.20,M,00,0000*68
$GPGGA,165708.00,4346.9271116,N,07927.9880239,W,4,06,1.6,188.721,M,-37.20,M,01,0000*6C
$GPGGA,165708.25,4346.9271319,N,07927.9881921,W,4,06,1.6,188.712,M,-37.20,M,00,0000*64
$GPGGA,165708.50,4346.9271406,N,07927.9883627,W,4,06,1.6,188.709,M,-37.20,M,00,0000*6E
$GPGGA,165708.75,4346.9271600,N,07927.9885280,W,4,06,1.6,188.712,M,-37.20,M,00,0000*68
$GPGGA,165709.00,4346.9271649,N,07927.9886914,W,4,06,1.6,188.697,M,-37.20,M,01,0000*6E
$GPGGA,165709.25,4346.9271811,N,07927.9888565,W,4,06,1.6,188.715,M,-37.20,M,00,0000*64
$GPGGA,165709.50,4346.9271884,N,07927.9890268,W,4,06,1.6,188.714,M,-37.20,M,00,0000*68
$GPGGA,165709.75,4346.9271990,N,07927.9891971,W,4,06,1.6,188.704,M,-37.20,M,00,0000*68
$GPGGA,165710.00,4346.9272070,N,07927.9893672,W,4,06,1.6,188.740,M,-37.20,M,01,0000*69
$GPGGA,165710.25,4346.9272151,N,07927.9895323,W,4,06,1.6,188.700,M,-37.20,M,00,0000*6E
$GPGGA,165710.50,4346.9272125,N,07927.9896960,W,4,06,1.6,188.683,M,-37.20,M,00,0000*6B
$GPGGA,165710.75,4346.9272071,N,07927.9898675,W,4,06,1.6,188.716,M,-37.20,M,00,0000*64
$GPGGA,165711.00,4346.9271877,N,07927.9900445,W,4,06,1.6,188.725,M,-37.20,M,01,0000*6A
$GPGGA,165711.25,4346.9271717,N,07927.9902089,W,4,06,1.6,188.727,M,-37.20,M,00,0000*61
$GPGGA,165711.50,4346.9271450,N,07927.9903783,W,4,06,1.6,188.712,M,-37.20,M,00,0000*69
$GPGGA,165711.75,4346.9271258,N,07927.9905424,W,4,06,1.6,188.712,M,-37.20,M,00,0000*68
$GPGGA,165712.00,4346.9271097,N,07927.9907106,W,4,06,1.6,188.720,M,-37.20,M,01,0000*6F
$GPGGA,165712.25,4346.9270832,N,07927.9908923,W,4,06,1.6,188.771,M,-37.20,M,00,0000*6B
$GPGGA,165712.50,4346.9270584,N,07927.9910603,W,4,06,1.6,188.773,M,-37.20,M,00,0000*6F
$GPGGA,165712.75,4346.9270316,N,07927.9912235,W,4,06,1.6,188.778,M,-37.20,M,00,0000*6D
$GPGGA,165713.00,4346.9270064,N,07927.9913903,W,4,06,1.6,188.776,M,-37.20,M,01,0000*68
$GPGGA,165713.25,4346.9269815,N,07927.9915505,W,4,06,1.6,188.775,M,-37.20,M,00,0000*67
$GPGGA,165713.50,4346.9269545,N,07927.9917132,W,4,06,1.6,188.762,M,-37.20,M,00,0000*69
$GPGGA,165713.75,4346.9269233,N,07927.9918764,W,4,06,1.6,188.774,M,-37.20,M,00,0000*65
$GPGGA,165714.00,4346.9268912,N,07927.9920425,W,4,06,1.6,188.777,M,-37.20,M,01,0000*66
$GPGGA,165714.25,4346.9268645,N,07927.9922004,W,4,06,1.6,188.760,M,-37.20,M,00,0000*6E
$GPGGA,165714.50,4346.9268349,N,07927.9923602,W,4,06,1.6,188.773,M,-37.20,M,00,0000*66
$GPGGA,165714.75,4346.9268048,N,07927.9925237,W,4,06,1.6,188.792,M,-37.20,M,00,0000*68
$GPGGA,165715.00,4346.9267690,N,07927.9926819,W,4,06,1.6,188.792,M,-37.20,M,01,0000*63
$GPGGA,165715.25,4346.9267361,N,07927.9928461,W,4,06,1.6,188.773,M,-37.20,M,00,0000*6C
$GPGGA,165715.50,4346.9267017,N,07927.9930070,W,4,06,1.6,188.782,M,-37.20,M,00,0000*6F
$GPGGA,165715.75,4346.9266647,N,07927.9931672,W,4,06,1.6,188.768,M,-37.20,M,00,0000*6B
$GPGGA,165716.00,4346.9266281,N,07927.9933279,W,4,06,1.6,188.767,M,-37.20,M,01,0000*67
$GPGGA,165716.25,4346.9265912,N,07927.9934962,W,4,06,1.6,188.769,M,-37.20,M,00,0000*6B
$GPGGA,165716.50,4346.9265529,N,07927.9936515,W,4,06,1.6,188.779,M,-37.20,M,00,0000*62
$GPGGA,165716.75,4346.9265129,N,07927.9938152,W,4,06,1.6,188.780,M,-37.20,M,00,0000*6E
$GPGGA,165717.00,4346.9264735,N,07927.9939717,W,4,06,1.6,188.760,M,-37.20,M,01,0000*6E
$GPGGA,165717.25,4346.9264398,N,07927.9941377,W,4,06,1.6,188.764,M,-37.20,M,00,0000*62
$GPGGA,165717.50,4346.9263992,N,07927.9943015,W,4,06,1.6,188.770,M,-37.20,M,00,0000*67
$GPGGA,165717.75,4346.9263656,N,07927.9944608,W,4,06,1.6,188.754,M,-37.20,M,00,0000*6C
$GPGGA,165718.00,4346.9263278,N,07927.9946228,W,4,06,1.6,188.753,M,-37.20,M,01,0000*6B
$GPGGA,165718.25,4346.9262834,N,07927.9947868,W,4,06,1.6,188.772,M,-37.20,M,00,0000*62
$GPGGA,165718.50,4346.9262461,N,07927.9949400,W,4,06,1.6,188.794,M,-37.20,M,00,0000*68
$GPGGA,165718.75,4346.9262055,N,07927.9950991,W,4,06,1.6,188.784,M,-37.20,M,00,0000*60
$GPGGA,165719.00,4346.9261632,N,07927.9952604,W,4,06,1.6,188.782,M,-37.20,M,01,0000*61
$GPGGA,165719.25,4346.9261197,N,07927.9954194,W,4,06,1.6,188.742,M,-37.20,M,00,0000*6B
$GPGGA,165719.50,4346.9260748,N,07927.9955754,W,4,06,1.6,188.739,M,-37.20,M,00,0000*6B
$GPGGA,165719.75,4346.9260442,N,07927.9957348,W,4,06,1.6,188.737,M,-37.20,M,00,0000*60
$GPGGA,165720.00,4346.9260210,N,07927.9958941,W,4,06,1.6,188.740,M,-37.20,M,01,0000*64
$GPGGA,165720.25,4346.9259941,N,07927.9960651,W,4,06,1.6,188.744,M,-37.20,M,00,0000*66
$GPGGA,165720.50,4346.9259737,N,07927.9962226,W,4,06,1.6,188.754,M,-37.20,M,00,0000*6C
$GPGGA,165720.75,4346.9259461,N,07927.9963835,W,4,06,1.6,188.742,M,-37.20,M,00,0000*65
$GPGGA,165721.00,4346.9259157,N,07927.9965536,W,4,06,1.6,188.744,M,-37.20,M,01,0000*69
$GPGGA,165721.25,4346.9258838,N,07927.9967190,W,4,06,1.6,188.739,M,-37.20,M,00,0000*6E
$GPGGA,165721.50,4346.9258539,N,07927.9968826,W,4,06,1.6,188.722,M,-37.20,M,00,0000*61
$GPGGA,165721.75,4346.9258237,N,07927.9970503,W,4,06,1.6,188.732,M,-37.20,M,00,0000*6D
$GPGGA,165722.00,4346.9257972,N,07927.9972164,W,4,06,1.6,188.735,M,-37.20,M,01,0000*68
$GPGGA,165722.25,4346.9257713,N,07927.9973800,W,4,06,1.6,188.724,M,-37.20,M,00,0000*6D
$GPGGA,165722.50,4346.9257427,N,07927.9975467,W,4,06,1.6,188.745,M,-37.20,M,00,0000*67
$GPGGA,165722.75,4346.9257169,N,07927.9977130,W,4,06,1.6,188.743,M,-37.20,M,00,0000*6C
$GPGGA,165723.00,4346.9256884,N,07927.9978732,W,4,06,1.6,188.726,M,-37.20,M,01,0000*6D
$GPGGA,165723.25,4346.9256574,N,07927.9980436,W,4,06,1.6,188.713,M,-37.20,M,00,0000*6F
$GPGGA,165723.50,4346.9256324,N,07927.9982118,W,4,06,1.6,188.712,M,-37.20,M,00,0000*64
$GPGGA,165723.75,4346.9256047,N,07927.9983788,W,4,06,1.6,188.719,M,-37.20,M,00,0000*60
$GPGGA,165724.00,4346.9255754,N,07927.9985393,W,4,06,1.6,188.694,M,-37.20,M,01,0000*6E
$GPGGA,165724.25,4346.9255492,N,07927.9987071,W,4,06,1.6,188.687,M,-37.20,M,00,0000*6E
$GPGGA,165724.50,4346.9255235,N,07927.9988743,W,4,06,1.6,188.704,M,-37.20,M,00,0000*64
$GPGGA,165724.75,4346.9254932,N,07927.9990366,W,4,06,1.6,188.708,M,-37.20,M,00,0000*68
$GPGGA,165725.00,4346.9254677,N,07927.9991992,W,4,06,1.6,188.693,M,-37.20,M,01,0000*67
$GPGGA,165725.25,4346.9254362,N,07927.9993642,W,4,06,1.6,188.684,M,-37.20,M,00,0000*66
$GPGGA,165725.50,4346.9254095,N,07927.9995359,W,4,06,1.6,188.680,M,-37.20,M,00,0000*62
$GPGGA,165725.75,4346.9253795,N,07927.9997005,W,4,06,1.6,188.675,M,-37.20,M,00,0000*67
$GPGGA,165726.00,4346.9253558,N,07927.9998731,W,4,06,1.6,188.669,M,-37.20,M,01,0000*66
$GPGGA,165726.25,4346.9253277,N,07928.0000289,W,4,06,1.6,188.655,M,-37.20,M,00,0000*6D
$GPGGA,165726.50,4346.9252931,N,07928.0001967,W,4,06,1.6,188.659,M,-37.20,M,00,0000*61
$GPGGA,165726.75,4346.9252689,N,07928.0003603,W,4,06,1.6,188.666,M,-37.20,M,00,0000*69
$GPGGA,165727.00,4346.9252407,N,07928.0005293,W,4,06,1.6,188.665,M,-37.20,M,01,0000*67
$GPGGA,165727.25,4346.9252217,N,07928.0006896,W,4,06,1.6,188.639,M,-37.20,M,00,0000*63
$GPGGA,165727.50,4346.9251897,N,07928.0008561,W,4,06,1.6,188.633,M,-37.20,M,00,0000*61
$GPGGA,165727.75,4346.9251583,N,07928.0010198,W,4,06,1.6,188.634,M,-37.20,M,00,0000*62
$GPGGA,165728.00,4346.9251306,N,07928.0011895,W,4,06,1.6,188.620,M,-37.20,M,01,0000*65
$GPGGA,165728.25,4346.9250957,N,07928.0013464,W,4,06,1.6,188.635,M,-37.20,M,00,0000*68
$GPGGA,165728.50,4346.9250645,N,07928.0015085,W,4,06,1.6,188.619,M,-37.20,M,00,0000*65
$GPGGA,165728.75,4346.9250354,N,07928.0016753,W,4,06,1.6,188.624,M,-37.20,M,00,0000*66
$GPGGA,165729.00,4346.9250019,N,07928.0018315,W,4,06,1.6,188.619,M,-37.20,M,01,0000*68
$GPGGA,165729.25,4346.9249708,N,07928.0019928,W,4,06,1.6,188.631,M,-37.20,M,00,0000*6E
$GPGGA,165729.50,4346.9249416,N,07928.0021586,W,4,06,1.6,188.632,M,-37.20,M,00,0000*60
$GPGGA,165729.75,4346.9249100,N,07928.0023202,W,4,06,1.6,188.635,M,-37.20,M,00,0000*6B
$GPGGA,165730.00,4346.9248784,N,07928.0024869,W,4,06,1.6,188.633,M,-37.20,M,01,0000*6D
$GPGGA,165730.25,4346.9248421,N,07928.0026442,W,4,06,1.6,188.610,M,-37.20,M,00,0000*61
$GPGGA,165730.50,4346.9248118,N,07928.0028134,W,4,06,1.6,188.618,M,-37.20,M,00,0000*6E
$GPGGA,165730.75,4346.9247828,N,07928.0029669,W,4,06,1.6,188.617,M,-37.20,M,00,0000*6D
$GPGGA,165731.00,4346.9247484,N,07928.0031285,W,4,06,1.6,188.605,M,-37.20,M,01,0000*69
$GPGGA,165731.25,4346.9247180,N,07928.0032876,W,4,06,1.6,188.604,M,-37.20,M,00,0000*6A
$GPGGA,165731.50,4346.9246901,N,07928.0034516,W,4,06,1.6,188.589,M,-37.20,M,00,0000*63
$GPGGA,165731.75,4346.9246568,N,07928.0036176,W,4,06,1.6,188.620,M,-37.20,M,00,0000*67
$GPGGA,165732.00,4346.9246274,N,07928.0037840,W,4,06,1.6,188.625,M,-37.20,M,01,0000*65
$GPGGA,165732.25,4346.9245934,N,07928.0039452,W,4,06,1.6,188.610,M,-37.20,M,00,0000*68
$GPGGA,165732.50,4346.9245588,N,07928.0041099,W,4,06,1.6,188.591,M,-37.20,M,00,0000*67
$GPGGA,165732.75,4346.9245393,N,07928.0042716,W,4,06,1.6,188.593,M,-37.20,M,00,0000*6D
$GPGGA,165733.00,4346.9245223,N,07928.0044400,W,4,06,1.6,188.607,M,-37.20,M,01,0000*69
$GPGGA,165733.25,4346.9245035,N,07928.0046045,W,4,06,1.6,188.616,M,-37.20,M,00,0000*6D
$GPGGA,165733.50,4346.9244773,N,07928.0047719,W,4,06,1.6,188.609,M,-37.20,M,00,0000*6A
$GPGGA,165733.75,4346.9244579,N,07928.0049394,W,4,06,1.6,188.612,M,-37.20,M,00,0000*60
$GPGGA,165734.00,4346.9244342,N,07928.0051017,W,4,06,1.6,188.589,M,-37.20,M,01,0000*6A
$GPGGA,165734.25,4346.9244153,N,07928.0052667,W,4,06,1.6,188.591,M,-37.20,M,00,0000*65
$GPGGA,165734.50,4346.9243946,N,07928.0054382,W,4,06,1.6,188.607,M,-37.20,M,00,0000*68
$GPGGA,165734.75,4346.9243698,N,07928.0056034,W,4,06,1.6,188.636,M,-37.20,M,00,0000*6D
$GPGGA,165735.00,4346.9243512,N,07928.0057654,W,4,06,1.6,188.602,M,-37.20,M,01,0000*68
$GPGGA,165735.25,4346.9243270,N,07928.0059264,W,4,06,1.6,188.606,M,-37.20,M,00,0000*60
$GPGGA,165735.50,4346.9243074,N,07928.0061018,W,4,06,1.6,188.626,M,-37.20,M,00,0000*64
$GPGGA,165735.75,4346.9242835,N,07928.0062628,W,4,06,1.6,188.623,M,-37.20,M,00,0000*6C
$GPGGA,165736.00,4346.9242633,N,07928.0064303,W,4,06,1.6,188.616,M,-37.20,M,01,0000*68
$GPGGA,165736.25,4346.9242454,N,07928.0065950,W,4,06,1.6,188.614,M,-37.20,M,00,0000*62
$GPGGA,165736.50,4346.9242225,N,07928.0067663,W,4,06,1.6,188.607,M,-37.20,M,00,0000*6F
$GPGGA,165736.75,4346.9241983,N,07928.0069257,W,4,06,1.6,188.605,M,-37.20,M,00,0000*63
$GPGGA,165737.00,4346.9241810,N,07928.0070970,W,4,06,1.6,188.591,M,-37.20,M,01,0000*62
$GPGGA,165737.25,4346.9241615,N,07928.0072601,W,4,06,1.6,188.611,M,-37.20,M,00,0000*6F
$GPGGA,165737.50,4346.9241337,N,07928.0074288,W,4,06,1.6,188.592,M,-37.20,M,00,0000*63
$GPGGA,165737.75,4346.9241096,N,07928.0075935,W,4,06,1.6,188.628,M,-37.20,M,00,0000*62
$GPGGA,165738.00,4346.9240852,N,07928.0077571,W,4,06,1.6,188.622,M,-37.20,M,01,0000*6B
$GPGGA,165738.25,4346.9240579,N,07928.0079200,W,4,06,1.6,188.617,M,-37.20,M,00,0000*60
$GPGGA,165738.50,4346.9240257,N,07928.0080851,W,4,06,1.6,188.625,M,-37.20,M,00,0000*60
$GPGGA,165738.75,4346.9239946,N,07928.0082508,W,4,06,1.6,188.636,M,-37.20,M,00,0000*63
$GPGGA,165739.00,4346.9239642,N,07928.0084141,W,4,06,1.6,188.630,M,-37.20,M,01,0000*63
$GPGGA,165739.25,4346.9239358,N,07928.0085799,W,4,06,1.6,188.624,M,-37.20,M,00,0000*6C
$GPGGA,165739.50,4346.9238986,N,07928.0087450,W,4,06,1.6,188.610,M,-37.20,M,00,0000*65
$GPGGA,165739.75,4346.9238647,N,07928.0089065,W,4,06,1.6,188.606,M,-37.20,M,00,0000*6B
$GPGGA,165740.00,4346.9238241,N,07928.0090662,W,4,06,1.6,188.615,M,-37.20,M,01,0000*6F
$GPGGA,165740.25,4346.9237937,N,07928.0092272,W,4,06,1.6,188.654,M,-37.20,M,00,0000*6E
$GPGGA,165740.50,4346.9237542,N,07928.0093903,W,4,06,1.6,188.653,M,-37.20,M,00,0000*69
$GPGGA,165740.75,4346.9237204,N,07928.0095446,W,4,06,1.6,188.663,M,-37.20,M,00,0000*62
$GPGGA,165741.00,4346.9236810,N,07928.0097072,W,4,06,1.6,188.664,M,-37.20,M,01,0000*68
$GPGGA,165741.25,4346.9236380,N,07928.0098629,W,4,06,1.6,188.649,M,-37.20,M,00,0000*64
$GPGGA,165741.50,4346.9235972,N,07928.0100292,W,4,06,1.6,188.648,M,-37.20,M,00,0000*67
$GPGGA,165741.75,4346.9235581,N,07928.0101912,W,4,06,1.6,188.642,M,-37.20,M,00,0000*68
$GPGGA,165742.00,4346.9235145,N,07928.0103508,W,4,06,1.6,188.646,M,-37.20,M,01,0000*65
$GPGGA,165742.25,4346.9234786,N,07928.0105070,W,4,06,1.7,188.661,M,-37.20,M,00,0000*63
$GPGGA,165742.50,4346.9234420,N,07928.0106662,W,4,06,1.7,188.639,M,-37.20,M,00,0000*65
$GPGGA,165742.75,4346.9234006,N,07928.0108254,W,4,06,1.7,188.659,M,-37.20,M,00,0000*6B
$GPGGA,165743.00,4346.9233588,N,07928.0109819,W,4,06,1.7,188.647,M,-37.20,M,01,0000*60
$GPGGA,165743.25,4346.9233119,N,07928.0111386,W,4,06,1.7,188.636,M,-37.20,M,00,0000*68
$GPGGA,165743.50,4346.9232680,N,07928.0113013,W,4,06,1.7,188.617,M,-37.20,M,00,0000*62
$GPGGA,165743.75,4346.9232269,N,07928.0114554,W,4,06,1.7,188.626,M,-37.20,M,00,0000*65
$GPGGA,165744.00,4346.9231829,N,07928.0116126,W,4,06,1.7,188.639,M,-37.20,M,01,0000*61
$GPGGA,165744.25,4346.9231377,N,07928.0117702,W,4,06,1.7,188.619,M,-37.20,M,00,0000*64
$GPGGA,165744.50,4346.9231023,N,07928.0119294,W,4,06,1.7,188.619,M,-37.20,M,00,0000*60
$GPGGA,165744.75,4346.9230645,N,07928.0120874,W,4,06,1.7,188.626,M,-37.20,M,00,0000*62
$GPGGA,165745.00,4346.9230255,N,07928.0122479,W,4,06,1.7,188.638,M,-37.20,M,01,0000*69
$GPGGA,165745.25,4346.9229840,N,07928.0124037,W,4,06,1.7,188.631,M,-37.20,M,00,0000*68
$GPGGA,165745.50,4346.9229463,N,07928.0125662,W,4,06,1.7,188.623,M,-37.20,M,00,0000*63
$GPGGA,165745.75,4346.9229099,N,07928.0127303,W,4,06,1.7,188.634,M,-37.20,M,00,0000*63
$GPGGA,165746.00,4346.9228610,N,07928.0128918,W,4,06,1.7,188.645,M,-37.20,M,01,0000*6C
$GPGGA,165746.25,4346.9228248,N,07928.0130528,W,4,06,1.7,188.647,M,-37.20,M,01,0000*66
$GPGGA,165746.50,4346.9227830,N,07928.0132139,W,4,06,1.7,188.635,M,-37.20,M,00,0000*6C
$GPGGA,165746.75,4346.9227455,N,07928.0133708,W,4,06,1.7,188.638,M,-37.20,M,00,0000*6C
$GPGGA,165747.00,4346.9227028,N,07928.0135339,W,4,06,1.7,188.628,M,-37.20,M,01,0000*61
$GPGGA,165747.25,4346.9226723,N,07928.0136915,W,4,06,1.7,188.643,M,-37.20,M,00,0000*60
$GPGGA,165747.50,4346.9226436,N,07928.0138585,W,4,06,1.7,188.621,M,-37.20,M,00,0000*6A
$GPGGA,165747.75,4346.9226106,N,07928.0140214,W,4,06,1.7,188.614,M,-37.20,M,00,0000*6D
$GPGGA,165748.00,4346.9225851,N,07928.0141841,W,4,06,1.7,188.638,M,-37.20,M,01,0000*6C
$GPGGA,165748.25,4346.9225509,N,07928.0143471,W,4,06,1.7,188.629,M,-37.20,M,00,0000*67
$GPGGA,165748.50,4346.9225213,N,07928.0145069,W,4,06,1.7,188.625,M,-37.20,M,00,0000*6E
$GPGGA,165748.75,4346.9224912,N,07928.0146730,W,4,06,1.7,188.624,M,-37.20,M,00,0000*6B
$GPGGA,165749.00,4346.9224542,N,07928.0148335,W,4,06,1.7,188.619,M,-37.20,M,01,0000*61
$GPGGA,165749.25,4346.9224259,N,07928.0149947,W,4,06,1.7,188.618,M,-37.20,M,00,0000*65
$GPGGA,165749.50,4346.9223953,N,07928.0151592,W,4,06,1.7,188.616,M,-37.20,M,00,0000*62
$GPGGA,165749.75,4346.9223582,N,07928.0153243,W,4,06,1.7,188.611,M,-37.20,M,00,0000*6B
$GPGGA,165750.00,4346.9223273,N,07928.0154899,W,4,06,1.7,188.620,M,-37.20,M,01,0000*61
$GPGGA,165750.25,4346.9222990,N,07928.0156508,W,4,06,1.7,188.622,M,-37.20,M,01,0000*64
$GPGGA,165750.50,4346.9222618,N,07928.0158138,W,4,06,1.7,188.609,M,-37.20,M,01,0000*69
$GPGGA,165750.75,4346.9222344,N,07928.0159778,W,4,06,1.7,188.610,M,-37.20,M,01,0000*69
$GPGGA,165751.00,4346.9222025,N,07928.0161379,W,4,06,1.7,188.614,M,-37.20,M,02,0000*67
$GPGGA,165751.25,4346.9221711,N,07928.0163027,W,4,06,1.7,188.622,M,-37.20,M,00,0000*6E
$GPGGA,165751.50,4346.9221392,N,07928.0164727,W,4,06,1.7,188.635,M,-37.20,M,00,0000*65
$GPGGA,165751.75,4346.9221060,N,07928.0166362,W,4,06,1.7,188.631,M,-37.20,M,00,0000*6F
$GPGGA,165752.00,4346.9220784,N,07928.0168019,W,4,06,1.7,188.627,M,-37.20,M,01,0000*65
$GPGGA,165752.25,4346.9220490,N,07928.0169651,W,4,06,1.7,188.628,M,-37.20,M,00,0000*61
$GPGGA,165752.50,4346.9220154,N,07928.0171294,W,4,06,1.7,188.623,M,-37.20,M,00,0000*61
$GPGGA,165752.75,4346.9219828,N,07928.0172949,W,4,06,1.7,188.606,M,-37.20,M,00,0000*61
$GPGGA,165753.00,4346.9219518,N,07928.0174606,W,4,06,1.7,188.606,M,-37.20,M,01,0000*6F
$GPGGA,165753.25,4346.9219281,N,07928.0176272,W,4,06,1.7,188.611,M,-37.20,M,00,0000*6D
$GPGGA,165753.50,4346.9219098,N,07928.0177931,W,4,06,1.7,188.608,M,-37.20,M,00,0000*60
$GPGGA,165753.75,4346.9218858,N,07928.0179647,W,4,06,1.7,188.607,M,-37.20,M,00,0000*6D
$GPGGA,165754.00,4346.9218697,N,07928.0181325,W,4,06,1.7,188.596,M,-37.20,M,01,0000*69
$GPGGA,165754.25,4346.9218560,N,07928.0183032,W,4,06,1.7,188.595,M,-37.20,M,00,0000*60
$GPGGA,165754.50,4346.9218544,N,07928.0184653,W,4,06,1.7,188.535,M,-37.20,M,00,0000*68
$GPGGA,165754.75,4346.9218592,N,07928.0186467,W,4,06,1.7,188.536,M,-37.20,M,00,0000*60
$GPGGA,165755.00,4346.9218716,N,07928.0188100,W,4,06,1.7,188.534,M,-37.20,M,01,0000*64
$GPGGA,165755.25,4346.9218964,N,07928.0189772,W,4,06,1.7,188.526,M,-37.20,M,00,0000*68
$GPGGA,165755.50,4346.9219280,N,07928.0191301,W,4,06,1.7,188.513,M,-37.20,M,00,0000*65
$GPGGA,165755.75,4346.9219591,N,07928.0192903,W,4,06,1.7,188.489,M,-37.20,M,00,0000*6C
$GPGGA,165756.00,4346.9219920,N,07928.0194500,W,4,06,1.7,188.485,M,-37.20,M,01,0000*6F
$GPGGA,165756.25,4346.9220198,N,07928.0196279,W,4,06,1.7,188.480,M,-37.20,M,00,0000*66
$GPGGA,165756.50,4346.9220569,N,07928.0198012,W,4,06,1.7,188.480,M,-37.20,M,00,0000*6F
$GPGGA,165756.75,4346.9220865,N,07928.0199590,W,4,06,1.7,188.485,M,-37.20,M,00,0000*62
$GPGGA,165757.00,4346.9221207,N,07928.0201330,W,4,06,1.7,188.483,M,-37.20,M,01,0000*67
$GPGGA,165757.25,4346.9221593,N,07928.0202820,W,4,06,1.7,188.467,M,-37.20,M,00,0000*68
$GPGGA,165757.50,4346.9221937,N,07928.0204451,W,4,06,1.7,188.444,M,-37.20,M,00,0000*65
$GPGGA,165757.75,4346.9222309,N,07928.0206073,W,4,06,1.7,188.450,M,-37.20,M,00,0000*65
$GPGGA,165758.00,4346.9222684,N,07928.0207715,W,4,06,1.7,188.433,M,-37.20,M,01,0000*6A
$GPGGA,165758.25,4346.9223081,N,07928.0209324,W,4,06,1.7,188.432,M,-37.20,M,00,0000*67
$GPGGA,165758.50,4346.9223432,N,07928.0210938,W,4,06,1.7,188.408,M,-37.20,M,00,0000*6F
$GPGGA,165758.75,4346.9223816,N,07928.0212529,W,4,06,1.7,188.410,M,-37.20,M,00,0000*65
$GPGGA,165759.00,4346.9224227,N,07928.0214115,W,4,06,1.7,188.391,M,-37.20,M,01,0000*6B
$GPGGA,165759.25,4346.9224650,N,07928.0215770,W,4,06,1.7,188.391,M,-37.20,M,00,0000*6D
$GPGGA,165759.50,4346.9225030,N,07928.0217331,W,4,06,1.7,188.387,M,-37.20,M,00,0000*6A
$GPGGA,165759.75,4346.9225410,N,07928.0218908,W,4,06,1.7,188.389,M,-37.20,M,00,0000*6A
$GPGGA,165800.00,4346.9225790,N,07928.0220480,W,4,06,1.7,188.380,M,-37.20,M,01,0000*6E
$GPGGA,165800.25,4346.9226176,N,07928.0222177,W,4,06,1.7,188.369,M,-37.20,M,00,0000*6D
$GPGGA,165800.50,4346.9226463,N,07928.0223886,W,4,06,1.7,188.349,M,-37.20,M,00,0000*6A
$GPGGA,165800.75,4346.9226682,N,07928.0225504,W,4,06,1.7,188.364,M,-37.20,M,00,0000*6E
$GPGGA,165801.00,4346.9226939,N,07928.0227171,W,4,06,1.7,188.342,M,-37.20,M,01,0000*63
$GPGGA,165801.25,4346.9227325,N,07928.0228880,W,4,06,1.7,188.310,M,-37.20,M,00,0000*6C
$GPGGA,165801.50,4346.9227636,N,07928.0230471,W,4,06,1.7,188.302,M,-37.20,M,00,0000*61
$GPGGA,165801.75,4346.9227952,N,07928.0232154,W,4,06,1.7,188.299,M,-37.20,M,00,0000*68
$GPGGA,165802.00,4346.9228245,N,07928.0233794,W,4,06,1.7,188.274,M,-37.20,M,01,0000*62
$GPGGA,165802.25,4346.9228549,N,07928.0235479,W,4,06,1.7,188.280,M,-37.20,M,00,0000*62
$GPGGA,165802.50,4346.9228807,N,07928.0237200,W,4,06,1.7,188.245,M,-37.20,M,00,0000*64
$GPGGA,165802.75,4346.9229073,N,07928.0238785,W,4,06,1.7,188.231,M,-37.20,M,00,0000*6D
$GPGGA,165803.00,4346.9229411,N,07928.0240465,W,4,06,1.7,188.230,M,-37.20,M,01,0000*6C
$GPGGA,165803.25,4346.9229702,N,07928.0242091,W,4,06,1.7,188.221,M,-37.20,M,00,0000*66
$GPGGA,165803.50,4346.9229932,N,07928.0243695,W,4,06,1.7,188.206,M,-37.20,M,00,0000*6F
$GPGGA,165803.75,4346.9230196,N,07928.0245322,W,4,06,1.7,188.209,M,-37.20,M,00,0000*66
$GPGGA,165804.00,4346.9230468,N,07928.0246989,W,4,06,1.7,188.207,M,-37.20,M,01,0000*60
$GPGGA,165804.25,4346.9230674,N,07928.0248650,W,4,06,1.7,188.187,M,-37.20,M,00,0000*67
$GPGGA,165804.50,4346.9231005,N,07928.0250341,W,4,06,1.7,188.192,M,-37.20,M,00,0000*6C
$GPGGA,165804.75,4346.9231286,N,07928.0251938,W,4,06,1.7,188.177,M,-37.20,M,00,0000*6C
$GPGGA,165805.00,4346.9231505,N,07928.0253640,W,4,06,1.7,188.165,M,-37.20,M,01,0000*63
$GPGGA,165805.25,4346.9231698,N,07928.0255310,W,4,06,1.7,188.148,M,-37.20,M,01,0000*6A
$GPGGA,165805.50,4346.9231921,N,07928.0256940,W,4,06,1.7,188.135,M,-37.20,M,01,0000*63
$GPGGA,165805.75,4346.9232050,N,07928.0258592,W,4,06,1.7,188.118,M,-37.20,M,00,0000*6B
$GPGGA,165806.00,4346.9232289,N,07928.0260253,W,4,06,1.7,188.114,M,-37.20,M,01,0000*60
$GPGGA,165806.25,4346.9232506,N,07928.0261883,W,4,06,1.7,188.105,M,-37.20,M,01,0000*61
$GPGGA,165806.50,4346.9232703,N,07928.0263552,W,4,06,1.7,188.094,M,-37.20,M,01,0000*6E
$GPGGA,165806.75,4346.9232881,N,07928.0265194,W,4,06,1.7,188.086,M,-37.20,M,01,0000*67
$GPGGA,165807.00,4346.9233108,N,07928.0266911,W,4,06,1.7,188.097,M,-37.20,M,02,0000*68
$GPGGA,165807.25,4346.9233302,N,07928.0268644,W,4,06,1.7,188.068,M,-37.20,M,00,0000*64
$GPGGA,165807.50,4346.9233440,N,07928.0270280,W,4,06,1.7,188.076,M,-37.20,M,00,0000*6D
$GPGGA,165807.75,4346.9233659,N,07928.0271941,W,4,07,1.7,188.034,M,-37.20,M,00,0000*60
$GPGGA,165808.00,4346.9233826,N,07928.0273545,W,4,07,1.7,188.045,M,-37.20,M,01,0000*66
$GPGGA,165808.25,4346.9233992,N,07928.0275295,W,4,07,1.7,188.046,M,-37.20,M,00,0000*61
$GPGGA,165808.50,4346.9234147,N,07928.0276951,W,4,07,1.7,188.014,M,-37.20,M,00,0000*63
$GPGGA,165808.75,4346.9234315,N,07928.0278603,W,4,07,1.5,188.013,M,-37.20,M,00,0000*62
$GPGGA,165809.00,4346.9234510,N,07928.0280294,W,4,07,1.5,188.003,M,-37.20,M,01,0000*6F
$GPGGA,165809.25,4346.9234666,N,07928.0281995,W,4,07,1.5,187.975,M,-37.20,M,01,0000*66
$GPGGA,165809.50,4346.9234773,N,07928.0283746,W,4,07,1.5,187.968,M,-37.20,M,01,0000*6F
$GPGGA,165809.75,4346.9235002,N,07928.0285323,W,4,07,1.5,187.964,M,-37.20,M,01,0000*65
$GPGGA,165810.00,4346.9235093,N,07928.0287004,W,4,07,1.5,187.942,M,-37.20,M,01,0000*67
$GPGGA,165810.25,4346.9235210,N,07928.0288769,W,4,07,1.5,187.938,M,-37.20,M,01,0000*67
$GPGGA,165810.50,4346.9235385,N,07928.0290455,W,4,07,1.5,187.933,M,-37.20,M,00,0000*67
$GPGGA,165810.75,4346.9235541,N,07928.0292146,W,4,07,1.5,187.908,M,-37.20,M,00,0000*63
$GPGGA,165811.00,4346.9235709,N,07928.0293832,W,4,07,1.5,187.902,M,-37.20,M,01,0000*6E
$GPGGA,165811.25,4346.9235834,N,07928.0295575,W,4,07,1.5,187.893,M,-37.20,M,01,0000*69
$GPGGA,165811.50,4346.9235916,N,07928.0297181,W,4,07,1.5,187.885,M,-37.20,M,01,0000*60
$GPGGA,165811.75,4346.9236033,N,07928.0298819,W,4,07,1.5,187.894,M,-37.20,M,00,0000*6C
$GPGGA,165812.00,4346.9236123,N,07928.0300517,W,4,07,1.5,187.877,M,-37.20,M,01,0000*62
$GPGGA,165812.25,4346.9236248,N,07928.0302257,W,4,07,1.5,187.832,M,-37.20,M,00,0000*6A
$GPGGA,165812.50,4346.9236289,N,07928.0303912,W,4,07,1.5,187.844,M,-37.20,M,00,0000*6F
$GPGGA,165812.75,4346.9236264,N,07928.0305593,W,4,07,1.5,187.836,M,-37.20,M,00,0000*6D
$GPGGA,165813.00,4346.9236296,N,07928.0307294,W,4,07,1.5,187.797,M,-37.20,M,01,0000*64
$GPGGA,165813.25,4346.9236229,N,07928.0309004,W,4,07,1.5,187.811,M,-37.20,M,00,0000*62
$GPGGA,165813.50,4346.9236156,N,07928.0310725,W,4,07,1.5,187.776,M,-37.20,M,00,0000*69
$GPGGA,165813.75,4346.9235977,N,07928.0312276,W,4,07,1.5,187.783,M,-37.20,M,00,0000*6D
$GPGGA,165814.00,4346.9235699,N,07928.0313889,W,4,07,1.5,187.761,M,-37.20,M,01,0000*61
$GPGGA,165814.25,4346.9235413,N,07928.0315444,W,4,07,1.5,187.718,M,-37.20,M,00,0000*62
$GPGGA,165814.50,4346.9235059,N,07928.0317020,W,4,07,1.5,187.702,M,-37.20,M,00,0000*65
$GPGGA,165814.75,4346.9234707,N,07928.0318633,W,4,07,1.5,187.714,M,-37.20,M,00,0000*63
$GPGGA,165815.00,4346.9234312,N,07928.0320136,W,4,07,1.5,187.713,M,-37.20,M,01,0000*6F
$GPGGA,165815.25,4346.9233752,N,07928.0322165,W,4,07,1.5,187.812,M,-37.20,M,00,0000*64
$GPGGA,165815.50,4346.9233251,N,07928.0323604,W,4,07,1.5,187.806,M,-37.20,M,00,0000*64
$GPGGA,165815.75,4346.9232641,N,07928.0325125,W,4,06,1.5,187.791,M,-37.20,M,00,0000*65
$GPGGA,165816.00,4346.9232037,N,07928.0326604,W,4,06,1.5,187.769,M,-37.20,M,01,0000*62
$GPGGA,165816.25,4346.9231340,N,07928.0328024,W,4,06,1.7,187.785,M,-37.20,M,00,0000*6E
$GPGGA,165816.50,4346.9230606,N,07928.0329368,W,4,06,1.7,187.754,M,-37.20,M,00,0000*6C
$GPGGA,165816.75,4346.9229883,N,07928.0330532,W,4,06,1.7,187.687,M,-37.20,M,00,0000*6E
$GPGGA,165817.00,4346.9229064,N,07928.0331905,W,4,05,1.7,187.717,M,-37.20,M,01,0000*6F
$GPGGA,165817.25,4346.9228289,N,07928.0332974,W,4,05,3.4,187.697,M,-37.20,M,00,0000*64
$GPGGA,165817.50,4346.9227418,N,07928.0334056,W,4,05,3.4,187.679,M,-37.20,M,00,0000*68
$GPGGA,165817.75,4346.9226438,N,07928.0335406,W,4,05,3.4,187.710,M,-37.20,M,00,0000*62
$GPGGA,165818.00,4346.9225484,N,07928.0336496,W,4,05,3.4,187.731,M,-37.20,M,01,0000*63
$GPGGA,165818.25,4346.9224507,N,07928.0337332,W,4,05,3.4,187.682,M,-37.20,M,00,0000*6F
$GPGGA,165818.50,4346.9223460,N,07928.0338388,W,4,05,3.4,187.714,M,-37.20,M,00,0000*6A
$GPGGA,165818.75,4346.9222377,N,07928.0339280,W,4,06,1.7,187.683,M,-37.20,M,00,0000*68
$GPGGA,165819.00,4346.9221318,N,07928.0340086,W,4,06,1.7,187.661,M,-37.20,M,01,0000*66
$GPGGA,165819.25,4346.9220140,N,07928.0340940,W,4,06,1.7,187.645,M,-37.20,M,00,0000*6B
$GPGGA,165819.50,4346.9218976,N,07928.0341674,W,4,06,1.7,187.617,M,-37.20,M,00,0000*61
$GPGGA,165819.75,4346.9217743,N,07928.0342263,W,4,06,1.7,187.610,M,-37.20,M,00,0000*67
$GPGGA,165820.00,4346.9216527,N,07928.0342796,W,4,06,1.7,187.605,M,-37.20,M,01,0000*64
$GPGGA,165820.25,4346.9215512,N,07928.0343321,W,4,06,1.7,187.589,M,-37.20,M,00,0000*69
$GPGGA,165820.50,4346.9215600,N,07928.0343429,W,4,06,1.7,187.596,M,-37.20,M,00,0000*6A
$GPGGA,165820.75,4346.9215501,N,07928.0343416,W,4,06,1.7,187.594,M,-37.20,M,00,0000*61
$GPGGA,165821.00,4346.9215514,N,07928.0343435,W,4,06,1.7,187.599,M,-37.20,M,01,0000*6B
$GPGGA,165821.25,4346.9215537,N,07928.0343288,W,4,06,1.7,187.554,M,-37.20,M,00,0000*6D
$GPGGA,165821.50,4346.9215550,N,07928.0343289,W,4,06,1.7,187.556,M,-37.20,M,00,0000*6D
$GPGGA,165821.75,4346.9215536,N,07928.0343297,W,4,06,1.7,187.562,M,-37.20,M,00,0000*62
$GPGGA,165822.00,4346.9215542,N,07928.0343316,W,4,06,1.7,187.556,M,-37.20,M,01,0000*6E
$GPGGA,165822.25,4346.9215546,N,07928.0343245,W,4,06,1.7,187.550,M,-37.20,M,00,0000*6D
$GPGGA,165822.50,4346.9215529,N,07928.0343244,W,4,06,1.7,187.561,M,-37.20,M,00,0000*65
$GPGGA,165822.75,4346.9215527,N,07928.0343243,W,4,06,1.7,187.553,M,-37.20,M,00,0000*6A
$GPGGA,165823.00,4346.9215526,N,07928.0343273,W,4,06,1.7,187.563,M,-37.20,M,01,0000*69
$GPGGA,165823.25,4346.9215529,N,07928.0343300,W,4,06,1.7,187.570,M,-37.20,M,00,0000*67
$GPGGA,165823.50,4346.9215518,N,07928.0343301,W,4,06,1.7,187.566,M,-37.20,M,00,0000*61
$GPGGA,165823.75,4346.9215523,N,07928.0343283,W,4,07,1.5,187.562,M,-37.20,M,00,0000*62
$GPGGA,165824.00,4346.9215509,N,07928.0343254,W,4,06,1.5,187.558,M,-37.20,M,01,0000*6C
$GPGGA,165824.25,4346.9215537,N,07928.0343295,W,4,06,1.7,187.562,M,-37.20,M,00,0000*61
$GPGGA,165824.50,4346.9215540,N,07928.0343281,W,4,06,1.7,187.570,M,-37.20,M,00,0000*65
$GPGGA,165824.75,4346.9215543,N,07928.0343271,W,4,06,1.7,187.563,M,-37.20,M,00,0000*6C
$GPGGA,165825.00,4346.9215531,N,07928.0343277,W,4,06,1.7,187.557,M,-37.20,M,01,0000*6A
$GPGGA,165825.25,4346.9215517,N,07928.0343264,W,4,06,1.7,187.544,M,-37.20,M,00,0000*68
$GPGGA,165825.50,4346.9215523,N,07928.0343249,W,4,06,1.7,187.560,M,-37.20,M,00,0000*64
$GPGGA,165825.75,4346.9215510,N,07928.0343264,W,4,06,1.7,187.552,M,-37.20,M,00,0000*6D
$GPGGA,165826.00,4346.9215512,N,07928.0343269,W,4,06,1.7,187.558,M,-37.20,M,01,0000*68
$GPGGA,165826.25,4346.9215505,N,07928.0343263,W,4,06,1.7,187.555,M,-37.20,M,00,0000*6F
$GPGGA,165826.50,4346.9215484,N,07928.0343260,W,4,06,1.7,187.554,M,-37.20,M,00,0000*67
$GPGGA,165826.75,4346.9215484,N,07928.0343276,W,4,06,1.7,187.547,M,-37.20,M,00,0000*65
$GPGGA,165827.00,4346.9215498,N,07928.0343271,W,4,06,1.7,187.550,M,-37.20,M,01,0000*6B
$GPGGA,165827.25,4346.9215515,N,07928.0343276,W,4,06,1.7,187.556,M,-37.20,M,00,0000*68
$GPGGA,165827.50,4346.9215498,N,07928.0343257,W,4,06,1.7,187.551,M,-37.20,M,00,0000*6A
$GPGGA,165827.75,4346.9215515,N,07928.0343288,W,4,06,1.7,187.559,M,-37.20,M,00,0000*63
$GPGGA,165828.00,4346.9215494,N,07928.0343278,W,4,06,1.7,187.555,M,-37.20,M,01,0000*64
$GPGGA,165828.25,4346.9215491,N,07928.0343248,W,4,06,1.7,187.558,M,-37.20,M,00,0000*69
$GPGGA,165828.50,4346.9215517,N,07928.0343259,W,4,06,1.7,187.558,M,-37.20,M,00,0000*64
$GPGGA,165828.75,4346.9215521,N,07928.0343248,W,4,06,1.7,187.555,M,-37.20,M,00,0000*6B
$GPGGA,165829.00,4346.9215501,N,07928.0343251,W,4,06,1.7,187.559,M,-37.20,M,01,0000*6F
$GPGGA,165829.25,4346.9215528,N,07928.0343273,W,4,06,1.7,187.554,M,-37.20,M,00,0000*6F
$GPGGA,165829.50,4346.9215521,N,07928.0343264,W,4,06,1.7,187.550,M,-37.20,M,00,0000*66
$GPGGA,165829.75,4346.9215505,N,07928.0343270,W,4,06,1.7,187.560,M,-37.20,M,00,0000*61
$GPGGA,165830.00,4346.9215489,N,07928.0343272,W,4,06,1.7,187.557,M,-37.20,M,01,0000*69
$GPGGA,165830.25,4346.9215511,N,07928.0343248,W,4,06,1.7,187.555,M,-37.20,M,00,0000*64
$GPGGA,165830.50,4346.9215525,N,07928.0343268,W,4,06,1.7,187.559,M,-37.20,M,00,0000*6F
$GPGGA,165830.75,4346.9215520,N,07928.0343264,W,4,06,1.7,187.557,M,-37.20,M,00,0000*6F
$GPGGA,165831.00,4346.9215527,N,07928.0343263,W,4,06,1.7,187.553,M,-37.20,M,01,0000*69
$GPGGA,165831.25,4346.9215523,N,07928.0343255,W,4,06,1.7,187.556,M,-37.20,M,01,0000*6A
$GPGGA,165831.50,4346.9215539,N,07928.0343285,W,4,06,1.7,187.557,M,-37.20,M,00,0000*6E
$GPGGA,165831.75,4346.9215515,N,07928.0343296,W,4,06,1.7,187.553,M,-37.20,M,00,0000*61
$GPGGA,165832.00,4346.9215510,N,07928.0343285,W,4,06,1.7,187.551,M,-37.20,M,01,0000*64
$GPGGA,165832.25,4346.9215536,N,07928.0343273,W,4,06,1.7,187.558,M,-37.20,M,00,0000*66
$GPGGA,165832.50,4346.9215535,N,07928.0343310,W,4,06,1.7,187.553,M,-37.20,M,00,0000*68
$GPGGA,165832.75,4346.9215477,N,07928.0343287,W,4,06,1.7,187.552,M,-37.20,M,00,0000*66
$GPGGA,165833.00,4346.9215530,N,07928.0343304,W,4,06,1.7,187.553,M,-37.20,M,01,0000*6D
$GPGGA,165833.25,4346.9215544,N,07928.0343297,W,4,06,1.7,187.555,M,-37.20,M,01,0000*64
$GPGGA,165833.50,4346.9215529,N,07928.0343292,W,4,06,1.7,187.551,M,-37.20,M,01,0000*6C
$GPGGA,165833.75,4346.9215550,N,07928.0343295,W,4,06,1.7,187.547,M,-37.20,M,01,0000*65
$GPGGA,165834.00,4346.9215528,N,07928.0343274,W,4,06,1.7,187.558,M,-37.20,M,01,0000*6E
$GPGGA,165834.25,4346.9215516,N,07928.0343301,W,4,06,1.7,187.563,M,-37.20,M,01,0000*6F
$GPGGA,165834.50,4346.9215528,N,07928.0343259,W,4,06,1.7,187.556,M,-37.20,M,00,0000*6B
$GPGGA,165834.75,4346.9215512,N,07928.0343292,W,4,06,1.7,187.566,M,-37.20,M,00,0000*61
$GPGGA,165835.00,4346.9215504,N,07928.0343281,W,4,06,1.7,187.565,M,-37.20,M,01,0000*65
$GPGGA,165835.25,4346.9215521,N,07928.0343298,W,4,06,1.7,187.561,M,-37.20,M,01,0000*69
$GPGGA,165835.50,4346.9215519,N,07928.0343300,W,4,06,1.7,187.566,M,-37.20,M,01,0000*67
$GPGGA,165835.75,4346.9215510,N,07928.0343313,W,4,06,1.7,187.570,M,-37.20,M,01,0000*6C
$GPGGA,165836.00,4346.9215503,N,07928.0343290,W,4,06,1.7,187.573,M,-37.20,M,02,0000*65
$GPGGA,165836.25,4346.9215499,N,07928.0343313,W,4,06,1.7,187.574,M,-37.20,M,02,0000*6D
$GPGGA,165836.50,4346.9215517,N,07928.0343323,W,4,06,1.7,187.576,M,-37.20,M,02,0000*69
$GPGGA,165836.75,4346.9215508,N,07928.0343308,W,4,06,1.7,187.569,M,-37.20,M,02,0000*67
$GPGGA,165837.00,4346.9215518,N,07928.0343302,W,4,06,1.7,187.564,M,-37.20,M,03,0000*63
$GPGGA,165837.25,4346.9215525,N,07928.0343296,W,4,06,1.7,187.556,M,-37.20,M,03,0000*67
$GPGGA,165837.50,4346.9215521,N,07928.0343262,W,4,06,1.7,187.551,M,-37.20,M,03,0000*6D
$GPGGA,165837.75,4346.9215523,N,07928.0343255,W,4,06,1.7,187.549,M,-37.20,M,00,0000*66
$GPGGA,165838.00,4346.9215494,N,07928.0343246,W,4,06,1.7,187.551,M,-37.20,M,01,0000*6C
$GPGGA,165838.25,4346.9215540,N,07928.0343263,W,4,06,1.7,187.553,M,-37.20,M,00,0000*67
$GPGGA,165838.50,4346.9215326,N,07928.0343387,W,4,06,1.7,187.553,M,-37.20,M,00,0000*68
$GPGGA,165838.75,4346.9215358,N,07928.0343332,W,4,06,1.7,187.553,M,-37.20,M,00,0000*68
$GPGGA,165839.00,4346.9215397,N,07928.0343342,W,4,06,1.7,187.554,M,-37.20,M,01,0000*69
$GPGGA,165839.25,4346.9215408,N,07928.0343389,W,4,06,1.7,187.563,M,-37.20,M,01,0000*6C
$GPGGA,165839.50,4346.9215399,N,07928.0343344,W,4,06,1.7,187.566,M,-37.20,M,00,0000*64
$GPGGA,165839.75,4346.9215400,N,07928.0343338,W,4,06,1.7,187.562,M,-37.20,M,00,0000*6B
$GPGGA,165840.00,4346.9215379,N,07928.0343342,W,4,06,1.7,187.555,M,-37.20,M,01,0000*66
$GPGGA,165840.25,4346.9215381,N,07928.0343358,W,4,06,1.7,187.563,M,-37.20,M,01,0000*68
$GPGGA,165840.50,4346.9215385,N,07928.0343369,W,4,06,1.7,187.564,M,-37.20,M,01,0000*6B
$GPGGA,165840.75,4346.9215394,N,07928.0343363,W,4,06,1.7,187.562,M,-37.20,M,01,0000*60
$GPGGA,165841.00,4346.9215389,N,07928.0343381,W,4,06,1.7,187.560,M,-37.20,M,01,0000*61
$GPGGA,165841.25,4346.9215390,N,07928.0343372,W,4,06,1.7,187.559,M,-37.20,M,01,0000*68
$GPGGA,165841.50,4346.9215326,N,07928.0343338,W,4,06,1.7,187.538,M,-37.20,M,00,0000*6F
$GPGGA,165841.75,4346.9215346,N,07928.0343396,W,4,06,1.7,187.551,M,-37.20,M,00,0000*65
$GPGGA,165842.00,4346.9215373,N,07928.0343406,W,4,06,1.7,187.551,M,-37.20,M,01,0000*6D
$GPGGA,165842.25,4346.9215380,N,07928.0343376,W,4,06,1.7,187.545,M,-37.20,M,01,0000*63
$GPGGA,165842.50,4346.9215381,N,07928.0343393,W,4,06,1.7,187.548,M,-37.20,M,01,0000*66
$GPGGA,165842.75,4346.9215388,N,07928.0343421,W,4,06,1.7,187.565,M,-37.20,M,00,0000*68
$GPGGA,165843.00,4346.9215390,N,07928.0343431,W,4,06,1.7,187.565,M,-37.20,M,01,0000*62
$GPGGA,165843.25,4346.9215385,N,07928.0343419,W,4,06,1.7,187.558,M,-37.20,M,01,0000*65
$GPGGA,165843.50,4346.9215398,N,07928.0343415,W,4,06,1.7,187.568,M,-37.20,M,00,0000*65
$GPGGA,165843.75,4346.9215388,N,07928.0343404,W,4,06,1.7,187.560,M,-37.20,M,00,0000*6B
$GPGGA,165844.00,4346.9215391,N,07928.0343398,W,4,06,1.7,187.567,M,-37.20,M,01,0000*62
$GPGGA,165844.25,4346.9215388,N,07928.0343410,W,4,06,1.7,187.568,M,-37.20,M,00,0000*64
$GPGGA,165844.50,4346.9215275,N,07928.0343481,W,4,06,1.7,187.577,M,-37.20,M,00,0000*63
$GPGGA,165844.75,4346.9215131,N,07928.0343610,W,4,06,1.7,187.581,M,-37.20,M,00,0000*64
$GPGGA,165845.00,4346.9214879,N,07928.0343726,W,4,06,1.7,187.578,M,-37.20,M,01,0000*60
$GPGGA,165845.25,4346.9214554,N,07928.0343961,W,4,06,1.7,187.581,M,-37.20,M,00,0000*6F
$GPGGA,165845.50,4346.9214059,N,07928.0344167,W,4,06,1.7,187.560,M,-37.20,M,00,0000*63
$GPGGA,165845.75,4346.9213570,N,07928.0344403,W,4,06,1.7,187.571,M,-37.20,M,00,0000*6A
$GPGGA,165846.00,4346.9213029,N,07928.0344529,W,4,06,1.7,187.564,M,-37.20,M,01,0000*6E
$GPGGA,165846.25,4346.9212498,N,07928.0344799,W,4,06,1.7,187.568,M,-37.20,M,00,0000*62
